%time,field.header.seq,field.header.stamp,field.header.frame_id,field.pose.position.x,field.pose.position.y,field.pose.position.z,field.pose.orientation.x,field.pose.orientation.y,field.pose.orientation.z,field.pose.orientation.w
1555363339057432738,35667,1555363339057432738,world,-2.89000701904,-0.814115762711,0.79706454277,0.688295543194,-0.226609691978,0.382599473,-0.573162257671
1555363339067693474,35668,1555363339067693474,world,-2.88965797424,-0.813976764679,0.796972036362,0.689861893654,-0.227163746953,0.380769103765,-0.572278141975
1555363339067758493,35669,1555363339067758493,world,-2.88997077942,-0.81418800354,0.797066688538,0.688231647015,-0.227068334818,0.382904946804,-0.572853446007
1555363339077135398,35670,1555363339077135398,world,-2.89004421234,-0.814234018326,0.79709982872,0.687600493431,-0.227083727717,0.383664309978,-0.573097169399
1555363339087801417,35671,1555363339087801417,world,-2.88963508606,-0.81405210495,0.79688334465,0.68959748745,-0.228172793984,0.381108105183,-0.57196944952
1555363339097077557,35672,1555363339097077557,world,-2.88948249817,-0.813934326172,0.796904325485,0.690217733383,-0.228365987539,0.380113273859,-0.571806311607
1555363339107454780,35673,1555363339107454780,world,-2.88993644714,-0.814121484756,0.797115325928,0.687074899673,-0.23052111268,0.383453667164,-0.572495818138
1555363339116776684,35674,1555363339116776684,world,-2.89009666443,-0.814223527908,0.797153711319,0.687267839909,-0.228063046932,0.38355371356,-0.573181331158
1555363339147617529,35675,1555363339147617529,world,-2.88974475861,-0.813967943192,0.796977519989,0.688467860222,-0.230709642172,0.381388694048,-0.572125732899
1555363339147653821,35676,1555363339147653821,world,-2.88962554932,-0.813901901245,0.796844005585,0.689020454884,-0.231384888291,0.380541920662,-0.57175141573
1555363339147695264,35677,1555363339147695264,world,-2.88961219788,-0.813855648041,0.796861410141,0.689152061939,-0.231224671006,0.380374670029,-0.571768820286
1555363339147711403,35678,1555363339147711403,world,-2.89008808136,-0.81411242485,0.79709982872,0.68823081255,-0.226859793067,0.382229208946,-0.573387980461
1555363339156937170,35679,1555363339156937170,world,-2.89024066925,-0.814197063446,0.79718208313,0.686714112759,-0.228751093149,0.383969902992,-0.573292016983
1555363339167199881,35680,1555363339167199881,world,-2.88986778259,-0.813919305801,0.796999692917,0.68858808279,-0.229872316122,0.38110691309,-0.572505652905
1555363339177537334,35681,1555363339177537334,world,-2.88962650299,-0.813963651657,0.796813488007,0.690190076828,-0.228407785296,0.380155265331,-0.571795046329
1555363339177574821,35682,1555363339177574821,world,-2.88959026337,-0.813903331757,0.796775579453,0.689538657665,-0.230395451188,0.380516886711,-0.571542978287
1555363339186951611,35683,1555363339186951611,world,-2.88964271545,-0.813838720322,0.796878099442,0.689282059669,-0.230569392443,0.380572021008,-0.571745574474
1555363339197214864,35684,1555363339197214864,world,-2.88990783691,-0.814162969589,0.797075271606,0.686656951904,-0.23135779798,0.384537756443,-0.571932315826
1555363339207490683,35685,1555363339207490683,world,-2.8897228241,-0.813969612122,0.797001361847,0.688221693039,-0.230802640319,0.382307946682,-0.571770787239
1555363339216715247,35686,1555363339216715247,world,-2.8896112442,-0.813880681992,0.796882629395,0.688941419125,-0.230615764856,0.381269395351,-0.571672797203
1555363339226984344,35687,1555363339226984344,world,-2.88955116272,-0.813894510269,0.796781539917,0.689170479774,-0.230915099382,0.381266117096,-0.571277976036
1555363339237262709,35688,1555363339237262709,world,-2.88957214355,-0.813875198364,0.796846151352,0.689098656178,-0.230427712202,0.381061047316,-0.571697950363
1555363339247577546,35689,1555363339247577546,world,-2.89007663727,-0.814071893692,0.797170877457,0.686943233013,-0.22901712358,0.383453130722,-0.573257148266
1555363339247628086,35690,1555363339247628086,world,-2.89023113251,-0.814158201218,0.797303199768,0.686318695545,-0.228564396501,0.384282052517,-0.573630750179
1555363339256892014,35691,1555363339256892014,world,-2.88960933685,-0.814138889313,0.796895503998,0.688134789467,-0.231172844768,0.383135706186,-0.571171283722
1555363339267175622,35692,1555363339267175622,world,-2.88956546783,-0.813971042633,0.796787500381,0.689181506634,-0.230655103922,0.381066977978,-0.571502327919
1555363339277450713,35693,1555363339277450713,world,-2.88956165314,-0.813987970352,0.796809196472,0.690438628197,-0.227781265974,0.379844456911,-0.571951329708
1555363339277497651,35694,1555363339277497651,world,-2.88962554932,-0.814016819,0.796905755997,0.690565049648,-0.22684276104,0.379797786474,-0.57220262289
1555363339297115617,35695,1555363339297115617,world,-2.89016628265,-0.814114093781,0.797198057175,0.687476456165,-0.228059709072,0.382765501738,-0.573459327221
1555363339297153669,35696,1555363339297153669,world,-2.88984775543,-0.813960075378,0.797018766403,0.688438236713,-0.229925021529,0.381479382515,-0.57241666317
1555363339307408574,35697,1555363339307408574,world,-2.88965702057,-0.81399679184,0.79683303833,0.689915120602,-0.228229954839,0.380577236414,-0.571917235851
1555363339316682474,35698,1555363339316682474,world,-2.88960838318,-0.814008235931,0.796788215637,0.690319776535,-0.227751508355,0.380414485931,-0.571727871895
1555363339327096997,35699,1555363339327096997,world,-2.88963699341,-0.81397819519,0.796856403351,0.690138280392,-0.227731764317,0.380467623472,-0.571919500828
1555363339337499643,35700,1555363339337499643,world,-2.88965892792,-0.813960313797,0.796917438507,0.690006732941,-0.227742493153,0.380598843098,-0.571986496449
1555363339337542990,35701,1555363339337542990,world,-2.88965606689,-0.813966274261,0.796947479248,0.689805150032,-0.227960586548,0.380812883377,-0.572000324726
1555363339357139173,35702,1555363339357139173,world,-2.88953781128,-0.814025878906,0.796850919724,0.688445925713,-0.231897264719,0.382922947407,-0.570645272732
1555363339357212167,35703,1555363339357212167,world,-2.88966274261,-0.813908100128,0.796869039536,0.688328146935,-0.231817036867,0.382146894932,-0.571339786053
1555363339367454963,35704,1555363339367454963,world,-2.88963794708,-0.81392121315,0.796822547913,0.689451277256,-0.228972345591,0.381135165691,-0.571808159351
1555363339376701654,35705,1555363339376701654,world,-2.88967227936,-0.81396484375,0.796870946884,0.689723908901,-0.227961808443,0.380856335163,-0.572068810463
1555363339386934264,35706,1555363339386934264,world,-2.8899230957,-0.814282894135,0.797100543976,0.686301708221,-0.231261640787,0.38545897603,-0.571777403355
1555363339397185951,35707,1555363339397185951,world,-2.88976192474,-0.814098358154,0.79701590538,0.688743233681,-0.228585198522,0.382128000259,-0.572153687477
1555363339397236070,35708,1555363339397236070,world,-2.88975715637,-0.813920974731,0.796980142593,0.688721418381,-0.229932412505,0.381190121174,-0.572265744209
1555363339407540313,35709,1555363339407540313,world,-2.8895111084,-0.814113140106,0.796771764755,0.688255608082,-0.232612982392,0.383047699928,-0.570499718189
1555363339416980294,35710,1555363339416980294,world,-2.89009189606,-0.814173221588,0.797024011612,0.686418116093,-0.230703607202,0.384209275246,-0.572703421116
1555363339427348611,35711,1555363339427348611,world,-2.89030647278,-0.814157485962,0.79720044136,0.686043679714,-0.229342997074,0.384124130011,-0.57375472784
1555363339427403179,35712,1555363339427403179,world,-2.89038944244,-0.814113616943,0.797275543213,0.686323821545,-0.228402167559,0.383608460426,-0.57413995266
1555363339437712352,35713,1555363339437712352,world,-2.8898639679,-0.813934803009,0.797031879425,0.689613819122,-0.22676576674,0.380156487226,-0.57314157486
1555363339447037656,35714,1555363339447037656,world,-2.88965320587,-0.813866853714,0.796848535538,0.689636588097,-0.229486703873,0.380207628012,-0.571996152401
1555363339457366916,35715,1555363339457366916,world,-2.8896112442,-0.813848257065,0.796786785126,0.68960493803,-0.230374231935,0.380408346653,-0.571543812752
1555363339467718011,35716,1555363339467718011,world,-2.88959312439,-0.813850641251,0.796832084656,0.689336180687,-0.230655103922,0.380682766438,-0.571572005749
1555363339467789449,35717,1555363339467789449,world,-2.89005374908,-0.814123153687,0.79708814621,0.688181042671,-0.226825281978,0.382720947266,-0.573133349419
1555363339487344243,35718,1555363339487344243,world,-2.88974475861,-0.813920736313,0.796985149384,0.68883317709,-0.229353874922,0.381418049335,-0.572211444378
1555363339487399868,35719,1555363339487399868,world,-2.89005088806,-0.814072847366,0.797084331512,0.686927199364,-0.229827404022,0.383571267128,-0.572872936726
1555363339517370934,35720,1555363339517370934,world,-2.88969135284,-0.813928842545,0.796922206879,0.688439130783,-0.230708673596,0.381843537092,-0.571857273579
1555363339517444514,35721,1555363339517444514,world,-2.88956165314,-0.813968896866,0.796855211258,0.690090715885,-0.228227034211,0.380607187748,-0.571686565876
1555363339517464645,35722,1555363339517464645,world,-2.88952922821,-0.81397151947,0.796885967255,0.690399587154,-0.227598085999,0.380326211452,-0.571751236916
1555363339526774591,35723,1555363339526774591,world,-2.88998699188,-0.814146280289,0.797069311142,0.68840610981,-0.226400181651,0.382624447346,-0.573095500469
1555363339547338537,35724,1555363339547338537,world,-2.88973999023,-0.813962936401,0.796943187714,0.68861156702,-0.229812324047,0.381699711084,-0.572106480598
1555363339547401304,35725,1555363339547401304,world,-2.88963890076,-0.813917398453,0.796879529953,0.688746452332,-0.231242254376,0.381580263376,-0.571447253227
1555363339547420943,35726,1555363339547420943,world,-2.88966941833,-0.813857078552,0.796873092651,0.688859343529,-0.230920061469,0.381127178669,-0.571743667126
1555363339566964471,35727,1555363339566964471,world,-2.88962078094,-0.813946247101,0.796830415726,0.689914047718,-0.228508323431,0.380638569593,-0.571766376495
1555363339567016512,35728,1555363339567016512,world,-2.88964557648,-0.813992023468,0.796841859818,0.690165758133,-0.227712482214,0.38056614995,-0.571828484535
1555363339577346217,35729,1555363339577346217,world,-2.88970470428,-0.813876390457,0.796936273575,0.689107656479,-0.229761436582,0.380926698446,-0.572044670582
1555363339577409352,35730,1555363339577409352,world,-2.89017963409,-0.814093589783,0.797110319138,0.686706900597,-0.229990720749,0.383607208729,-0.573047578335
1555363339597134747,35731,1555363339597134747,world,-2.88981723785,-0.813954591751,0.796926259995,0.688132166862,-0.230919450521,0.382108837366,-0.571964323521
1555363339607527592,35732,1555363339607527592,world,-2.88969993591,-0.81395983696,0.796840429306,0.688614904881,-0.231248155236,0.381710112095,-0.571516573429
1555363339607558934,35733,1555363339607558934,world,-2.88996505737,-0.814234972,0.797044754028,0.686497569084,-0.231322199106,0.385050624609,-0.571792840958
1555363339616922956,35734,1555363339616922956,world,-2.89021492004,-0.814164876938,0.797185659409,0.686099052429,-0.22965760529,0.384716898203,-0.573165237904
1555363339627316111,35735,1555363339627316111,world,-2.88982868195,-0.813944101334,0.796984910965,0.688382565975,-0.229933321476,0.381685346365,-0.572342991829
1555363339637767759,35736,1555363339637767759,world,-2.88963890076,-0.813887119293,0.796866178513,0.689225256443,-0.230307713151,0.380785524845,-0.571777403355
1555363339637814097,35737,1555363339637814097,world,-2.88960361481,-0.813870429993,0.79682803154,0.689459443092,-0.230169922113,0.380402743816,-0.571805179119
1555363339647151108,35738,1555363339647151108,world,-2.88958263397,-0.813937902451,0.796870946884,0.690333485603,-0.227650180459,0.379905372858,-0.572090089321
1555363339657562076,35739,1555363339657562076,world,-2.88963890076,-0.81386756897,0.796960115433,0.689551949501,-0.229062870145,0.380299776793,-0.572206616402
1555363339666894565,35740,1555363339666894565,world,-2.88960647583,-0.813997030258,0.796914100647,0.690115213394,-0.227655425668,0.38049018383,-0.571962475777
1555363339677159576,35741,1555363339677159576,world,-2.88966941833,-0.813934326172,0.796931505203,0.689169943333,-0.229580745101,0.381021499634,-0.571979165077
1555363339687553431,35742,1555363339687553431,world,-2.88969898224,-0.813977956772,0.796891689301,0.689785778522,-0.22772654891,0.380550593138,-0.572291374207
1555363339687614511,35743,1555363339687614511,world,-2.88972473145,-0.813921928406,0.796900749207,0.688935518265,-0.229782372713,0.381148904562,-0.572095692158
1555363339696890386,35744,1555363339696890386,world,-2.88953018188,-0.814083576202,0.796838521957,0.688355505466,-0.232287734747,0.383053570986,-0.570507824421
1555363339707133011,35745,1555363339707133011,world,-2.88961982727,-0.81404542923,0.796850442886,0.689465165138,-0.229004606605,0.38158839941,-0.571476280689
1555363339717449672,35746,1555363339717449672,world,-2.89011287689,-0.814165830612,0.797114133835,0.686699092388,-0.229571118951,0.384131073952,-0.572874307632
1555363339726650551,35747,1555363339726650551,world,-2.88971042633,-0.814116716385,0.79696059227,0.687732100487,-0.231648668647,0.383594691753,-0.571155488491
1555363339726702401,35748,1555363339726702401,world,-2.88970947266,-0.813905715942,0.796889066696,0.688684105873,-0.230866789818,0.381737947464,-0.571568787098
1555363339736957569,35749,1555363339736957569,world,-2.88970375061,-0.813872814178,0.796827554703,0.688904941082,-0.230635270476,0.381108433008,-0.571816146374
1555363339747306016,35750,1555363339747306016,world,-2.89008998871,-0.814105033875,0.797035694122,0.68792372942,-0.226899579167,0.382772237062,-0.573378562927
1555363339757723621,35751,1555363339757723621,world,-2.88976764679,-0.814012765884,0.796957015991,0.689562499523,-0.226774603128,0.381091177464,-0.572578787804
1555363339767050813,35752,1555363339767050813,world,-2.89017105103,-0.81406712532,0.797213554382,0.687099993229,-0.228078901768,0.383251458406,-0.573578178883
1555363339777361609,35753,1555363339777361609,world,-2.88979816437,-0.813881874084,0.797032356262,0.68851685524,-0.229756981134,0.381396859884,-0.572444498539
1555363339777388490,35754,1555363339777388490,world,-2.88958263397,-0.813902139664,0.79679942131,0.688970327377,-0.231268599629,0.38125410676,-0.571384310722
1555363339787802960,35755,1555363339787802960,world,-2.88956356049,-0.813916683197,0.796782016754,0.690165281296,-0.228605672717,0.380033910275,-0.571826517582
1555363339797193204,35756,1555363339797193204,world,-2.88994884491,-0.814160108566,0.79704284668,0.688285887241,-0.226890459657,0.382846057415,-0.572898209095
1555363339807486117,35757,1555363339807486117,world,-2.89019203186,-0.814167261124,0.797226190567,0.686647355556,-0.228707328439,0.384243190289,-0.573206543922
1555363339826919494,35758,1555363339826919494,world,-2.88959884644,-0.814148664474,0.796941280365,0.688973009586,-0.229294314981,0.382838726044,-0.5711171031
1555363339826977886,35760,1555363339826977886,world,-2.88999843597,-0.814071416855,0.796969652176,0.687005102634,-0.230667844415,0.38339227438,-0.572561562061
1555363339837304946,35761,1555363339837304946,world,-2.8897600174,-0.813905715942,0.796915769577,0.688422977924,-0.230901777744,0.381609171629,-0.571955144405
1555363339847639668,35762,1555363339847639668,world,-2.88970279694,-0.813801050186,0.796918153763,0.689038336277,-0.23044539988,0.380622208118,-0.572055876255
1555363339857007998,35763,1555363339857007998,world,-2.88985443115,-0.814177036285,0.796999454498,0.686807990074,-0.232062369585,0.384587347507,-0.571432054043
1555363339867340735,35764,1555363339867340735,world,-2.88972949982,-0.813918590546,0.796903371811,0.688632071018,-0.230694800615,0.381719768047,-0.571713030338
1555363339907440458,35765,1555363339907440458,world,-2.88968849182,-0.813812494278,0.796868085861,0.68919044733,-0.2301299721,0.380562126637,-0.572039663792
1555363339907540334,35766,1555363339907540334,world,-2.88963508606,-0.813934803009,0.796797513962,0.69034743309,-0.227717086673,0.380104720592,-0.571914255619
1555363339907594246,35768,1555363339907594246,world,-2.88970756531,-0.813862085342,0.796980381012,0.689146399498,-0.229671671987,0.380626648664,-0.57223379612
1555363339907650878,35769,1555363339907650878,world,-2.88972854614,-0.813868045807,0.797010183334,0.688926637173,-0.229780942202,0.380874693394,-0.572289586067
1555363339916903130,35770,1555363339916903130,world,-2.88967132568,-0.813964605331,0.796912908554,0.689755141735,-0.227825865149,0.380611330271,-0.572248399258
1555363339927266892,35771,1555363339927266892,world,-2.88963699341,-0.814016819,0.796806812286,0.690082013607,-0.227487236261,0.380665659904,-0.571952819824
1555363339927340039,35772,1555363339927340039,world,-2.88966751099,-0.81396651268,0.796837806702,0.689000189304,-0.229946792126,0.381368666887,-0.571805119514
1555363339937653784,35773,1555363339937653784,world,-2.88973617554,-0.813871145248,0.796979427338,0.688642263412,-0.230029299855,0.381125539541,-0.572365105152
1555363339946947135,35774,1555363339946947135,world,-2.88975334167,-0.813847303391,0.797047138214,0.68857884407,-0.230368480086,0.381278812885,-0.572202801704
1555363339957213626,35775,1555363339957213626,world,-2.89008045197,-0.814175128937,0.797055482864,0.687583088875,-0.227636933327,0.383614122868,-0.572932183743
1555363339967609917,35776,1555363339967609917,world,-2.88975334167,-0.814030170441,0.796869039536,0.689407467842,-0.227380439639,0.381382256746,-0.572331190109
1555363339976964738,35777,1555363339976964738,world,-2.89000892639,-0.813447475433,0.797114610672,0.688191771507,-0.229183599353,0.374767780304,-0.577422082424
1555363339997636378,35778,1555363339997636378,world,-2.89021587372,-0.813911676407,0.797215938568,0.686487495899,-0.229410037398,0.381964385509,-0.57463824749
1555363339997704434,35780,1555363339997704434,world,-2.88957881927,-0.8140604496,0.796802997589,0.689756572247,-0.229005113244,0.38198786974,-0.570857167244
1555363340007058530,35781,1555363340007058530,world,-2.88962364197,-0.813969135284,0.796837806702,0.689351916313,-0.230026930571,0.381756454706,-0.571089923382
1555363340017387659,35782,1555363340017387659,world,-2.88971424103,-0.813897132874,0.796889066696,0.689241588116,-0.230064079165,0.381078183651,-0.571660876274
1555363340017438568,35783,1555363340017438568,world,-2.8901386261,-0.814119100571,0.79714679718,0.686878025532,-0.229615867138,0.383861631155,-0.572822451591
1555363340026668968,35784,1555363340026668968,world,-2.89022064209,-0.814166069031,0.79715013504,0.686318576336,-0.22938786447,0.384436547756,-0.573198497295
1555363340037009868,35785,1555363340037009868,world,-2.88976383209,-0.81400847435,0.7969186306,0.688295304775,-0.230523735285,0.382282793522,-0.571811318398
1555363340047311592,35786,1555363340047311592,world,-2.88961791992,-0.813932418823,0.796886205673,0.689085364342,-0.230470612645,0.381389826536,-0.571477532387
1555363340057705865,35787,1555363340057705865,world,-2.88962745667,-0.813853502274,0.796896934509,0.689365625381,-0.230126589537,0.380603343248,-0.571802258492
1555363340067031169,35788,1555363340067031169,world,-2.8896150589,-0.813946485519,0.796880960464,0.690220177174,-0.227759718895,0.380103379488,-0.572051584721
1555363340077404813,35789,1555363340077404813,world,-2.88955783844,-0.813988447189,0.796847343445,0.690463066101,-0.227284908295,0.380402415991,-0.571748495102
1555363340087115761,35790,1555363340087115761,world,-2.890001297,-0.81418633461,0.79700255394,0.688258826733,-0.226422175765,0.383053034544,-0.572977602482
1555363340087175970,35791,1555363340087175970,world,-2.88977432251,-0.813946485519,0.796946525574,0.688654124737,-0.229568779469,0.381759852171,-0.5721129179
1555363340097551999,35792,1555363340097551999,world,-2.88994789124,-0.814249038696,0.797036170959,0.686272263527,-0.231855690479,0.385301977396,-0.571678042412
1555363340106951529,35793,1555363340106951529,world,-2.88974380493,-0.813952445984,0.796962976456,0.688107550144,-0.231134310365,0.382225394249,-0.571829259396
1555363340117331209,35794,1555363340117331209,world,-2.89009571075,-0.814010858536,0.797089338303,0.686748802662,-0.229681178927,0.383418232203,-0.573247969151
1555363340127763948,35795,1555363340127763948,world,-2.88975811005,-0.813883543015,0.796864271164,0.688576042652,-0.230423748493,0.381381243467,-0.572115600109
1555363340127820368,35796,1555363340127820368,world,-2.89008140564,-0.814006567001,0.797070503235,0.687255144119,-0.229520589113,0.382981002331,-0.572997689247
1555363340137184929,35797,1555363340137184929,world,-2.88975429535,-0.813910722733,0.796926021576,0.688753426075,-0.230163395405,0.381380051374,-0.572007596493
1555363340147585202,35798,1555363340147585202,world,-2.88966178894,-0.813836574554,0.796903610229,0.689343571663,-0.23011572659,0.380601376295,-0.571834683418
1555363340157028276,35799,1555363340157028276,world,-2.88981246948,-0.814225196838,0.796979188919,0.686936557293,-0.231676593423,0.384734988213,-0.571334600449
1555363340167315185,35800,1555363340167315185,world,-2.88964557648,-0.81399679184,0.796847820282,0.688701868057,-0.231039792299,0.381962031126,-0.571327745914
1555363340177583660,35801,1555363340177583660,world,-2.89004993439,-0.814112186432,0.797019720078,0.688332557678,-0.226593792439,0.382517844439,-0.573178589344
1555363340177622399,35802,1555363340177622399,world,-2.889960289,-0.814296245575,0.797000408173,0.686663746834,-0.230349034071,0.385080248117,-0.571966230869
1555363340186942018,35803,1555363340186942018,world,-2.88974380493,-0.81396484375,0.796913385391,0.688686847687,-0.230205744505,0.381617575884,-0.57191246748
1555363340197323041,35804,1555363340197323041,world,-2.88961791992,-0.813843011856,0.796918153763,0.690390229225,-0.22747451067,0.379663825035,-0.572251796722
1555363340207745651,35805,1555363340207745651,world,-2.88963603973,-0.813811779022,0.796889781952,0.689848721027,-0.22929893434,0.379879385233,-0.572033703327
1555363340217055387,35806,1555363340217055387,world,-2.88961219788,-0.813831329346,0.796856641769,0.689259707928,-0.230396956205,0.38070628047,-0.571752607822
1555363340227356996,35807,1555363340227356996,world,-2.88960361481,-0.813884496689,0.796823740005,0.689033150673,-0.231025129557,0.381077229977,-0.571525037289
1555363340237786330,35808,1555363340237786330,world,-2.88966178894,-0.813869714737,0.796881914139,0.689042031765,-0.230514392257,0.380993515253,-0.571776330471
1555363340247061324,35809,1555363340247061324,world,-2.89010810852,-0.814097881317,0.797170877457,0.686793029308,-0.229618564248,0.383859157562,-0.572924852371
1555363340247088360,35810,1555363340247088360,world,-2.88982868195,-0.813938140869,0.797004938126,0.688304662704,-0.229923605919,0.38185441494,-0.572327852249
1555363340257507522,35811,1555363340257507522,world,-2.88951873779,-0.814048051834,0.796803712845,0.688621401787,-0.231667667627,0.382720828056,-0.570662379265
1555363340266901937,35812,1555363340266901937,world,-2.89000701904,-0.814158201218,0.796996116638,0.686868011951,-0.230218932033,0.384085208178,-0.572442352772
1555363340277351910,35813,1555363340277351910,world,-2.88979911804,-0.813942670822,0.796954393387,0.688465893269,-0.229863584042,0.381728798151,-0.572241663933
1555363340277401978,35814,1555363340277401978,world,-2.89017677307,-0.814076662064,0.797163486481,0.687053799629,-0.228785201907,0.383354872465,-0.573283076286
1555363340296965572,35815,1555363340296965572,world,-2.88981628418,-0.813916683197,0.797019004822,0.688758730888,-0.229517236352,0.381339609623,-0.572287738323
1555363340297009672,35816,1555363340297009672,world,-2.88962173462,-0.814000606537,0.796857595444,0.69018214941,-0.227747574449,0.380484163761,-0.571849226952
1555363340307316416,35817,1555363340307316416,world,-2.88999557495,-0.814168453217,0.796983957291,0.688678324223,-0.226077243686,0.382396221161,-0.5730484128
1555363340317741160,35818,1555363340317741160,world,-2.88974666595,-0.813975334167,0.796900272369,0.68899589777,-0.229371845722,0.381444603205,-0.571990609169
1555363340317788214,35819,1555363340317788214,world,-2.89008045197,-0.814052581787,0.797103404999,0.687106788158,-0.229353129864,0.383248239756,-0.573063790798
1555363340327095928,35820,1555363340327095928,world,-2.88976573944,-0.813906908035,0.796978235245,0.688614487648,-0.230286568403,0.381456047297,-0.572074711323
1555363340337434132,35821,1555363340337434132,world,-2.88945960999,-0.814008712769,0.796839952469,0.688726365566,-0.23201072216,0.382653176785,-0.570441603661
1555363340346727337,35822,1555363340346727337,world,-2.8899564743,-0.814165592194,0.797040224075,0.686732411385,-0.231006771326,0.384276807308,-0.57215899229
1555363340357023005,35823,1555363340357023005,world,-2.88969993591,-0.814002037048,0.796923875809,0.68954282999,-0.228022247553,0.381016075611,-0.572156727314
1555363340367345840,35824,1555363340367345840,world,-2.88942813873,-0.814091205597,0.796768665314,0.690214335918,-0.228484138846,0.381564289331,-0.570795953274
1555363340367377853,35825,1555363340367377853,world,-2.88952445984,-0.813987016678,0.7967877388,0.690513372421,-0.227583289146,0.380402177572,-0.57156920433
1555363340386990580,35826,1555363340386990580,world,-2.88961315155,-0.813904285431,0.796859025955,0.69048756361,-0.227227568626,0.379812389612,-0.572133898735
1555363340397438077,35827,1555363340397438077,world,-2.88972377777,-0.813840866089,0.796954393387,0.689217627048,-0.229593247175,0.380381554365,-0.572342634201
1555363340397482945,35828,1555363340397482945,world,-2.88953208923,-0.814009904861,0.79685997963,0.688401401043,-0.232374429703,0.38272601366,-0.570636868477
1555363340406777420,35829,1555363340406777420,world,-2.88969802856,-0.813896179199,0.796848773956,0.688526034355,-0.231239110231,0.381504416466,-0.571764588356
1555363340417166267,35830,1555363340417166267,world,-2.88970851898,-0.813848018646,0.796881437302,0.688641905785,-0.230764776468,0.381164669991,-0.572043299675
1555363340427501855,35831,1555363340427501855,world,-2.88978290558,-0.813861846924,0.796942949295,0.688609480858,-0.230310797691,0.380983233452,-0.572386085987
1555363340427548649,35832,1555363340427548649,world,-2.89022731781,-0.814075708389,0.797204971313,0.686579227448,-0.229146003723,0.383617639542,-0.573531746864
1555363340436895998,35833,1555363340436895998,world,-2.89031124115,-0.814185857773,0.797224760056,0.685942947865,-0.229325741529,0.384594112635,-0.573567390442
1555363340447204602,35834,1555363340447204602,world,-2.88978099823,-0.814098119736,0.79688000679,0.689209699631,-0.227944374084,0.381718754768,-0.572120904922
1555363340457582371,35835,1555363340457582371,world,-2.88979530334,-0.814383268356,0.796904087067,0.687867283821,-0.228442594409,0.384651631117,-0.571573138237
1555363340466913703,35836,1555363340466913703,world,-2.88963890076,-0.814079523087,0.796878814697,0.689813435078,-0.227466285229,0.381294459105,-0.571866214275
1555363340477322271,35837,1555363340477322271,world,-2.89002418518,-0.814126014709,0.797130346298,0.68846231699,-0.225975632668,0.382605820894,-0.573208093643
1555363340477352250,35838,1555363340477352250,world,-2.88975524902,-0.813889741898,0.796982526779,0.688958764076,-0.229424253106,0.381035864353,-0.57228654623
1555363340487770613,35839,1555363340487770613,world,-2.88962268829,-0.81379532814,0.796787023544,0.689182519913,-0.231078624725,0.380624771118,-0.571624875069
1555363340497218952,35840,1555363340497218952,world,-2.89001560211,-0.81402349472,0.796977043152,0.686996161938,-0.230841293931,0.383303880692,-0.572561502457
1555363340507657732,35841,1555363340507657732,world,-2.88994216919,-0.81431555748,0.797001600266,0.687057197094,-0.229646012187,0.385048061609,-0.571798205376
1555363340517030654,35842,1555363340517030654,world,-2.8901758194,-0.814130067825,0.797165870667,0.686573684216,-0.229187861085,0.384194076061,-0.573135733604
1555363340537683955,35843,1555363340537683955,world,-2.89012813568,-0.81415104866,0.797115564346,0.687581956387,-0.226923972368,0.383499920368,-0.573292613029
1555363340546972461,35844,1555363340546972461,world,-2.88963127136,-0.814004659653,0.796802759171,0.690025806427,-0.227671325207,0.380815207958,-0.571847736835
1555363340547021992,35845,1555363340547021992,world,-2.88951778412,-0.813849925995,0.796768665314,0.689764916897,-0.230399906635,0.380385488272,-0.571355640888
1555363340547083513,35846,1555363340547083513,world,-2.8899679184,-0.814062595367,0.79701757431,0.68854033947,-0.227098241448,0.38225799799,-0.572902619839
1555363340557498360,35847,1555363340557498360,world,-2.89015769958,-0.814115285873,0.797153949738,0.687927305698,-0.226077914238,0.382791191339,-0.573686122894
1555363340566664905,35848,1555363340566664905,world,-2.88968276978,-0.813965559006,0.796932697296,0.689785182476,-0.227562621236,0.38071206212,-0.572250068188
1555363340576882391,35849,1555363340576882391,world,-2.88937568665,-0.814115285873,0.796715021133,0.690067708492,-0.229788675904,0.381742835045,-0.570329904556
1555363340587080440,35850,1555363340587080440,world,-2.889295578,-0.814104557037,0.796705007553,0.69002777338,-0.23030783236,0.381919741631,-0.570050299168
1555363340587099351,35851,1555363340587099351,world,-2.88998413086,-0.814044952393,0.797019720078,0.687265276909,-0.230245873332,0.38318964839,-0.572554707527
1555363340597278237,35852,1555363340597278237,world,-2.8897895813,-0.813851356506,0.796991348267,0.688336551189,-0.231060132384,0.381456762552,-0.572096765041
1555363340607561853,35853,1555363340607561853,world,-2.88973808289,-0.813775777817,0.797006130219,0.68872153759,-0.230892166495,0.380710780621,-0.572198331356
1555363340616847481,35854,1555363340616847481,world,-2.88966178894,-0.813804864883,0.796907663345,0.688956618309,-0.231093555689,0.380870759487,-0.571727216244
1555363340627118907,35855,1555363340627118907,world,-2.8896484375,-0.813859701157,0.796823978424,0.689012527466,-0.231066033244,0.381047070026,-0.571553528309
1555363340627158205,35856,1555363340627158205,world,-2.88963890076,-0.813937425613,0.796829938889,0.690018951893,-0.228179708123,0.380406200886,-0.571925699711
1555363340637439129,35857,1555363340637439129,world,-2.89012145996,-0.814100027084,0.797127008438,0.6871047616,-0.228727355599,0.383440852165,-0.573187530041
1555363340667192223,35858,1555363340667192223,world,-2.88980102539,-0.814025402069,0.797015666962,0.689188361168,-0.227475062013,0.381458580494,-0.572506606579
1555363340677455421,35859,1555363340677455421,world,-2.88955402374,-0.814090967178,0.796875715256,0.688648819923,-0.231210246682,0.38279658556,-0.570763766766
1555363340677517930,35860,1555363340677517930,world,-2.88947296143,-0.814060688019,0.796739578247,0.688534855843,-0.232390120625,0.382962733507,-0.570310533047
1555363340677545701,35861,1555363340677545701,world,-2.88963699341,-0.813932418823,0.796812295914,0.688762009144,-0.231223359704,0.381631791592,-0.571401655674
1555363340677571937,35862,1555363340677571937,world,-2.89011764526,-0.814073324203,0.797099113464,0.686850130558,-0.229742929339,0.383609443903,-0.572973787785
1555363340686842042,35863,1555363340686842042,world,-2.88987445831,-0.813917636871,0.797044754028,0.688314735889,-0.229820951819,0.381634354591,-0.572503685951
1555363340697364948,35864,1555363340697364948,world,-2.88975143433,-0.813886642456,0.796962499619,0.688885331154,-0.230052947998,0.380992174149,-0.572151720524
1555363340708180163,35865,1555363340708180163,world,-2.89012813568,-0.814031839371,0.797045707703,0.687076628208,-0.229181140661,0.383109420538,-0.573261737823
1555363340717521409,35866,1555363340717521409,world,-2.88967514038,-0.814048290253,0.796811819077,0.688413381577,-0.231043249369,0.38263425231,-0.571224272251
1555363340726692245,35867,1555363340726692245,world,-2.88966083527,-0.813875436783,0.796905040741,0.689118862152,-0.230160668492,0.381022661924,-0.571806967258
1555363340736997848,35868,1555363340736997848,world,-2.88990592957,-0.814220428467,0.797056436539,0.686825096607,-0.231023564935,0.384777963161,-0.571703970432
1555363340737048163,35869,1555363340737048163,world,-2.88968276978,-0.814034938812,0.79695391655,0.689536571503,-0.227957412601,0.381445676088,-0.571903884411
1555363340747292845,35870,1555363340747292845,world,-2.88966178894,-0.81390619278,0.796899557114,0.689439952374,-0.22932818532,0.380805075169,-0.571899056435
1555363340757719051,35871,1555363340757719051,world,-2.88964176178,-0.813850641251,0.796792984009,0.68931645155,-0.230087891221,0.380485534668,-0.571955442429
1555363340766975987,35872,1555363340766975987,world,-2.88949489594,-0.81400847435,0.796735286713,0.68887847662,-0.231686368585,0.382194757462,-0.570697069168
1555363340777234953,35873,1555363340777234953,world,-2.89008426666,-0.814117908478,0.797100305557,0.686905920506,-0.229719176888,0.383717834949,-0.572843849659
1555363340777306724,35874,1555363340777306724,world,-2.8903055191,-0.814115762711,0.797270536423,0.686313509941,-0.228562638164,0.38415774703,-0.573720932007
1555363340787678551,35875,1555363340787678551,world,-2.89024925232,-0.81413435936,0.797180175781,0.686300814152,-0.229022726417,0.384296506643,-0.573459744453
1555363340796998642,35876,1555363340796998642,world,-2.88977622986,-0.813959598541,0.796869277954,0.688590884209,-0.230250641704,0.381751567125,-0.571920394897
1555363340807400923,35877,1555363340807400923,world,-2.88962078094,-0.813853979111,0.796777009964,0.689420580864,-0.230376705527,0.380607694387,-0.571632564068
1555363340817678081,35878,1555363340817678081,world,-2.89006614685,-0.814041137695,0.797043085098,0.688613891602,-0.226119339466,0.381929755211,-0.573420226574
1555363340826896432,35879,1555363340826896432,world,-2.89019107819,-0.814060926437,0.797199010849,0.687186539173,-0.227964535356,0.383331000805,-0.573466837406
1555363340826920623,35880,1555363340826920623,world,-2.8897819519,-0.813911914825,0.797011613846,0.688784360886,-0.229865029454,0.381401866674,-0.572075903416
1555363340837289241,35881,1555363340837289241,world,-2.88962268829,-0.813806295395,0.796838521957,0.689395368099,-0.23056358099,0.380605310202,-0.571589052677
1555363340847635417,35882,1555363340847635417,world,-2.88956642151,-0.813894033432,0.796704769135,0.690476536751,-0.228357285261,0.37987819314,-0.571653544903
1555363340856949066,35883,1555363340856949066,world,-2.88952827454,-0.813961029053,0.796738624573,0.690562367439,-0.227848425508,0.380233556032,-0.57151645422
1555363340867206636,35884,1555363340867206636,world,-2.88962745667,-0.813873052597,0.796908140182,0.689437448978,-0.229718655348,0.380817264318,-0.571737289429
1555363340867230111,35885,1555363340867230111,world,-2.89009857178,-0.814098119736,0.797152996063,0.687905609608,-0.226840987802,0.382917225361,-0.573326647282
1555363340877469226,35886,1555363340877469226,world,-2.88977336884,-0.81400513649,0.796959877014,0.689498662949,-0.227244853973,0.381174504757,-0.572413802147
1555363340886736095,35887,1555363340886736095,world,-2.8897151947,-0.813798427582,0.797185659409,0.689288139343,-0.225877612829,0.380884617567,-0.573400437832
1555363340896963403,35888,1555363340896963403,world,-2.88969135284,-0.813798666,0.796918153763,0.688984394073,-0.229664355516,0.380940884352,-0.57222276926
1555363340917597377,35889,1555363340917597377,world,-2.89008617401,-0.814117193222,0.797090053558,0.687733352184,-0.227454215288,0.383186519146,-0.573110461235
1555363340917661292,35890,1555363340917661292,world,-2.89022445679,-0.814215660095,0.797170162201,0.687392890453,-0.226796209812,0.383854776621,-0.573332428932
1555363340917690546,35891,1555363340917690546,world,-2.88979053497,-0.813998222351,0.796949148178,0.68932300806,-0.227733597159,0.381237983704,-0.572388768196
1555363340927544205,35892,1555363340927544205,world,-2.8896188736,-0.813895702362,0.796731233597,0.689121484756,-0.23119084537,0.381207883358,-0.571264326572
1555363340937052555,35893,1555363340937052555,world,-2.88959026337,-0.813842058182,0.796710729599,0.689059555531,-0.232121750712,0.381198227406,-0.570967853069
1555363340947281256,35894,1555363340947281256,world,-2.8896818161,-0.813768148422,0.796871185303,0.689025223255,-0.231260403991,0.380739122629,-0.571664869785
1555363340960926640,35895,1555363340960926640,world,-2.89015102386,-0.81400346756,0.79714512825,0.686811089516,-0.230068087578,0.383521616459,-0.572948873043
1555363340960953294,35896,1555363340960953294,world,-2.89025497437,-0.814066648483,0.797160863876,0.686182379723,-0.229783818126,0.384309858084,-0.573287963867
1555363340977295626,35897,1555363340977295626,world,-2.8898267746,-0.813893079758,0.796854257584,0.688333630562,-0.230441942811,0.381895124912,-0.572057187557
1555363340977316789,35898,1555363340977316789,world,-2.89004421234,-0.814124345779,0.796951055527,0.688055694103,-0.227395921946,0.383200585842,-0.57273709774
1555363340987493805,35899,1555363340987493805,world,-2.88977527618,-0.81391119957,0.796918869019,0.688994526863,-0.229451671243,0.381288826466,-0.572064101696
1555363340996610289,35900,1555363340996610289,world,-2.89008331299,-0.814075946808,0.797086954117,0.688269734383,-0.226538345218,0.38267493248,-0.573171019554
1555363341006804385,35901,1555363341006804385,world,-2.89016437531,-0.814064025879,0.797115564346,0.686899542809,-0.228756114841,0.383868187666,-0.573135972023
1555363341027145809,35902,1555363341027145809,world,-2.88970947266,-0.81387090683,0.796845912933,0.68866789341,-0.230698436499,0.381615191698,-0.571738302708
1555363341027176330,35904,1555363341027176330,world,-2.88953113556,-0.813912153244,0.796815872192,0.690383911133,-0.2286465168,0.380307555199,-0.571364283562
1555363341057085386,35905,1555363341057085386,world,-2.89003372192,-0.814047336578,0.797104358673,0.687462866306,-0.229155480862,0.383210450411,-0.572741150856
1555363341057122619,35906,1555363341057122619,world,-2.89016914368,-0.814079046249,0.797139883041,0.686540663242,-0.229591235518,0.384224057198,-0.572993516922
1555363341057168612,35907,1555363341057168612,world,-2.88977050781,-0.813881397247,0.796924352646,0.688495159149,-0.230581864715,0.381605803967,-0.571999669075
1555363341067638512,35908,1555363341067638512,world,-2.89005661011,-0.814024448395,0.797038316727,0.687150776386,-0.229854285717,0.383247107267,-0.572811067104
1555363341077006652,35909,1555363341077006652,world,-2.88972091675,-0.813897371292,0.796875,0.688810706139,-0.230490893126,0.381371289492,-0.571812689304
1555363341087785853,35910,1555363341087785853,world,-2.88961029053,-0.813863992691,0.796867847443,0.689305245876,-0.230580225587,0.380928397179,-0.571475744247
1555363341087839001,35911,1555363341087839001,world,-2.88959217072,-0.813814163208,0.79684138298,0.689481019974,-0.230338186026,0.380629092455,-0.571560740471
1555363341097295455,35912,1555363341097295455,world,-2.88944244385,-0.8140604496,0.796766042709,0.689975142479,-0.229240491986,0.3818102777,-0.570617318153
1555363341107658833,35913,1555363341107658833,world,-2.88957881927,-0.813966989517,0.796859264374,0.690285384655,-0.227314576507,0.380641549826,-0.571792185307
1555363341116989460,35914,1555363341116989460,world,-2.88965606689,-0.813944339752,0.796827793121,0.690395593643,-0.226898953319,0.380244553089,-0.572088301182
1555363341127443893,35915,1555363341127443893,world,-2.88971138,-0.813853740692,0.79687333107,0.689235210419,-0.229658871889,0.380924552679,-0.571933805943
1555363341127492177,35916,1555363341127492177,world,-2.88974189758,-0.813840150833,0.796879053116,0.688747525215,-0.230548620224,0.381247639656,-0.571947872639
1555363341136827438,35917,1555363341136827438,world,-2.88973999023,-0.813910722733,0.796916723251,0.689504623413,-0.228188589215,0.380762666464,-0.572305262089
1555363341147182307,35918,1555363341147182307,world,-2.89017009735,-0.814067840576,0.79714679718,0.686720728874,-0.229178026319,0.383828610182,-0.573208212852
1555363341157559852,35919,1555363341157559852,world,-2.89002513885,-0.814380407333,0.796987295151,0.68649327755,-0.229375988245,0.386084765196,-0.571884810925
1555363341166812064,35920,1555363341166812064,world,-2.88975429535,-0.814000606537,0.796830654144,0.688174784184,-0.230778634548,0.382915109396,-0.571430385113
1555363341177124057,35921,1555363341177124057,world,-2.88952445984,-0.814016580582,0.79677939415,0.688467562199,-0.232288882136,0.382988065481,-0.570416092873
1555363341177168520,35922,1555363341177168520,world,-2.89007472992,-0.814065694809,0.797094106674,0.686998784542,-0.230194509029,0.383635550737,-0.572596728802
1555363341217213211,35923,1555363341217213211,world,-2.8898191452,-0.813867807388,0.796974420547,0.688589155674,-0.2301569134,0.381268620491,-0.572282254696
1555363341217271417,35924,1555363341217271417,world,-2.88972377777,-0.813865423203,0.79682636261,0.689163088799,-0.230418995023,0.380712240934,-0.571856379509
1555363341217287837,35925,1555363341217287837,world,-2.88963794708,-0.813932418823,0.796773433685,0.690329611301,-0.228095754981,0.380126863718,-0.571770012379
1555363341217303244,35926,1555363341217303244,world,-2.89015769958,-0.814059495926,0.797042131424,0.687462091446,-0.228572443128,0.382816046476,-0.573238432407
1555363341227566083,35927,1555363341227566083,world,-2.89040279388,-0.814047336578,0.797243118286,0.686566114426,-0.2280279845,0.383459627628,-0.574098348618
1555363341236950012,35928,1555363341236950012,world,-2.89038658142,-0.814037561417,0.797217130661,0.686407387257,-0.228553593159,0.383714407682,-0.573908925056
1555363341236980507,35929,1555363341236980507,world,-2.89027500153,-0.814051628113,0.797045707703,0.686456143856,-0.229320541024,0.383926570415,-0.573402523994
1555363341247385418,35930,1555363341247385418,world,-2.89016437531,-0.81406879425,0.79697394371,0.686610102654,-0.229926258326,0.384005248547,-0.572922885418
1555363341257752292,35931,1555363341257752292,world,-2.89017963409,-0.81404042244,0.797004938126,0.686938941479,-0.229401409626,0.383383184671,-0.573155581951
1555363341267044236,35932,1555363341267044236,world,-2.89017772675,-0.814053535461,0.797148704529,0.687064409256,-0.229212865233,0.383338272572,-0.573110699654
1555363341277535177,35933,1555363341277535177,world,-2.89012813568,-0.814069271088,0.797136068344,0.687255859375,-0.229301437736,0.383320391178,-0.572857499123
1555363341286858260,35934,1555363341286858260,world,-2.88962841034,-0.813874006271,0.796792268753,0.689471065998,-0.230404391885,0.380857884884,-0.571393787861
1555363341286886601,35935,1555363341286886601,world,-2.88946247101,-0.813797235489,0.796673059464,0.69009500742,-0.230669870973,0.380057662725,-0.571066081524
1555363341297152099,35936,1555363341297152099,world,-2.88989257812,-0.813998937607,0.796924829483,0.689013600349,-0.226754784584,0.38167488575,-0.572858393192
1555363341307496985,35937,1555363341307496985,world,-2.89004039764,-0.814149618149,0.797098636627,0.688415884972,-0.225759014487,0.382911473513,-0.573145091534
1555363341316712586,35938,1555363341316712586,world,-2.88948345184,-0.814054727554,0.796914815903,0.688846409321,-0.230756819248,0.382904201746,-0.570636630058
1555363341327025356,35939,1555363341327025356,world,-2.88944244385,-0.81395316124,0.796788930893,0.690295219421,-0.229013010859,0.380806148052,-0.570992290974
1555363341357659474,35940,1555363341357659474,world,-2.88946151733,-0.813903808594,0.796731472015,0.690685927868,-0.228187993169,0.379920661449,-0.571439802647
1555363341366887084,35941,1555363341366887084,world,-2.8895816803,-0.813858747482,0.796791315079,0.689503192902,-0.230407208204,0.380598455667,-0.571526646614
1555363341366942101,35942,1555363341366942101,world,-2.89008998871,-0.813984632492,0.797062158585,0.687002241611,-0.229944959283,0.383123934269,-0.573035299778
1555363341366976988,35944,1555363341366976988,world,-2.89017772675,-0.814010858536,0.797121286392,0.68679612875,-0.229669824243,0.383320212364,-0.573261260986
1555363341377329919,35945,1555363341377329919,world,-2.89025020599,-0.814114570618,0.797078609467,0.687427043915,-0.226852074265,0.38338124752,-0.5735861063
1555363341387678928,35946,1555363341387678928,world,-2.88982200623,-0.813899517059,0.796853065491,0.688862323761,-0.229672878981,0.381472378969,-0.572012126446
1555363341387736208,35947,1555363341387736208,world,-2.89007282257,-0.814018011093,0.796981096268,0.687186479568,-0.230041220784,0.383554905653,-0.572487175465
1555363341397011424,35948,1555363341397011424,world,-2.88977718353,-0.813799142838,0.796933889389,0.688769102097,-0.230336382985,0.381234377623,-0.572016298771
1555363341407265086,35949,1555363341407265086,world,-2.89008331299,-0.813975811005,0.797073125839,0.687203645706,-0.229822859168,0.38332337141,-0.572709202766
1555363341417515488,35950,1555363341417515488,world,-2.88975048065,-0.813807487488,0.796885967255,0.688790857792,-0.230235353112,0.381338953972,-0.57196110487
1555363341426735439,35951,1555363341426735439,world,-2.88959789276,-0.813836336136,0.796784639359,0.689246356487,-0.2307408005,0.381217360497,-0.571289300919
1555363341426795433,35952,1555363341426795433,world,-2.88957595825,-0.813821792603,0.796761751175,0.68942296505,-0.230734094977,0.380794346333,-0.571361005306
1555363341447502596,35953,1555363341447502596,world,-2.88960456848,-0.813850402832,0.796851396561,0.689276099205,-0.230514913797,0.38089120388,-0.571562170982
1555363341447556290,35954,1555363341447556290,world,-2.8901014328,-0.814065217972,0.79713511467,0.687032818794,-0.229325145483,0.38345053792,-0.573028385639
1555363341456966039,35955,1555363341456966039,world,-2.88982200623,-0.81393456459,0.796997308731,0.688435971737,-0.229683816433,0.381675809622,-0.572385191917
1555363341467295798,35956,1555363341467295798,world,-2.88964271545,-0.813933610916,0.796847343445,0.689002752304,-0.230440214276,0.381297796965,-0.571650803089
1555363341467341862,35957,1555363341467341862,world,-2.8898601532,-0.814234733582,0.796931505203,0.686834514141,-0.231258645654,0.384724617004,-0.571633577347
1555363341477693769,35958,1555363341477693769,world,-2.88965797424,-0.814066648483,0.79686498642,0.689513862133,-0.228245869279,0.381795883179,-0.571582436562
1555363341486976080,35959,1555363341486976080,world,-2.88965415955,-0.813927650452,0.7969186306,0.689390182495,-0.229577496648,0.381009310484,-0.571723043919
1555363341497225140,35960,1555363341497225140,world,-2.89008522034,-0.814095497131,0.797069311142,0.688248574734,-0.226351842284,0.382727116346,-0.573235332966
1555363341507624800,35961,1555363341507624800,world,-2.88981246948,-0.813915491104,0.796885251999,0.688835084438,-0.229430526495,0.381553709507,-0.572087943554
1555363341516978443,35962,1555363341516978443,world,-2.88971996307,-0.813828468323,0.79682970047,0.689048230648,-0.230494916439,0.380945712328,-0.571808516979
1555363341527404214,35963,1555363341527404214,world,-2.88968372345,-0.813830375671,0.796820640564,0.689128994942,-0.230758503079,0.381106704473,-0.571497559547
1555363341527457094,35964,1555363341527457094,world,-2.88967323303,-0.813885211945,0.796893119812,0.690022170544,-0.227962091565,0.380612999201,-0.571870982647
1555363341536700632,35965,1555363341536700632,world,-2.89014911652,-0.814044475555,0.797135591507,0.687165796757,-0.228805199265,0.38344335556,-0.573081672192
1555363341547006035,35966,1555363341547006035,world,-2.89025497437,-0.814115762711,0.79713010788,0.686170876026,-0.229622587562,0.384463846684,-0.573263049126
1555363341557502224,35967,1555363341557502224,world,-2.88984298706,-0.813905000687,0.796897172928,0.688228011131,-0.230398073792,0.381902039051,-0.572197377682
1555363341566796667,35968,1555363341566796667,world,-2.8896780014,-0.813834190369,0.796811103821,0.689078629017,-0.230664461851,0.38096639514,-0.571689844131
1555363341577083828,35969,1555363341577083828,world,-2.88959026337,-0.813915252686,0.796844959259,0.690174460411,-0.22823381424,0.380424112082,-0.571704566479
1555363341577119938,35970,1555363341577119938,world,-2.89005756378,-0.81405544281,0.797124147415,0.687381029129,-0.228781893849,0.38332387805,-0.572912752628
1555363341597769549,35971,1555363341597769549,world,-2.88973903656,-0.813944339752,0.796936988831,0.68842536211,-0.230363592505,0.382078170776,-0.57185614109
1555363341597838368,35972,1555363341597838368,world,-2.88960933685,-0.813940525055,0.796827077866,0.689975559711,-0.228270024061,0.380736321211,-0.571722269058
1555363341607184240,35973,1555363341607184240,world,-2.88945102692,-0.814016580582,0.796726703644,0.689113020897,-0.231324791908,0.382410407066,-0.570416033268
1555363341617522699,35974,1555363341617522699,world,-2.8894329071,-0.814069986343,0.796753883362,0.688664019108,-0.232500046492,0.383221834898,-0.569935679436
1555363341626780294,35975,1555363341626780294,world,-2.88965511322,-0.813873767853,0.796929359436,0.68889939785,-0.230758115649,0.381448060274,-0.571546792984
1555363341637006224,35976,1555363341637006224,world,-2.89015483856,-0.814030408859,0.797102212906,0.686847150326,-0.229485616088,0.383442878723,-0.573191821575
1555363341637023610,35977,1555363341637023610,world,-2.8898601532,-0.813911914825,0.796950817108,0.688363134861,-0.230110988021,0.381717562675,-0.572273373604
1555363341647231398,35978,1555363341647231398,world,-2.88973617554,-0.81392455101,0.79686498642,0.68982809782,-0.227696120739,0.38051661849,-0.572275221348
1555363341657484115,35979,1555363341657484115,world,-2.88973903656,-0.813848495483,0.796881914139,0.689380049706,-0.229285001755,0.380619287491,-0.572112381458
1555363341666658163,35980,1555363341666658163,world,-2.88952636719,-0.814019918442,0.796794176102,0.688755571842,-0.231759190559,0.382779419422,-0.570423901081
1555363341677047168,35981,1555363341677047168,world,-2.88961410522,-0.813997745514,0.796815872192,0.689768373966,-0.228728398681,0.381572365761,-0.571231484413
1555363341687407785,35982,1555363341687407785,world,-2.8896522522,-0.81386423111,0.796832323074,0.689235329628,-0.230128541589,0.381395995617,-0.571430385113
1555363341696737063,35983,1555363341696737063,world,-2.89014053345,-0.814106464386,0.797060489655,0.687764763832,-0.227051779628,0.383307754993,-0.573151290417
1555363341696822586,35984,1555363341696822586,world,-2.89029312134,-0.814068555832,0.797173261642,0.686390638351,-0.228519394994,0.384253174067,-0.57358199358
1555363341707261598,35985,1555363341707261598,world,-2.88987445831,-0.813913345337,0.796936988831,0.68815267086,-0.230231180787,0.38202470541,-0.57227319479
1555363341726907991,35986,1555363341726907991,world,-2.88964080811,-0.813902854919,0.796824455261,0.689801514149,-0.22845543921,0.380598247051,-0.571950256824
1555363341726948224,35987,1555363341726948224,world,-2.89002132416,-0.81409573555,0.796988010406,0.688371181488,-0.226787060499,0.382604628801,-0.572997689247
1555363341737255223,35988,1555363341737255223,world,-2.89019775391,-0.81412935257,0.797155380249,0.687787950039,-0.2258348912,0.383287787437,-0.573617339134
1555363341737297316,35989,1555363341737297316,world,-2.88977050781,-0.81396985054,0.796984195709,0.689598202705,-0.227134421468,0.381101936102,-0.572385907173
1555363341747534213,35990,1555363341747534213,world,-2.89000320435,-0.814065694809,0.797007083893,0.687121331692,-0.230148807168,0.383437812328,-0.572600543499
1555363341756762213,35991,1555363341756762213,world,-2.88968276978,-0.813892841339,0.796803712845,0.688523948193,-0.231637775898,0.381726354361,-0.57145768404
1555363341767009805,35992,1555363341767009805,world,-2.88981819153,-0.814277172089,0.796899318695,0.687450647354,-0.230351611972,0.384816020727,-0.571197450161
1555363341777230969,35993,1555363341777230969,world,-2.88967323303,-0.813963413239,0.796919107437,0.689606189728,-0.228254958987,0.381225913763,-0.571847736835
1555363341777259923,35994,1555363341777259923,world,-2.89011001587,-0.813963651657,0.797109603882,0.687392771244,-0.229053124785,0.382728695869,-0.573188185692
1555363341787502350,35995,1555363341787502350,world,-2.8897819519,-0.8137819767,0.796896219254,0.688682377338,-0.230527967215,0.381059974432,-0.572159767151
1555363341796721845,35996,1555363341796721845,world,-2.88963603973,-0.813814401627,0.796782970428,0.689026892185,-0.231492102146,0.381172209978,-0.571280241013
1555363341807066079,35997,1555363341807066079,world,-2.88949680328,-0.813952684402,0.796763658524,0.688799679279,-0.232543826103,0.382347047329,-0.570341289043
1555363341817319349,35998,1555363341817319349,world,-2.89007949829,-0.814052343369,0.797089338303,0.68690186739,-0.230190366507,0.383886069059,-0.572546720505
1555363341827581797,35999,1555363341827581797,world,-2.8897895813,-0.813952684402,0.796960115433,0.68949508667,-0.227637648582,0.38112705946,-0.572293400764
1555363341827613793,36000,1555363341827613793,world,-2.88970661163,-0.813832759857,0.796891689301,0.689335763454,-0.229375869036,0.380693137646,-0.572080016136
1555363341836933570,36001,1555363341836933570,world,-2.88963699341,-0.813820362091,0.796783685684,0.689282953739,-0.230369344354,0.380765974522,-0.571696102619
1555363341847280642,36002,1555363341847280642,world,-2.88953590393,-0.813938379288,0.796752929688,0.688876509666,-0.231609210372,0.382115423679,-0.570783793926
1555363341867011975,36003,1555363341867011975,world,-2.89012527466,-0.814033031464,0.797106266022,0.686827361584,-0.229587137699,0.383743315935,-0.572973906994
1555363341867047411,36004,1555363341867047411,world,-2.88985347748,-0.813868045807,0.797016382217,0.6883918643,-0.229669779539,0.381574094296,-0.572511851788
1555363341877282788,36005,1555363341877282788,world,-2.8899679184,-0.814164638519,0.797054052353,0.686566591263,-0.230802863836,0.384746819735,-0.572124361992
1555363341877333722,36006,1555363341877333722,world,-2.88976097107,-0.813923597336,0.796873092651,0.688514828682,-0.230238899589,0.381863296032,-0.571942150593
1555363341887555922,36007,1555363341887555922,world,-2.8896446228,-0.813886404037,0.796781539917,0.689114928246,-0.23048377037,0.381254673004,-0.571526587009
1555363341896878850,36008,1555363341896878850,world,-2.88965797424,-0.813878059387,0.796856641769,0.68916362524,-0.230313956738,0.381127744913,-0.571621119976
1555363341907149788,36009,1555363341907149788,world,-2.89009284973,-0.814037561417,0.797090291977,0.687214374542,-0.229362517595,0.383405268192,-0.57282602787
1555363341917530106,36010,1555363341917530106,world,-2.88982391357,-0.813885211945,0.796988725662,0.688585758209,-0.22973766923,0.381625384092,-0.572217047215
1555363341926927335,36011,1555363341926927335,world,-2.89013290405,-0.814028263092,0.797072649002,0.687071681023,-0.229162335396,0.383568763733,-0.57296782732
1555363341926966404,36012,1555363341926966404,world,-2.89021587372,-0.814073562622,0.797063589096,0.68661916256,-0.229106932878,0.384059369564,-0.573203742504
1555363341937316282,36013,1555363341937316282,world,-2.88956928253,-0.81414103508,0.796748876572,0.689287185669,-0.229346826673,0.38296470046,-0.570632517338
1555363341947729171,36014,1555363341947729171,world,-2.89000034332,-0.814083337784,0.796982049942,0.687469184399,-0.229269757867,0.383645355701,-0.572396457195
1555363341957035383,36015,1555363341957035383,world,-2.889752388,-0.813856124878,0.796932935715,0.688912689686,-0.230002865195,0.381349086761,-0.571901202202
1555363341967344250,36016,1555363341967344250,world,-2.88963031769,-0.813854694366,0.796895742416,0.690406322479,-0.227717086673,0.379972159863,-0.571931183338
1555363341967381399,36017,1555363341967381399,world,-2.8896150589,-0.813833475113,0.796878099442,0.689664006233,-0.229798153043,0.380488842726,-0.571650862694
1555363341977672039,36018,1555363341977672039,world,-2.88959980011,-0.813868761063,0.796780586243,0.689285159111,-0.230852082372,0.381060451269,-0.571302294731
1555363341997150305,36019,1555363341997150305,world,-2.88949203491,-0.813992261887,0.796731233597,0.688835799694,-0.232024073601,0.382507503033,-0.570401787758
1555363341997186748,36020,1555363341997186748,world,-2.88963890076,-0.813880443573,0.796864271164,0.688958287239,-0.23082780838,0.381407260895,-0.571474850178
1555363342007606021,36021,1555363342007606021,world,-2.88997936249,-0.814204931259,0.797073602676,0.68653857708,-0.231156289577,0.384948402643,-0.57187962532
1555363342016979383,36022,1555363342016979383,world,-2.88985824585,-0.813899993896,0.797039270401,0.68819463253,-0.229863509536,0.38178640604,-0.572529613972
1555363342027361730,36023,1555363342027361730,world,-2.88973236084,-0.813870191574,0.796835422516,0.688929796219,-0.230145916343,0.38117569685,-0.571938633919
1555363342027404376,36024,1555363342027404376,world,-2.88970661163,-0.813854694366,0.796804428101,0.689208567142,-0.23014959693,0.380944341421,-0.571755409241
1555363342036708382,36025,1555363342036708382,world,-2.88972568512,-0.813823461533,0.79686665535,0.689240098,-0.229894757271,0.380850315094,-0.571882545948
1555363342046970078,36026,1555363342046970078,world,-2.89000892639,-0.814244270325,0.797039031982,0.687741398811,-0.22806532681,0.38413593173,-0.572221636772
1555363342057334641,36027,1555363342057334641,world,-2.8898563385,-0.813939809799,0.796986818314,0.688653051853,-0.229199439287,0.381867825985,-0.572190105915
1555363342067630838,36028,1555363342067630838,world,-2.89014625549,-0.814062595367,0.797073841095,0.686807274818,-0.229621574283,0.383920997381,-0.572865128517
1555363342076870560,36029,1555363342076870560,world,-2.88976764679,-0.813970565796,0.796813964844,0.689384758472,-0.228111565113,0.381511718035,-0.571981310844
1555363342087346859,36030,1555363342087346859,world,-2.88967704773,-0.813880681992,0.79677605629,0.689238190651,-0.230175063014,0.381392747164,-0.571410417557
1555363342087373758,36031,1555363342087373758,world,-2.88964271545,-0.813882112503,0.796855688095,0.690122127533,-0.228096544743,0.380424559116,-0.571822226048
1555363342097668884,36032,1555363342097668884,world,-2.89016342163,-0.813994169235,0.797154903412,0.687256932259,-0.228582233191,0.383170038462,-0.573244154453
1555363342107089813,36033,1555363342107089813,world,-2.89004516602,-0.814191102982,0.797071456909,0.686048269272,-0.231181755662,0.38549041748,-0.572092652321
1555363342117412539,36034,1555363342117412539,world,-2.88957977295,-0.81408572197,0.796771287918,0.687848925591,-0.232600674033,0.384088158607,-0.570295572281
1555363342127711350,36035,1555363342127711350,world,-2.88963890076,-0.813896894455,0.796779155731,0.688938677311,-0.231307044625,0.381664812565,-0.571132719517
1555363342137024061,36036,1555363342137024061,world,-2.8896894455,-0.813791275024,0.796883821487,0.689365267754,-0.230274230242,0.380463421345,-0.571836411953
1555363342137053386,36037,1555363342137053386,world,-2.89017295837,-0.81399512291,0.797154903412,0.687247872353,-0.22888199985,0.382908076048,-0.573310494423
1555363342156716307,36038,1555363342156716307,world,-2.88980960846,-0.813916444778,0.796978712082,0.689622402191,-0.227111622691,0.380769371986,-0.572587192059
1555363342156755928,36039,1555363342156755928,world,-2.89014053345,-0.81401348114,0.79706788063,0.687400043011,-0.228307321668,0.382902055979,-0.573361098766
1555363342167058911,36040,1555363342167058911,world,-2.88959693909,-0.814044713974,0.796738624573,0.688142895699,-0.231932595372,0.38405379653,-0.570236325264
1555363342177405951,36041,1555363342177405951,world,-2.89008426666,-0.813409090042,0.797295331955,0.683831691742,-0.233595788479,0.3806822896,-0.576964735985
1555363342177443448,36042,1555363342177443448,world,-2.88900470734,-0.813108682632,0.797446012497,0.680919885635,-0.238758414984,0.385790765285,-0.57489836216
1555363342187736242,36043,1555363342187736242,world,-2.88972663879,-0.811869859695,0.798599004745,0.67313760519,-0.227131515741,0.366621285677,-0.600737810135
1555363342197037970,36044,1555363342197037970,world,-2.88766288757,-0.809719800949,0.798214912415,0.678208827972,-0.23181527853,0.374057680368,-0.588536679745
1555363342207368509,36045,1555363342207368509,world,-2.88565063477,-0.809244394302,0.797667264938,0.679334640503,-0.241529390216,0.386288136244,-0.575282156467
1555363342217812162,36046,1555363342217812162,world,-2.88429546356,-0.809188365936,0.797309875488,0.678860485554,-0.2480905056,0.393647879362,-0.568014919758
