%time,field.header.seq,field.header.stamp,field.header.frame_id,field.pose.position.x,field.pose.position.y,field.pose.position.z,field.pose.orientation.x,field.pose.orientation.y,field.pose.orientation.z,field.pose.orientation.w
1555362451797226931,32246,1555362451797226931,world,-2.90350341797,-0.816609621048,0.797285556793,-0.715950965881,0.117686882615,-0.286530613899,0.625671088696
1555362451816692485,32247,1555362451816692485,world,-2.90394496918,-0.816769361496,0.797574996948,-0.714728295803,0.115032210946,-0.288171440363,0.626807928085
1555362451816746523,32248,1555362451816746523,world,-2.90399646759,-0.816823482513,0.797624111176,-0.714454233646,0.114742770791,-0.288973242044,0.626804351807
1555362451826963700,32249,1555362451826963700,world,-2.90398025513,-0.816800832748,0.79757142067,-0.714544713497,0.114656820893,-0.288819342852,0.626787960529
1555362451837256218,32250,1555362451837256218,world,-2.90278244019,-0.816366672516,0.796889305115,-0.717830240726,0.121097490191,-0.283397972584,0.624292314053
1555362451847586670,32251,1555362451847586670,world,-2.90240383148,-0.816227912903,0.796689987183,-0.718838274479,0.123315490782,-0.281897246838,0.623376965523
1555362451847643101,32252,1555362451847643101,world,-2.90350341797,-0.816607713699,0.797348976135,-0.716001808643,0.116884015501,-0.286488950253,0.625782549381
1555362451867296021,32253,1555362451867296021,world,-2.90388870239,-0.816767215729,0.797553539276,-0.714974224567,0.114789187908,-0.288384497166,0.626474142075
1555362451877615406,32254,1555362451877615406,world,-2.90398406982,-0.816760063171,0.797583341599,-0.714663207531,0.11428783834,-0.288553267717,0.626842677593
1555362451877650107,32255,1555362451877650107,world,-2.90351200104,-0.816476345062,0.797098636627,-0.716716706753,0.114768818021,-0.284628212452,0.626204490662
1555362451886944118,32256,1555362451886944118,world,-2.90263652802,-0.816268920898,0.796707630157,-0.71860319376,0.121276713908,-0.282289803028,0.623870134354
1555362451886973133,32257,1555362451886973133,world,-2.90308570862,-0.816340923309,0.796912670135,-0.717800974846,0.117044299841,-0.282828807831,0.625356197357
1555362451897291007,32258,1555362451897291007,world,-2.90375518799,-0.816642045975,0.797469139099,-0.715517282486,0.115326672792,-0.287067890167,0.62635999918
1555362451907680489,32259,1555362451907680489,world,-2.90396404266,-0.8167552948,0.797652721405,-0.71478921175,0.114712484181,-0.288558959961,0.626618981361
1555362451916952388,32260,1555362451916952388,world,-2.90283298492,-0.816376686096,0.796998023987,-0.717693030834,0.121261380613,-0.284035980701,0.62412828207
1555362451927283792,32261,1555362451927283792,world,-2.90245056152,-0.816285610199,0.796686887741,-0.718663394451,0.123638503253,-0.282944381237,0.62304019928
1555362451937643029,32262,1555362451937643029,world,-2.90244865417,-0.816149234772,0.796795606613,-0.719462633133,0.124503299594,-0.285182982683,0.620921134949
1555362451937713167,32263,1555362451937713167,world,-2.90363407135,-0.816642284393,0.797477006912,-0.715794503689,0.116804175079,-0.288319855928,0.625193238258
1555362451947012624,32264,1555362451947012624,world,-2.90406131744,-0.816799163818,0.797716856003,-0.714531600475,0.113949015737,-0.288778215647,0.626950860023
1555362451957302010,32265,1555362451957302010,world,-2.90368843079,-0.816515684128,0.797306537628,-0.716005504131,0.1133319363,-0.284620940685,0.627282261848
1555362451967632942,32266,1555362451967632942,world,-2.90279197693,-0.816373109818,0.796813011169,-0.717908501625,0.120350696146,-0.282733917236,0.62464761734
1555362451976985114,32267,1555362451976985114,world,-2.90318584442,-0.816439151764,0.796935558319,-0.717345833778,0.116600781679,-0.28340113163,0.625702142715
1555362451987306397,32268,1555362451987306397,world,-2.90386104584,-0.816728115082,0.79749250412,-0.715185701847,0.114669784904,-0.287408024073,0.626703202724
1555362451987343335,32269,1555362451987343335,world,-2.90401649475,-0.816784858704,0.797657012939,-0.714577972889,0.114262990654,-0.288859009743,0.626803517342
1555362451997595785,32270,1555362451997595785,world,-2.90396976471,-0.816839456558,0.797591209412,-0.714562118053,0.115144468844,-0.289671778679,0.626285076141
1555362452006877722,32271,1555362452006877722,world,-2.90354251862,-0.816380023956,0.797199249268,-0.71733134985,0.115679651499,-0.28746047616,0.624035716057
1555362452017276632,32272,1555362452017276632,world,-2.90373039246,-0.816680669785,0.797335624695,-0.715680718422,0.116045646369,-0.288764357567,0.625259637833
1555362452027658908,32273,1555362452027658908,world,-2.90341377258,-0.816316366196,0.797145366669,-0.717584073544,0.116339325905,-0.286754906178,0.623947143555
1555362452037036006,32274,1555362452037036006,world,-2.90371131897,-0.816626548767,0.797456026077,-0.715648233891,0.115871705115,-0.287606179714,0.625862598419
1555362452037082945,32275,1555362452037082945,world,-2.90381145477,-0.81672334671,0.797572851181,-0.71486634016,0.1155064255,-0.287567704916,0.626840829849
1555362452047385440,32276,1555362452047385440,world,-2.9037694931,-0.816772937775,0.797472238541,-0.714930713177,0.116047859192,-0.288112938404,0.626416623592
1555362452057695567,32277,1555362452057695567,world,-2.90270042419,-0.816267490387,0.796881198883,-0.718788862228,0.123148523271,-0.285625994205,0.621767520905
1555362452067044813,32278,1555362452067044813,world,-2.90278434753,-0.816347122192,0.79704785347,-0.718689382076,0.123334392905,-0.284827589989,0.622211694717
1555362452077303107,32279,1555362452077303107,world,-2.90358734131,-0.816670894623,0.797403097153,-0.715882241726,0.117380201817,-0.286881059408,0.625646829605
1555362452086745421,32280,1555362452086745421,world,-2.9038734436,-0.816721439362,0.797593832016,-0.714860379696,0.114608742297,-0.287196099758,0.627182483673
1555362452086774023,32281,1555362452086774023,world,-2.90387916565,-0.816803455353,0.797487735748,-0.714776992798,0.114820100367,-0.288185328245,0.626785039902
1555362452107572229,32282,1555362452107572229,world,-2.90275287628,-0.816267251968,0.79686832428,-0.718578696251,0.122061908245,-0.285715460777,0.62218350172
1555362452107702634,32283,1555362452107702634,world,-2.90236282349,-0.816251993179,0.796594381332,-0.718981802464,0.123670831323,-0.282506495714,0.622865021229
1555362452117068747,32284,1555362452117068747,world,-2.90348434448,-0.816640853882,0.797290086746,-0.715923845768,0.117010079324,-0.286451160908,0.625865280628
1555362452127403830,32285,1555362452127403830,world,-2.90392875671,-0.816758871078,0.797666788101,-0.714656770229,0.114278078079,-0.287500888109,0.627335131168
1555362452137758717,32286,1555362452137758717,world,-2.90399646759,-0.81679224968,0.797611236572,-0.714580118656,0.114147573709,-0.28839841485,0.627034366131
1555362452137796780,32287,1555362452137796780,world,-2.90288066864,-0.816254138947,0.796964406967,-0.718443334103,0.121415227652,-0.285915404558,0.622374355793
1555362452157273562,32288,1555362452157273562,world,-2.90250110626,-0.816148519516,0.796694040298,-0.719670057297,0.124073140323,-0.285482645035,0.620629131794
1555362452157337865,32289,1555362452157337865,world,-2.90354633331,-0.816615581512,0.797298669815,-0.71609723568,0.117252282798,-0.287491321564,0.62514436245
1555362452167586150,32290,1555362452167586150,world,-2.9039478302,-0.816752672195,0.797608137131,-0.714700698853,0.114237472415,-0.287802428007,0.627154290676
1555362452176860740,32291,1555362452176860740,world,-2.9040222168,-0.816798210144,0.797625780106,-0.714372873306,0.113757252693,-0.287892401218,0.627573609352
1555362452187134247,32292,1555362452187134247,world,-2.90284347534,-0.816370725632,0.796926498413,-0.717563569546,0.120307914913,-0.282917678356,0.624968886375
1555362452197382785,32293,1555362452197382785,world,-2.90351581573,-0.816775083542,0.797201395035,-0.715027093887,0.116081088781,-0.284622192383,0.627894699574
1555362452197409536,32294,1555362452197409536,world,-2.9033613205,-0.816527843475,0.797036886215,-0.716630756855,0.115158900619,-0.283541828394,0.626723825932
1555362452207686783,32295,1555362452207686783,world,-2.90379238129,-0.816693067551,0.797459840775,-0.715273737907,0.11458902806,-0.287158101797,0.626732170582
1555362452217000477,32296,1555362452217000477,world,-2.90390872955,-0.816742181778,0.79759311676,-0.714925348759,0.114732392132,-0.288218855858,0.626616358757
1555362452227349038,32297,1555362452227349038,world,-2.90392112732,-0.816725254059,0.797585248947,-0.714898467064,0.114907577634,-0.288294523954,0.626580297947
1555362452237721673,32298,1555362452237721673,world,-2.90336894989,-0.816505670547,0.79705286026,-0.716890752316,0.11589435488,-0.284878671169,0.625683963299
1555362452247051652,32299,1555362452247051652,world,-2.90257167816,-0.816153526306,0.796766519547,-0.719484984875,0.122927770019,-0.285037010908,0.621276199818
1555362452257435581,32300,1555362452257435581,world,-2.90347099304,-0.816567182541,0.797309875488,-0.716360747814,0.117819450796,-0.28767940402,0.624649167061
1555362452257516915,32301,1555362452257516915,world,-2.90342903137,-0.816281318665,0.79726934433,-0.717624604702,0.115961395204,-0.286409050226,0.624129712582
1555362452266739518,32302,1555362452266739518,world,-2.90378189087,-0.816623687744,0.797547101974,-0.715408504009,0.115012153983,-0.287573158741,0.626310229301
1555362452277138120,32303,1555362452277138120,world,-2.90274620056,-0.816359043121,0.79692864418,-0.717809855938,0.121443830431,-0.283266365528,0.624308109283
1555362452287553220,32304,1555362452287553220,world,-2.90307712555,-0.816414833069,0.796891927719,-0.717398107052,0.117572426796,-0.28297406435,0.62565356493
1555362452287595082,32305,1555362452287595082,world,-2.90330505371,-0.816314458847,0.797042131424,-0.717867493629,0.116251081228,-0.285586446524,0.624173402786
1555362452296906791,32306,1555362452296906791,world,-2.90382671356,-0.816651821136,0.797522783279,-0.715271353722,0.115073367953,-0.287822246552,0.626341283321
1555362452307269890,32307,1555362452307269890,world,-2.90396976471,-0.816790103912,0.797655344009,-0.714483141899,0.114819407463,-0.288611263037,0.626924216747
1555362452317526809,32308,1555362452317526809,world,-2.90349292755,-0.816551208496,0.797209262848,-0.716275691986,0.115425780416,-0.285102814436,0.626372396946
1555362452326797980,32309,1555362452326797980,world,-2.90264320374,-0.816338300705,0.796800136566,-0.718210399151,0.121847659349,-0.28275936842,0.623998463154
1555362452337256927,32310,1555362452337256927,world,-2.90305233002,-0.816380262375,0.796895980835,-0.717484235764,0.117607951164,-0.283169656992,0.625459611416
1555362452337312810,32311,1555362452337312810,world,-2.9037065506,-0.816730260849,0.797423601151,-0.71540594101,0.115884721279,-0.28781068325,0.626043260098
1555362452347740624,32312,1555362452347740624,world,-2.90398597717,-0.816737651825,0.797662258148,-0.714517056942,0.114584349096,-0.288322269917,0.627061545849
1555362452357081668,32313,1555362452357081668,world,-2.90393447876,-0.816914319992,0.797589302063,-0.713876366615,0.114559970796,-0.286757826805,0.628511369228
1555362452367519561,32314,1555362452367519561,world,-2.90282344818,-0.816287994385,0.796989679337,-0.718274354935,0.122390776873,-0.285866111517,0.622400939465
1555362452376904438,32315,1555362452376904438,world,-2.90308094025,-0.816378116608,0.796899557114,-0.717836558819,0.118190683424,-0.284166842699,0.62449246645
1555362452387231752,32316,1555362452387231752,world,-2.90330600739,-0.816209793091,0.797050952911,-0.718184292316,0.116239458323,-0.285434275866,0.623880684376
1555362452387305375,32317,1555362452387305375,world,-2.9037694931,-0.816658496857,0.7974588871,-0.71559470892,0.115360252559,-0.288337618113,0.625681638718
1555362452397151051,32318,1555362452397151051,world,-2.90353298187,-0.81636095047,0.797307014465,-0.717284500599,0.115486115217,-0.287021309137,0.624327480793
1555362452407535227,32319,1555362452407535227,world,-2.90379142761,-0.816728591919,0.797483444214,-0.715398907661,0.115560792387,-0.288578599691,0.625757575035
1555362452416789824,32320,1555362452416789824,world,-2.9033946991,-0.816547632217,0.7971367836,-0.716531872749,0.115758627653,-0.28486981988,0.626124024391
1555362452427004953,32321,1555362452427004953,world,-2.90331077576,-0.816329240799,0.797050714493,-0.717736244202,0.116512410343,-0.285950154066,0.624109089375
1555362452437388618,32322,1555362452437388618,world,-2.90370845795,-0.816678285599,0.797414302826,-0.715463638306,0.115928769112,-0.288002967834,0.625880658627
1555362452437433519,32323,1555362452437433519,world,-2.9038734436,-0.816755533218,0.797597646713,-0.714704394341,0.115449480712,-0.288017392159,0.626829385757
1555362452447692015,32324,1555362452447692015,world,-2.90386199951,-0.816825151443,0.797568082809,-0.714664518833,0.116062439978,-0.288604557514,0.626491487026
1555362452467422512,32325,1555362452467422512,world,-2.90340995789,-0.816381692886,0.797188282013,-0.717316567898,0.11670165509,-0.28674441576,0.624191820621
1555362452467475534,32326,1555362452467475534,world,-2.90319061279,-0.816411018372,0.796921491623,-0.717487752438,0.116969160736,-0.284121930599,0.62514346838
1555362452486943042,32327,1555362452486943042,world,-2.90253639221,-0.816109418869,0.796801567078,-0.719277083874,0.123253896832,-0.284353733063,0.621765255928
1555362452486983821,32328,1555362452486983821,world,-2.90346813202,-0.816612243652,0.797373056412,-0.716016173363,0.118045881391,-0.28727221489,0.625188589096
1555362452487036862,32329,1555362452487036862,world,-2.90386009216,-0.816749572754,0.797589302063,-0.714907884598,0.115580275655,-0.287736862898,0.626702129841
1555362452497468630,32330,1555362452497468630,world,-2.90391540527,-0.816801548004,0.797551870346,-0.714590609074,0.115135110915,-0.28833463788,0.626871049404
1555362452506802278,32331,1555362452506802278,world,-2.90339946747,-0.816562652588,0.797070026398,-0.716546416283,0.115477278829,-0.284648388624,0.626260042191
1555362452517170364,32332,1555362452517170364,world,-2.90257740021,-0.816301107407,0.796776294708,-0.718303322792,0.121721722186,-0.28215277195,0.624190568924
1555362452527552469,32333,1555362452527552469,world,-2.90352535248,-0.816622257233,0.797359466553,-0.715772509575,0.116968028247,-0.286179184914,0.626170754433
1555362452537000210,32334,1555362452537000210,world,-2.90389347076,-0.816699743271,0.797580480576,-0.714859127998,0.115009382367,-0.28745162487,0.62699341774
1555362452547296456,32335,1555362452547296456,world,-2.90392589569,-0.816793203354,0.797549009323,-0.714833319187,0.115289129317,-0.288657218218,0.626417338848
1555362452547337583,32336,1555362452547337583,world,-2.90323448181,-0.816504478455,0.797327041626,-0.717467486858,0.120520219207,-0.286239773035,0.623524069786
1555362452567104469,32337,1555362452567104469,world,-2.90316867828,-0.816455364227,0.797012805939,-0.717588126659,0.117457307875,-0.284142076969,0.624927461147
1555362452567145900,32338,1555362452567145900,world,-2.90366268158,-0.816647052765,0.797373056412,-0.715640425682,0.115497462451,-0.286973565817,0.626231014729
1555362452577468516,32339,1555362452577468516,world,-2.90380764008,-0.816761732101,0.797513723373,-0.714978694916,0.11529956013,-0.288412928581,0.626362085342
1555362452586738433,32340,1555362452586738433,world,-2.90386199951,-0.816733121872,0.797543764114,-0.714892446995,0.115127593279,-0.288244307041,0.626569807529
1555362452597024419,32341,1555362452597024419,world,-2.90272045135,-0.816318511963,0.79686999321,-0.71797055006,0.121525131166,-0.283205211163,0.624135255814
1555362452597059326,32342,1555362452597059326,world,-2.90235424042,-0.816233873367,0.796623468399,-0.718940138817,0.123569145799,-0.281993955374,0.623165428638
1555362452626875272,32343,1555362452626875272,world,-2.90348911285,-0.816581487656,0.797273635864,-0.716050028801,0.117258653045,-0.286380439997,0.625706911087
1555362452637162406,32344,1555362452637162406,world,-2.90390205383,-0.816714286804,0.797503948212,-0.715033173561,0.114991188049,-0.288128852844,0.62648743391
1555362452637237320,32345,1555362452637237320,world,-2.90398216248,-0.816735744476,0.79758143425,-0.714684307575,0.11426820606,-0.288596659899,0.626802206039
1555362452637267072,32346,1555362452637267072,world,-2.90330696106,-0.816531419754,0.797355651855,-0.717269599438,0.119955196977,-0.286547929049,0.62371891737
1555362452647546105,32347,1555362452647546105,world,-2.90256881714,-0.816309690475,0.796825885773,-0.718674480915,0.122831568122,-0.283151626587,0.623092770576
1555362452647598009,32348,1555362452647598009,world,-2.90311717987,-0.81619977951,0.796980381012,-0.718564093113,0.117569185793,-0.285221964121,0.623290896416
1555362452667046902,32349,1555362452667046902,world,-2.90369319916,-0.816753864288,0.797337770462,-0.715120136738,0.114700607955,-0.285839259624,0.627489387989
1555362452667071761,32350,1555362452667071761,world,-2.90396022797,-0.81679391861,0.797571182251,-0.71442347765,0.114218451083,-0.287976890802,0.627393484116
1555362452677272810,32351,1555362452677272810,world,-2.90395736694,-0.816799163818,0.797581195831,-0.714454472065,0.114482812583,-0.288871467113,0.62689858675
1555362452687704510,32352,1555362452687704510,world,-2.90350055695,-0.816400051117,0.797189235687,-0.717330396175,0.115728147328,-0.287316828966,0.62409389019
1555362452707169904,32353,1555362452707169904,world,-2.90323448181,-0.816383600235,0.796950817108,-0.717492520809,0.115967459977,-0.284738093615,0.625044167042
1555362452707208425,32355,1555362452707208425,world,-2.90382671356,-0.816727161407,0.797522544861,-0.71495115757,0.115610994399,-0.287977784872,0.626536369324
1555362452717653948,32356,1555362452717653948,world,-2.90344619751,-0.81632399559,0.797258853912,-0.717389047146,0.116224125028,-0.286440312862,0.624337255955
1555362452726894842,32357,1555362452726894842,world,-2.90369224548,-0.816632509232,0.797407150269,-0.71570122242,0.116092957556,-0.287919640541,0.625616967678
1555362452737211410,32358,1555362452737211410,world,-2.90339756012,-0.81631064415,0.797095775604,-0.717682182789,0.116473078728,-0.286456972361,0.62394618988
1555362452747535451,32359,1555362452747535451,world,-2.90321826935,-0.816372871399,0.796950817108,-0.71752935648,0.116379007697,-0.28381767869,0.6253439188
1555362452747568015,32360,1555362452747568015,world,-2.90365219116,-0.816668510437,0.79739689827,-0.715504705906,0.115952283144,-0.286776483059,0.626392424107
1555362452767074748,32361,1555362452767074748,world,-2.90380859375,-0.816787481308,0.797569036484,-0.714831411839,0.116009406745,-0.288178533316,0.626507043839
1555362452767115734,32362,1555362452767115734,world,-2.90336704254,-0.816524028778,0.79718375206,-0.716442704201,0.116196893156,-0.284704446793,0.626219928265
1555362452777569542,32363,1555362452777569542,world,-2.90326309204,-0.816300153732,0.797037124634,-0.718000292778,0.116851121187,-0.285605877638,0.623899519444
1555362452786801299,32364,1555362452786801299,world,-2.90358543396,-0.816784858704,0.797245979309,-0.715242683887,0.116223186255,-0.286000907421,0.626995623112
1555362452797056555,32365,1555362452797056555,world,-2.9038066864,-0.816762924194,0.797504425049,-0.714703261852,0.115746282041,-0.287494450808,0.6270160079
1555362452797110989,32366,1555362452797110989,world,-2.90382862091,-0.81676530838,0.797535181046,-0.714677989483,0.116001680493,-0.288318485022,0.626619100571
1555362452807397846,32367,1555362452807397846,world,-2.90379238129,-0.816764116287,0.797519922256,-0.714958667755,0.116290278733,-0.288548201323,0.626139461994
1555362452817646539,32368,1555362452817646539,world,-2.90374851227,-0.816727876663,0.797470331192,-0.715213954449,0.116246901453,-0.288656383753,0.625806033611
1555362452827020520,32369,1555362452827020520,world,-2.9037361145,-0.816707849503,0.797374010086,-0.71537142992,0.116524711251,-0.28839224577,0.625696182251
1555362452837285658,32370,1555362452837285658,world,-2.90371513367,-0.816660881042,0.797410488129,-0.715427339077,0.116300933063,-0.287806451321,0.625943481922
1555362452847577510,32371,1555362452847577510,world,-2.90372371674,-0.816634654999,0.797420978546,-0.715456485748,0.116074413061,-0.287633746862,0.626031517982
1555362452847661107,32372,1555362452847661107,world,-2.90371227264,-0.816657304764,0.797445297241,-0.715438306332,0.11594799906,-0.28753939271,0.62611913681
1555362452856923960,32373,1555362452856923960,world,-2.90327453613,-0.81623840332,0.797116756439,-0.718033909798,0.116796337068,-0.285801440477,0.623781561852
1555362452867181858,32374,1555362452867181858,world,-2.9031047821,-0.816288709641,0.796895503998,-0.718067228794,0.116906762123,-0.28342244029,0.624807178974
1555362452877440383,32375,1555362452877440383,world,-2.90352249146,-0.816599369049,0.797226905823,-0.71611559391,0.116509132087,-0.28672888875,0.625612318516
1555362452887652474,32376,1555362452887652474,world,-2.90372467041,-0.816698551178,0.797411203384,-0.715259373188,0.116058409214,-0.287741333246,0.626210451126
1555362452887673762,32377,1555362452887673762,world,-2.90380191803,-0.816691875458,0.797486782074,-0.715073943138,0.115685813129,-0.28763744235,0.626538574696
1555362452907011847,32378,1555362452907011847,world,-2.90378856659,-0.816722154617,0.797495126724,-0.71514326334,0.115747109056,-0.287783920765,0.62638092041
1555362452907034795,32379,1555362452907034795,world,-2.90374088287,-0.816717386246,0.797429561615,-0.715253293514,0.116214230657,-0.288053572178,0.626044809818
1555362452917211233,32380,1555362452917211233,world,-2.90372467041,-0.816692352295,0.797384262085,-0.715385615826,0.116293050349,-0.287869364023,0.625963687897
1555362452926728801,32381,1555362452926728801,world,-2.90368175507,-0.816681146622,0.797351360321,-0.715452969074,0.116252236068,-0.287716686726,0.625964522362
1555362452936932192,32382,1555362452936932192,world,-2.90367794037,-0.816693782806,0.797388076782,-0.715458095074,0.116390220821,-0.287837088108,0.625877678394
1555362452936953505,32383,1555362452936953505,world,-2.9037103653,-0.816614627838,0.797460794449,-0.715501368046,0.115928322077,-0.28717893362,0.626216232777
1555362452947394846,32384,1555362452947394846,world,-2.90364456177,-0.816674470901,0.797366380692,-0.715653240681,0.116409890354,-0.287743389606,0.625693917274
1555362452957637105,32385,1555362452957637105,world,-2.90364742279,-0.816663265228,0.797342300415,-0.715614318848,0.116330042481,-0.287696033716,0.625775098801
1555362452966922558,32386,1555362452966922558,world,-2.90364170074,-0.816641807556,0.797326803207,-0.715501368046,0.116412572563,-0.287874877453,0.625806689262
1555362452977235024,32387,1555362452977235024,world,-2.90366458893,-0.816655874252,0.797374486923,-0.715541243553,0.116297848523,-0.287652343512,0.625884711742
1555362452987572469,32388,1555362452987572469,world,-2.90370845795,-0.816596031189,0.797441005707,-0.715476155281,0.115679688752,-0.286947339773,0.626397073269
1555362452987600852,32389,1555362452987600852,world,-2.90321826935,-0.816366195679,0.797019004822,-0.717425465584,0.116360597312,-0.283527851105,0.625597953796
1555362453007047526,32390,1555362453007047526,world,-2.90316963196,-0.816139698029,0.796950340271,-0.718671560287,0.116452395916,-0.284461945295,0.623723804951
1555362453007107750,32391,1555362453007107750,world,-2.90358543396,-0.816543102264,0.797249555588,-0.716367840767,0.116407208145,-0.287239700556,0.625108063221
1555362453017578622,32392,1555362453017578622,world,-2.90374469757,-0.816675662994,0.797423124313,-0.715492129326,0.116214849055,-0.287824511528,0.625877082348
1555362453026924672,32393,1555362453026924672,world,-2.90380001068,-0.816724300385,0.797490358353,-0.715143561363,0.116021685302,-0.288025826216,0.626218616962
1555362453037252437,32394,1555362453037252437,world,-2.90377616882,-0.816729307175,0.797466278076,-0.715143501759,0.116144135594,-0.288245260715,0.626095056534
1555362453047517840,32395,1555362453047517840,world,-2.90336704254,-0.816275596619,0.79710817337,-0.717785179615,0.116494596004,-0.286026746035,0.624021053314
1555362453047564995,32396,1555362453047564995,world,-2.90361213684,-0.816595315933,0.797306776047,-0.716075599194,0.116345137358,-0.287389814854,0.625385224819
1555362453056857535,32397,1555362453056857535,world,-2.9036989212,-0.816695690155,0.797394037247,-0.715391039848,0.116245098412,-0.287804216146,0.625996530056
1555362453077507718,32398,1555362453077507718,world,-2.90375995636,-0.816683769226,0.797480821609,-0.715153455734,0.115776628256,-0.287436455488,0.626523375511
1555362453077528665,32399,1555362453077528665,world,-2.90373706818,-0.816695690155,0.797455310822,-0.715218365192,0.115940757096,-0.287708848715,0.626294016838
1555362453086973566,32400,1555362453086973566,world,-2.90330028534,-0.816293716431,0.797091245651,-0.717850327492,0.116758972406,-0.286164134741,0.623833477497
1555362453087023222,32401,1555362453087023222,world,-2.90313053131,-0.816300153732,0.796941041946,-0.717796504498,0.116655983031,-0.283215492964,0.625258803368
1555362453107796624,32402,1555362453107796624,world,-2.90356731415,-0.816629648209,0.797269821167,-0.715854346752,0.116366274655,-0.286793172359,0.625908255577
1555362453107838984,32403,1555362453107838984,world,-2.90370941162,-0.816726446152,0.797406196594,-0.715241849422,0.116368368268,-0.288042008877,0.626034557819
1555362453136788916,32404,1555362453136788916,world,-2.90378952026,-0.816734790802,0.79748749733,-0.715034782887,0.115967191756,-0.287934839725,0.626394748688
1555362453136834007,32405,1555362453136834007,world,-2.90380096436,-0.816699266434,0.797486782074,-0.715046405792,0.115907669067,-0.287737607956,0.626483142376
1555362453136892904,32406,1555362453136892904,world,-2.90373897552,-0.816736221313,0.797451019287,-0.71524554491,0.11627560854,-0.288211375475,0.625969648361
1555362453147215440,32407,1555362453147215440,world,-2.9037361145,-0.816693305969,0.797443389893,-0.715306282043,0.116067320108,-0.287868708372,0.626096606255
1555362453147251778,32408,1555362453147251778,world,-2.90323543549,-0.816420555115,0.796974420547,-0.717239916325,0.116466380656,-0.28400272131,0.625575780869
1555362453157566188,32409,1555362453157566188,world,-2.90359115601,-0.816586494446,0.797271251678,-0.716023802757,0.116091959178,-0.286553174257,0.625875294209
1555362453207714504,32410,1555362453207714504,world,-2.90375614166,-0.816645622253,0.797423124313,-0.715499401093,0.115882769227,-0.287124305964,0.626251935959
1555362453207797692,32411,1555362453207797692,world,-2.90376472473,-0.816653490067,0.797484397888,-0.715364396572,0.115955166519,-0.287560164928,0.626192867756
1555362453207814008,32412,1555362453207814008,world,-2.90373420715,-0.816673278809,0.797427654266,-0.715358495712,0.116256982088,-0.287898272276,0.625988125801
1555362453207829920,32413,1555362453207829920,world,-2.90330696106,-0.816281795502,0.797029495239,-0.718010723591,0.11709150672,-0.28626960516,0.623538255692
1555362453207849160,32414,1555362453207849160,world,-2.90312290192,-0.816300392151,0.796899080276,-0.718011140823,0.116639234126,-0.283498972654,0.624886929989
1555362453207873886,32415,1555362453207873886,world,-2.90317058563,-0.81618475914,0.797003507614,-0.718451440334,0.116888284683,-0.284962564707,0.623667359352
1555362453217266814,32416,1555362453217266814,world,-2.90365314484,-0.81657910347,0.797416210175,-0.715879380703,0.116040021181,-0.287074625492,0.62581127882
1555362453227674807,32417,1555362453227674807,world,-2.90374469757,-0.816833734512,0.797461032867,-0.714321672916,0.115505822003,-0.285938203335,0.628205657005
1555362453237049512,32418,1555362453237049512,world,-2.90270328522,-0.816370248795,0.79692697525,-0.717533290386,0.121947519481,-0.282494723797,0.624877154827
1555362453237092400,32419,1555362453237092400,world,-2.90304279327,-0.816364765167,0.796888828278,-0.717597842216,0.117765903473,-0.282852172852,0.625443339348
1555362453247334419,32420,1555362453247334419,world,-2.90323829651,-0.816359996796,0.796983242035,-0.717406988144,0.116056680679,-0.283162117004,0.625841319561
1555362453266998513,32421,1555362453266998513,world,-2.90378761292,-0.816647291183,0.797449350357,-0.715388476849,0.115399435163,-0.28745624423,0.626315593719
1555362453267040764,32422,1555362453267040764,world,-2.90394973755,-0.816743612289,0.797630786896,-0.714678823948,0.115112200379,-0.288771927357,0.626573324203
1555362453307363280,32423,1555362453307363280,world,-2.90394592285,-0.816790819168,0.797592401505,-0.714662313461,0.115485996008,-0.28940230608,0.626232385635
1555362453317650376,32424,1555362453317650376,world,-2.90279197693,-0.816320180893,0.79692196846,-0.717820525169,0.121888205409,-0.283873677254,0.623933255672
1555362453317717160,32425,1555362453317717160,world,-2.90347194672,-0.816758394241,0.797212600708,-0.715368032455,0.117401301861,-0.285217612982,0.626989901066
1555362453317755678,32426,1555362453317755678,world,-2.90381336212,-0.816731214523,0.797465324402,-0.714987814426,0.115578219295,-0.287682920694,0.626635909081
1555362453317879040,32427,1555362453317879040,world,-2.90390300751,-0.816704750061,0.797550439835,-0.71503663063,0.115397304296,-0.288461148739,0.626255810261
1555362453317917608,32428,1555362453317917608,world,-2.90390300751,-0.816665172577,0.797528982162,-0.715109705925,0.115128695965,-0.288260698318,0.626314103603
1555362453327152861,32429,1555362453327152861,world,-2.90336513519,-0.816407442093,0.797059774399,-0.717079460621,0.115645349026,-0.284408628941,0.625727534294
1555362453337411456,32430,1555362453337411456,world,-2.90324211121,-0.81619644165,0.796946525574,-0.718427240849,0.116583615541,-0.285499721766,0.623506605625
1555362453337455473,32431,1555362453337455473,world,-2.90359973907,-0.816653490067,0.797282934189,-0.715395271778,0.115528993309,-0.285277664661,0.627279400826
1555362453347724380,32432,1555362453347724380,world,-2.90375900269,-0.816749811172,0.797448635101,-0.715074956417,0.115935221314,-0.287915170193,0.626363813877
1555362453357167447,32433,1555362453357167447,world,-2.9038105011,-0.816714286804,0.797531604767,-0.715004205704,0.115800395608,-0.288191765547,0.626342356205
1555362453367459329,32434,1555362453367459329,world,-2.9037103653,-0.816839933395,0.797399520874,-0.714566290379,0.115960709751,-0.286601036787,0.627541303635
1555362453386955668,32435,1555362453386955668,world,-2.90329456329,-0.816445112228,0.797029972076,-0.716904342175,0.116336084902,-0.283752858639,0.626097857952
1555362453386999906,32436,1555362453386999906,world,-2.90360546112,-0.816619634628,0.79731965065,-0.715875029564,0.116145022213,-0.287241667509,0.625719964504
1555362453397299849,32437,1555362453397299849,world,-2.90327262878,-0.816398382187,0.797075271606,-0.717255353928,0.116453766823,-0.284296065569,0.625427186489
1555362453397359889,32438,1555362453397359889,world,-2.90367698669,-0.816553354263,0.797407627106,-0.715788841248,0.115948855877,-0.286965727806,0.62598156929
1555362453407673013,32439,1555362453407673013,world,-2.90372657776,-0.816799163818,0.797419548035,-0.714691638947,0.115583665669,-0.286227017641,0.627638757229
1555362453417012744,32440,1555362453417012744,world,-2.90380096436,-0.816700935364,0.797461509705,-0.715091764927,0.115904569626,-0.287746459246,0.62642788887
1555362453427331380,32441,1555362453427331380,world,-2.90377426147,-0.816670179367,0.797424316406,-0.715343117714,0.116228051484,-0.288426280022,0.625768065453
1555362453437644614,32442,1555362453437644614,world,-2.90375900269,-0.816685914993,0.797429800034,-0.715393722057,0.116397418082,-0.288600474596,0.625598371029
1555362453437700723,32443,1555362453437700723,world,-2.90374660492,-0.816649913788,0.79744386673,-0.715466082096,0.116228178144,-0.288193523884,0.625734567642
1555362453447149175,32444,1555362453447149175,world,-2.90374183655,-0.816635608673,0.797418832779,-0.715512990952,0.116183981299,-0.287973761559,0.62579023838
1555362453457424189,32445,1555362453457424189,world,-2.90370845795,-0.816667318344,0.797373533249,-0.715550124645,0.116432741284,-0.288136780262,0.625626623631
1555362453467753691,32446,1555362453467753691,world,-2.90369987488,-0.816634893417,0.79736161232,-0.715597033501,0.116160057485,-0.287767648697,0.625793635845
1555362453477137986,32447,1555362453477137986,world,-2.90326786041,-0.816249132156,0.797005414963,-0.718273341656,0.116972610354,-0.286116987467,0.623328030109
1555362453487429384,32448,1555362453487429384,world,-2.90360355377,-0.81648683548,0.797325849533,-0.716259598732,0.115923203528,-0.286701917648,0.625568687916
1555362453487465999,32449,1555362453487465999,world,-2.90333843231,-0.81619143486,0.797154903412,-0.717978596687,0.116256766021,-0.285292237997,0.624179005623
1555362453506982356,32450,1555362453506982356,world,-2.90358161926,-0.816685676575,0.7972843647,-0.715381860733,0.115920037031,-0.284918159246,0.627385735512
1555362453507053616,32451,1555362453507053616,world,-2.90371608734,-0.816718816757,0.797384977341,-0.715168118477,0.116130836308,-0.287205427885,0.626547038555
1555362453517420410,32452,1555362453517420410,world,-2.9032497406,-0.81650853157,0.797008514404,-0.716961324215,0.11687733233,-0.284531891346,0.62557798624
1555362453526738603,32453,1555362453526738603,world,-2.90320301056,-0.816242933273,0.797024011612,-0.718259871006,0.117008507252,-0.285462081432,0.623637139797
1555362453537039318,32454,1555362453537039318,world,-2.90365982056,-0.81657576561,0.797405004501,-0.715969800949,0.116334691644,-0.28750911355,0.625453472137
1555362453537098610,32455,1555362453537098610,world,-2.90380859375,-0.816695213318,0.797520637512,-0.715055823326,0.116054169834,-0.288194388151,0.626235306263
1555362453547377080,32456,1555362453547377080,world,-2.90340232849,-0.816344499588,0.797129631042,-0.717511355877,0.116853311658,-0.286945879459,0.623846828938
1555362453557702209,32457,1555362453557702209,world,-2.90260505676,-0.816078662872,0.796806335449,-0.719433426857,0.123278558254,-0.28545537591,0.62107437849
1555362453567010911,32458,1555362453567010911,world,-2.90302753448,-0.816280841827,0.796913862228,-0.717875301838,0.118211857975,-0.283426940441,0.624780058861
1555362453577382495,32459,1555362453577382495,world,-2.90368366241,-0.816681861877,0.79742026329,-0.715378463268,0.115957774222,-0.287080198526,0.626396417618
1555362453587664324,32460,1555362453587664324,world,-2.90390491486,-0.816803693771,0.797603607178,-0.71461802721,0.115135528147,-0.288235336542,0.626885354519
1555362453596956570,32461,1555362453596956570,world,-2.90356826782,-0.816384315491,0.79723238945,-0.717085123062,0.115594819188,-0.286665648222,0.624699652195
1555362453597009572,32462,1555362453597009572,world,-2.90338897705,-0.816288709641,0.797028064728,-0.71800327301,0.116252936423,-0.286402076483,0.623642861843
1555362453607263348,32463,1555362453607263348,world,-2.90332508087,-0.816263198853,0.797021865845,-0.718164026737,0.116320855916,-0.286258101463,0.623511135578
1555362453617626983,32464,1555362453617626983,world,-2.90378189087,-0.816670656204,0.797441720963,-0.715441524982,0.115808881819,-0.287608921528,0.626109361649
1555362453626896833,32465,1555362453626896833,world,-2.90390205383,-0.816774606705,0.797613859177,-0.714536249638,0.11521974206,-0.287849932909,0.627140104771
1555362453637311342,32466,1555362453637311342,world,-2.90386772156,-0.816835641861,0.797508716583,-0.714531302452,0.115749314427,-0.288368225098,0.626810073853
1555362453637354563,32467,1555362453637354563,world,-2.90274810791,-0.81626534462,0.796923160553,-0.718370318413,0.122935190797,-0.285805642605,0.622210681438
1555362453646719800,32468,1555362453646719800,world,-2.90242576599,-0.81608080864,0.796752691269,-0.719582617283,0.124906986952,-0.284863889217,0.620847582817
1555362453657052284,32469,1555362453657052284,world,-2.90346431732,-0.816598892212,0.797278404236,-0.716049671173,0.11810811609,-0.28752374649,0.625022828579
1555362453667473279,32470,1555362453667473279,world,-2.90388870239,-0.81672668457,0.797530174255,-0.714749097824,0.115110203624,-0.287959426641,0.626867413521
1555362453676752564,32471,1555362453676752564,world,-2.90351581573,-0.816515922546,0.797206640244,-0.716222167015,0.114665135741,-0.284333199263,0.626923024654
1555362453687063532,32472,1555362453687063532,world,-2.90380382538,-0.816689014435,0.797413110733,-0.715077400208,0.114713810384,-0.287136137486,0.626943349838
1555362453687091001,32473,1555362453687091001,world,-2.90381526947,-0.816890716553,0.797365427017,-0.71425807476,0.114847995341,-0.286240577698,0.628260791302
1555362453697520901,32474,1555362453697520901,world,-2.9034948349,-0.816348552704,0.797116041183,-0.717326402664,0.115319304168,-0.285745412111,0.62489515543
1555362453706849112,32475,1555362453706849112,world,-2.90377807617,-0.816591501236,0.797409534454,-0.715713560581,0.115221187472,-0.287418037653,0.625994563103
1555362453717113817,32476,1555362453717113817,world,-2.90387439728,-0.816677331924,0.797541379929,-0.715117037296,0.115183018148,-0.287696659565,0.626555144787
1555362453727383639,32477,1555362453727383639,world,-2.90381813049,-0.816732406616,0.797493696213,-0.715068101883,0.115628808737,-0.288246512413,0.62627607584
1555362453727463592,32478,1555362453727463592,world,-2.9036989212,-0.816866874695,0.797347307205,-0.714670062065,0.115766912699,-0.286312013865,0.62759077549
1555362453736663438,32479,1555362453736663438,world,-2.90260124207,-0.816344499588,0.796806812286,-0.718046069145,0.122115105391,-0.282513648272,0.624246716499
1555362453746968636,32480,1555362453746968636,world,-2.90344333649,-0.816586494446,0.797271728516,-0.716139316559,0.117832675576,-0.286604166031,0.625394284725
1555362453757342989,32481,1555362453757342989,world,-2.90375900269,-0.816656112671,0.797488689423,-0.715432465076,0.115819334984,-0.287792593241,0.626033306122
1555362453767724843,32482,1555362453767724843,world,-2.90382766724,-0.816694974899,0.797493457794,-0.715169608593,0.115571781993,-0.288599193096,0.626008152962
1555362453777154517,32483,1555362453777154517,world,-2.90319252014,-0.816436767578,0.797243833542,-0.717788934708,0.120892994106,-0.285969823599,0.623205542564
1555362453787498638,32484,1555362453787498638,world,-2.90360450745,-0.816631555557,0.797310113907,-0.715984642506,0.11749830842,-0.287988960743,0.624997973442
1555362453787537478,32485,1555362453787537478,world,-2.90377235413,-0.816665172577,0.797385215759,-0.715406179428,0.115989357233,-0.288164615631,0.625860750675
1555362453796821412,32486,1555362453796821412,world,-2.90386390686,-0.816627264023,0.797513484955,-0.715146958828,0.114940151572,-0.287436544895,0.626684784889
1555362453807147936,32487,1555362453807147936,world,-2.90382575989,-0.81666636467,0.797464609146,-0.715188384056,0.115126207471,-0.287831187248,0.626422166824
1555362453826732919,32488,1555362453826732919,world,-2.9026889801,-0.816253423691,0.796808481216,-0.718249201775,0.121665090322,-0.28282687068,0.62395876646
1555362453826784786,32489,1555362453826784786,world,-2.90232563019,-0.816127538681,0.796617746353,-0.719150722027,0.123536847532,-0.281365424395,0.623212993145
1555362453837088895,32490,1555362453837088895,world,-2.90341281891,-0.816601991653,0.797209024429,-0.716308712959,0.117710210383,-0.286808609962,0.625129580498
1555362453847472156,32491,1555362453847472156,world,-2.90388870239,-0.816663742065,0.797534942627,-0.715043008327,0.114632204175,-0.287812978029,0.626687049866
1555362453856757796,32492,1555362453856757796,world,-2.90399074554,-0.816728115082,0.797582626343,-0.714795947075,0.114422664046,-0.288504242897,0.626689434052
1555362453856798949,32493,1555362453856798949,world,-2.90287590027,-0.816203594208,0.7970225811,-0.71852594614,0.121494993567,-0.286067277193,0.62219363451
1555362453867111737,32494,1555362453867111737,world,-2.90358734131,-0.816581010818,0.79728770256,-0.716060638428,0.117060080171,-0.287926912308,0.6250218153
1555362453877488241,32495,1555362453877488241,world,-2.90381240845,-0.816819906235,0.797361373901,-0.714483499527,0.114813514054,-0.28598344326,0.628127932549
1555362453886783677,32496,1555362453886783677,world,-2.90390014648,-0.816762685776,0.797506570816,-0.71467769146,0.114549435675,-0.287511348724,0.627257168293
1555362453897162740,32497,1555362453897162740,world,-2.9039106369,-0.816734552383,0.797513723373,-0.714944243431,0.114697784185,-0.287893980742,0.626750528812
1555362453897212485,32498,1555362453897212485,world,-2.90386104584,-0.816678285599,0.797468900681,-0.715091943741,0.11501519382,-0.288017958403,0.626466870308
1555362453907570294,32499,1555362453907570294,world,-2.90380764008,-0.816715955734,0.797399282455,-0.715350031853,0.115773074329,-0.28836107254,0.625874519348
1555362453916891830,32500,1555362453916891830,world,-2.90330886841,-0.816414833069,0.796987771988,-0.717306554317,0.115918345749,-0.284027129412,0.625589907169
1555362453927304071,32501,1555362453927304071,world,-2.90361213684,-0.816603422165,0.797263383865,-0.716050505638,0.116102419794,-0.286871314049,0.625697076321
1555362453937685572,32502,1555362453937685572,world,-2.90333652496,-0.816224336624,0.79708647728,-0.718088209629,0.11637263,-0.285879045725,0.623762726784
1555362453937745149,32503,1555362453937745149,world,-2.90369319916,-0.816544532776,0.797420024872,-0.716048061848,0.11574768275,-0.287069380283,0.625674843788
1555362453967696429,32504,1555362453967696429,world,-2.90377140045,-0.816671609879,0.797481298447,-0.715297460556,0.116012871265,-0.288000583649,0.626056134701
1555362453967734971,32505,1555362453967734971,world,-2.90372180939,-0.816868543625,0.797384023666,-0.714542448521,0.115854777396,-0.286152660847,0.627792596817
1555362453967798075,32506,1555362453967798075,world,-2.90264320374,-0.816305398941,0.796821117401,-0.717920184135,0.122071042657,-0.282086372375,0.624593138695
1555362453977047332,32507,1555362453977047332,world,-2.9030380249,-0.816183567047,0.79692196846,-0.718564093113,0.118566013873,-0.284912377596,0.623243689537
1555362454017049016,32508,1555362454017049016,world,-2.90366840363,-0.816553115845,0.797364234924,-0.715967595577,0.11606566608,-0.287470430136,0.625523746014
1555362454017093713,32509,1555362454017093713,world,-2.90388393402,-0.816721200943,0.797505140305,-0.715057075024,0.11546240747,-0.288506448269,0.626199603081
1555362454017133283,32510,1555362454017133283,world,-2.90390110016,-0.816764831543,0.797477722168,-0.714876830578,0.115362659097,-0.288715273142,0.626327514648
1555362454017163766,32512,1555362454017163766,world,-2.90344142914,-0.816741228104,0.797208070755,-0.715393841267,0.117071777582,-0.284916430712,0.627159059048
1555362454027540201,32513,1555362454027540201,world,-2.90379142761,-0.816702365875,0.797476291656,-0.715001285076,0.115469753742,-0.287396490574,0.626772105694
1555362454036813809,32514,1555362454036813809,world,-2.90388202667,-0.816754817963,0.797523975372,-0.714932322502,0.115386232734,-0.288690179586,0.626271426678
1555362454036881591,32515,1555362454036881591,world,-2.90390110016,-0.816692113876,0.797507286072,-0.714990794659,0.114903725684,-0.288456976414,0.626400709152
1555362454047253225,32516,1555362454047253225,world,-2.90339565277,-0.81640958786,0.797074317932,-0.716987192631,0.115573890507,-0.284372389317,0.625862956047
1555362454057635154,32517,1555362454057635154,world,-2.9032087326,-0.816336154938,0.796933889389,-0.717599987984,0.115821927786,-0.283111423254,0.625686407089
1555362454066907119,32518,1555362454066907119,world,-2.9031829834,-0.816074848175,0.796987295151,-0.718438148499,0.116368763149,-0.285622209311,0.623478114605
1555362454077358866,32519,1555362454077358866,world,-2.90220737457,-0.815111160278,0.797313928604,-0.716441571712,0.120273277164,-0.290210485458,0.622915565968
1555362454087005957,32520,1555362454087005957,world,-2.90154075623,-0.812305688858,0.79741358757,-0.716600835323,0.116394780576,-0.28139296174,0.627497911453
1555362454107694427,32521,1555362454107694427,world,-2.90134906769,-0.810208559036,0.797422409058,-0.721203923225,0.105761110783,-0.274610042572,0.627111494541
1555362454107772742,32522,1555362454107772742,world,-2.89957904816,-0.809008836746,0.797081708908,-0.721069574356,0.111305996776,-0.271650642157,0.627595126629
1555362454127496556,32523,1555362454127496556,world,-2.89900588989,-0.807958841324,0.796788930893,-0.724165260792,0.11051466316,-0.282606333494,0.619277715683
1555362454127571366,32525,1555362454127571366,world,-2.89828491211,-0.807916164398,0.797125577927,-0.717381060123,0.115494176745,-0.286129355431,0.624624311924
1555362454136842623,32526,1555362454136842623,world,-2.89845180511,-0.807966470718,0.797096252441,-0.717313945293,0.116036862135,-0.289262920618,0.623155832291
1555362454136882285,32527,1555362454136882285,world,-2.89866733551,-0.808189868927,0.797075271606,-0.717407286167,0.115777172148,-0.28909766674,0.623173236847
1555362454147265177,32528,1555362454147265177,world,-2.8989906311,-0.808407783508,0.797112226486,-0.717298388481,0.114749141037,-0.287401735783,0.624272286892
1555362454157700872,32529,1555362454157700872,world,-2.89926815033,-0.80889415741,0.797132015228,-0.717362999916,0.114548057318,-0.287405431271,0.624233365059
1555362454167050738,32530,1555362454167050738,world,-2.89946556091,-0.809341669083,0.797171115875,-0.717271268368,0.114987000823,-0.287196189165,0.624354302883
1555362454177487785,32531,1555362454177487785,world,-2.8993024826,-0.809916257858,0.79731631279,-0.714963614941,0.120620347559,-0.290970027447,0.624190866947
1555362454186711264,32532,1555362454186711264,world,-2.89969062805,-0.810012102127,0.797156095505,-0.717030763626,0.116509996355,-0.287678569555,0.624126076698
1555362454196994269,32533,1555362454196994269,world,-2.89990234375,-0.810073137283,0.797139406204,-0.717698812485,0.114440381527,-0.286187499762,0.624426662922
1555362454197019270,32534,1555362454197019270,world,-2.89998626709,-0.810197353363,0.7971098423,-0.717833757401,0.114529527724,-0.285900473595,0.624386608601
1555362454207319011,32535,1555362454207319011,world,-2.90004825592,-0.810232162476,0.797160625458,-0.71771556139,0.114327795804,-0.285385549068,0.624794900417
1555362454217589551,32536,1555362454217589551,world,-2.90007972717,-0.810326576233,0.797142267227,-0.717856407166,0.114391878247,-0.285902708769,0.624384701252
1555362454226849990,32537,1555362454226849990,world,-2.89973926544,-0.810625314713,0.797308921814,-0.715506970882,0.11989544332,-0.289848953485,0.624229609966
1555362454237184370,32538,1555362454237184370,world,-2.90000343323,-0.810450315475,0.797159910202,-0.717241823673,0.115865327418,-0.286698192358,0.624454796314
1555362454247572536,32539,1555362454247572536,world,-2.90011978149,-0.810396194458,0.797123908997,-0.717779636383,0.114497467875,-0.28570830822,0.624542653561
1555362454257057182,32540,1555362454257057182,world,-2.89979362488,-0.810627698898,0.797377347946,-0.715378403664,0.119360074401,-0.289749324322,0.624525666237
1555362454257117824,32541,1555362454257117824,world,-2.9000749588,-0.810433864594,0.797189950943,-0.717261016369,0.115597128868,-0.286289423704,0.624669790268
1555362454267543969,32542,1555362454267543969,world,-2.89977169037,-0.810645580292,0.797218322754,-0.715768575668,0.119514942169,-0.289707988501,0.624068021774
1555362454276884913,32543,1555362454276884913,world,-2.90005779266,-0.810440540314,0.797093153,-0.717541396618,0.115503482521,-0.286445051432,0.624293684959
1555362454287234195,32544,1555362454287234195,world,-2.90016937256,-0.810349464417,0.797067642212,-0.718189954758,0.113787323236,-0.285111427307,0.624473571777
1555362454297497874,32545,1555362454297497874,world,-2.90019607544,-0.81031036377,0.797100305557,-0.718268275261,0.113473601639,-0.284806698561,0.624579489231
1555362454306751283,32546,1555362454306751283,world,-2.89983940125,-0.810555458069,0.797320365906,-0.715762197971,0.1187864393,-0.289200991392,0.624449551105
1555362454306782148,32547,1555362454306782148,world,-2.90006732941,-0.81040930748,0.797106981277,-0.717532038689,0.115244247019,-0.286236643791,0.624447882175
1555362454317027347,32548,1555362454317027347,world,-2.89978981018,-0.810595989227,0.797287940979,-0.715625882149,0.119262747467,-0.289503574371,0.624374687672
1555362454327290788,32549,1555362454327290788,world,-2.90004920959,-0.810415029526,0.79713344574,-0.717435359955,0.115272983909,-0.286249607801,0.624547719955
1555362454337579951,32550,1555362454337579951,world,-2.90016937256,-0.810317754745,0.79714679718,-0.718023657799,0.113442577422,-0.284858942032,0.624842584133
1555362454337618838,32551,1555362454337618838,world,-2.90016269684,-0.810328006744,0.797105073929,-0.71828019619,0.113318927586,-0.284693926573,0.624645292759
1555362454346994271,32552,1555362454346994271,world,-2.90014457703,-0.810368776321,0.797101974487,-0.718156099319,0.113530673087,-0.284987896681,0.624615550041
1555362454357382818,32553,1555362454357382818,world,-2.90010261536,-0.810389757156,0.797077178955,-0.718068063259,0.114078119397,-0.285464197397,0.624399542809
1555362454366703353,32554,1555362454366703353,world,-2.90011024475,-0.810405492783,0.797117710114,-0.717924237251,0.11428835988,-0.285563975573,0.624480843544
1555362454377033385,32555,1555362454377033385,world,-2.89974021912,-0.810621738434,0.797354221344,-0.715347528458,0.119549058378,-0.289677232504,0.624558329582
1555362454387437189,32556,1555362454387437189,world,-2.89965438843,-0.810725212097,0.797404527664,-0.714639246464,0.121080569923,-0.290929883718,0.624491870403
1555362454387507533,32557,1555362454387507533,world,-2.90000534058,-0.81044459343,0.797191381454,-0.717079699039,0.115742348135,-0.286710202694,0.624658167362
1555362454407066471,32558,1555362454407066471,world,-2.90013408661,-0.810369253159,0.797053098679,-0.718048632145,0.114092700183,-0.285306841135,0.624491095543
1555362454407114121,32559,1555362454407114121,world,-2.900182724,-0.810297012329,0.797060966492,-0.718188345432,0.113406509161,-0.284554868937,0.624798476696
1555362454417382445,32560,1555362454417382445,world,-2.9001865387,-0.810300350189,0.797077655792,-0.718204557896,0.113230019808,-0.284569889307,0.624804913998
1555362454427775457,32561,1555362454427775457,world,-2.90018844604,-0.810301542282,0.797161817551,-0.718067467213,0.113367497921,-0.28464859724,0.62490183115
1555362454437129941,32562,1555362454437129941,world,-2.90016174316,-0.810335159302,0.797126531601,-0.718001961708,0.113929972053,-0.284971833229,0.624727249146
1555362454437167508,32563,1555362454437167508,world,-2.90012073517,-0.810401201248,0.797109603882,-0.718012273312,0.114339336753,-0.285360276699,0.624463260174
1555362454447588653,32564,1555362454447588653,world,-2.89971160889,-0.810650587082,0.797267913818,-0.715491890907,0.119923479855,-0.289888471365,0.62422311306
1555362454456912444,32565,1555362454456912444,world,-2.89994907379,-0.810515642166,0.797158241272,-0.717103540897,0.116463586688,-0.287220180035,0.624262273312
1555362454467424831,32566,1555362454467424831,world,-2.90009212494,-0.810396671295,0.797168970108,-0.717711746693,0.114520609379,-0.285611301661,0.624660730362
1555362454476789195,32567,1555362454476789195,world,-2.89976215363,-0.810702562332,0.797367095947,-0.715537011623,0.119530886412,-0.289985537529,0.624201536179
1555362454487132187,32568,1555362454487132187,world,-2.90003299713,-0.810451030731,0.797213077545,-0.717279136181,0.11534178257,-0.286464065313,0.624616146088
1555362454487173451,32569,1555362454487173451,world,-2.90009212494,-0.810391664505,0.797046422958,-0.718007564545,0.114354625344,-0.285593003035,0.624359428883
1555362454497416664,32570,1555362454497416664,world,-2.90011882782,-0.810377120972,0.797064304352,-0.718134403229,0.113948449492,-0.285258620977,0.624440848827
1555362454506706064,32571,1555362454506706064,world,-2.90015506744,-0.810356855392,0.797109603882,-0.718080341816,0.113681174815,-0.284957200289,0.624689161777
1555362454517027988,32572,1555362454517027988,world,-2.90015697479,-0.810387372971,0.797159194946,-0.717969059944,0.114007972181,-0.285158962011,0.624665498734
1555362454527303667,32573,1555362454527303667,world,-2.90010452271,-0.810387372971,0.797160148621,-0.717886149883,0.11421289295,-0.285392552614,0.624616801739
1555362454567681290,32574,1555362454567681290,world,-2.90004920959,-0.810465574265,0.797064065933,-0.717853009701,0.115003541112,-0.286025464535,0.624220192432
1555362454567720852,32575,1555362454567720852,world,-2.90008068085,-0.810379743576,0.797081232071,-0.717727124691,0.114670149982,-0.285622179508,0.624610722065
1555362454567775935,32576,1555362454567775935,world,-2.90007591248,-0.810438632965,0.797100067139,-0.717718780041,0.114844240248,-0.286088854074,0.624374687672
1555362454567824476,32578,1555362454567824476,world,-2.89972305298,-0.81067109108,0.797390699387,-0.715239167213,0.120148152113,-0.290118187666,0.624362707138
1555362454577203595,32579,1555362454577203595,world,-2.89996051788,-0.810515165329,0.797153711319,-0.71707290411,0.116651237011,-0.287267297506,0.624240875244
1555362454587537285,32580,1555362454587537285,world,-2.90006446838,-0.810411691666,0.797059297562,-0.717798650265,0.114921607077,-0.285884529352,0.624362289906
1555362454587575742,32581,1555362454587575742,world,-2.90012073517,-0.810376405716,0.797083616257,-0.718080997467,0.114181295037,-0.285286277533,0.624446928501
1555362454596849102,32582,1555362454596849102,world,-2.90015220642,-0.810385942459,0.797147750854,-0.718028724194,0.11390311271,-0.28502291441,0.624678134918
1555362454607111116,32583,1555362454607111116,world,-2.8998003006,-0.810650587082,0.797385692596,-0.715462625027,0.119285590947,-0.289548665285,0.624536395073
1555362454617380638,32584,1555362454617380638,world,-2.90000915527,-0.810491800308,0.797158002853,-0.717184245586,0.116023764014,-0.28678303957,0.624452352524
1555362454627652626,32585,1555362454627652626,world,-2.90006828308,-0.810422897339,0.797060966492,-0.717810213566,0.114659070969,-0.285864025354,0.624406576157
1555362454636967379,32586,1555362454636967379,world,-2.90008544922,-0.810411930084,0.797034263611,-0.717975020409,0.11455591023,-0.285754442215,0.624286293983
1555362454647246123,32587,1555362454647246123,world,-2.89978313446,-0.810680150986,0.797330141068,-0.715480268002,0.119522422552,-0.289891004562,0.624312162399
1555362454647291161,32588,1555362454647291161,world,-2.89968299866,-0.810733556747,0.797496318817,-0.714638769627,0.120804175735,-0.29091116786,0.624554634094
1555362454657609891,32589,1555362454657609891,world,-2.90002536774,-0.810473203659,0.797193288803,-0.717179477215,0.115701422095,-0.286728560925,0.624542713165
1555362454666991697,32590,1555362454666991697,world,-2.90016746521,-0.810336828232,0.797061920166,-0.718119442463,0.113521337509,-0.28493052721,0.624685585499
1555362454677269706,32591,1555362454677269706,world,-2.90015697479,-0.810338973999,0.797011375427,-0.718344509602,0.113496474922,-0.28481990099,0.624481678009
1555362454687562808,32592,1555362454687562808,world,-2.90019226074,-0.810361623764,0.797073602676,-0.718246042728,0.113624423742,-0.284699231386,0.6246265769
1555362454687599000,32593,1555362454687599000,world,-2.89986133575,-0.810589075089,0.797409057617,-0.715642809868,0.118813633919,-0.288846850395,0.62474501133
1555362454696854402,32594,1555362454696854402,world,-2.89972782135,-0.810713291168,0.797444343567,-0.714896261692,0.120616331697,-0.290596336126,0.624442875385
1555362454707086918,32595,1555362454707086918,world,-2.9000377655,-0.8104596138,0.797144651413,-0.717347621918,0.115539640188,-0.286593466997,0.624441504478
1555362454717340377,32596,1555362454717340377,world,-2.90013694763,-0.810331344604,0.79704785347,-0.718084037304,0.113787166774,-0.28508323431,0.624608159065
1555362454727639431,32597,1555362454727639431,world,-2.90015125275,-0.810352563858,0.796987533569,-0.71840763092,0.113711595535,-0.284920334816,0.624324202538
1555362454737006326,32598,1555362454737006326,world,-2.90020656586,-0.810285329819,0.797122478485,-0.718272924423,0.113034263253,-0.284363716841,0.62485575676
1555362454747390850,32599,1555362454747390850,world,-2.90015125275,-0.810341358185,0.797201156616,-0.718133211136,0.113696999848,-0.284931898117,0.624637067318
1555362454747459501,32600,1555362454747459501,world,-2.89977550507,-0.810603618622,0.797322034836,-0.715616106987,0.11929076165,-0.289477825165,0.624392569065
1555362454756761180,32601,1555362454756761180,world,-2.89999485016,-0.810437917709,0.797068595886,-0.71733301878,0.115946814418,-0.286729991436,0.624320268631
1555362454767063614,32602,1555362454767063614,world,-2.90005588531,-0.810389995575,0.797006130219,-0.717897176743,0.11471182853,-0.285887032747,0.624286353588
1555362454777450560,32603,1555362454777450560,world,-2.90012550354,-0.810373544693,0.797117710114,-0.717959225178,0.114251665771,-0.285283833742,0.624575257301
1555362454786685419,32604,1555362454786685419,world,-2.90017127991,-0.810341358185,0.79718875885,-0.717934727669,0.113881766796,-0.285032510757,0.624785661697
1555362454786723991,32605,1555362454786723991,world,-2.90012359619,-0.810413599014,0.797169208527,-0.717954397202,0.114403605461,-0.285626143217,0.624396622181
1555362454797014191,32606,1555362454797014191,world,-2.9001159668,-0.81036567688,0.797075271606,-0.717878222466,0.114327661693,-0.285457700491,0.624575018883
1555362454817662314,32607,1555362454817662314,world,-2.90005111694,-0.810445308685,0.79695725441,-0.717930495739,0.115047745407,-0.286166608334,0.624058067799
1555362454827098399,32608,1555362454827098399,world,-2.90007686615,-0.810407161713,0.797060489655,-0.717789053917,0.114729247987,-0.285940647125,0.624382913113
1555362454827139484,32609,1555362454827139484,world,-2.90011310577,-0.810421228409,0.797208070755,-0.717638075352,0.114637486637,-0.28584343195,0.624617934227
1555362454837573722,32610,1555362454837573722,world,-2.90008926392,-0.810419082642,0.797225475311,-0.717631042004,0.114554442465,-0.285905748606,0.624612629414
1555362454846957726,32611,1555362454846957726,world,-2.90006256104,-0.810416936874,0.797122478485,-0.717648088932,0.11479434371,-0.286060988903,0.624477982521
1555362454846997720,32612,1555362454846997720,world,-2.90005779266,-0.81040763855,0.797016143799,-0.71773815155,0.115080729127,-0.286010891199,0.624344587326
1555362454857450716,32613,1555362454857450716,world,-2.89970016479,-0.810691595078,0.797219991684,-0.715353488922,0.12021073699,-0.290388524532,0.624093949795
1555362454866779346,32614,1555362454866779346,world,-2.89962100983,-0.810765504837,0.797438144684,-0.714508891106,0.121569089592,-0.291321247816,0.624363720417
1555362454877106808,32615,1555362454877106808,world,-2.90003490448,-0.810459375381,0.797321557999,-0.716965794563,0.115949437022,-0.28668192029,0.62476348877
1555362454887359397,32616,1555362454887359397,world,-2.90013217926,-0.810368537903,0.797152996063,-0.717931687832,0.114227771759,-0.285228550434,0.624636650085
1555362454887396965,32617,1555362454887396965,world,-2.89978122711,-0.81060218811,0.797160863876,-0.715898394585,0.118912518024,-0.289176464081,0.624280571938
1555362454896678981,32618,1555362454896678981,world,-2.90002822876,-0.810457706451,0.797040939331,-0.717576563358,0.115484073758,-0.286372452974,0.624290049076
1555362454906922357,32619,1555362454906922357,world,-2.90019989014,-0.810324430466,0.797151565552,-0.718053221703,0.113335169852,-0.284708857536,0.624896466732
1555362454917174954,32620,1555362454917174954,world,-2.90020179749,-0.810359954834,0.797207832336,-0.718150734901,0.113368019462,-0.284828484058,0.62472397089
1555362454927552043,32621,1555362454927552043,world,-2.9001789093,-0.81033372879,0.797173500061,-0.718069255352,0.113346070051,-0.284898817539,0.624789476395
1555362454927593518,32622,1555362454927593518,world,-2.90013408661,-0.810389757156,0.797034502029,-0.71807295084,0.114138372242,-0.285274922848,0.624469459057
1555362454947097023,32623,1555362454947097023,world,-2.90011787415,-0.810392856598,0.797023773193,-0.717932403088,0.114420935512,-0.2854154706,0.624514997005
1555362454947124808,32624,1555362454947124808,world,-2.90012073517,-0.810392856598,0.79710316658,-0.717862963676,0.114356376231,-0.285492390394,0.624571382999
