%time,field.header.seq,field.header.stamp,field.header.frame_id,field.pose.position.x,field.pose.position.y,field.pose.position.z,field.pose.orientation.x,field.pose.orientation.y,field.pose.orientation.z,field.pose.orientation.w
1555362806926737464,33576,1555362806926737464,world,-2.89873790741,-0.815299034119,0.797422885895,-0.70621740818,0.156703606248,-0.321178525686,0.611183524132
1555362806926794723,33577,1555362806926794723,world,-2.89778900146,-0.815021038055,0.796958208084,-0.709398984909,0.161761820316,-0.316729515791,0.608496963978
1555362806947429481,33578,1555362806947429481,world,-2.89746570587,-0.814939260483,0.796754360199,-0.710131943226,0.163714572787,-0.315738976002,0.60763412714
1555362806966997388,33579,1555362806966997388,world,-2.89929962158,-0.815684556961,0.797383308411,-0.701965451241,0.158362835646,-0.330832630396,0.610504388809
1555362806967024246,33580,1555362806967024246,world,-2.89871406555,-0.815315246582,0.797396183014,-0.7060084939,0.157285228372,-0.322420507669,0.610621273518
1555362806967058208,33581,1555362806967058208,world,-2.89966583252,-0.815752267838,0.797678232193,-0.700993597507,0.156184732914,-0.33112809062,0.612020075321
1555362806977369898,33582,1555362806977369898,world,-2.89804363251,-0.815140962601,0.797061443329,-0.707810401917,0.161994606256,-0.319465577602,0.608854711056
1555362806996925367,33583,1555362806996925367,world,-2.89747714996,-0.814953327179,0.796741485596,-0.71023607254,0.164235368371,-0.31530547142,0.607596933842
1555362806996969932,33584,1555362806996969932,world,-2.89738941193,-0.8149061203,0.79674577713,-0.710737943649,0.164415642619,-0.31443977356,0.607409894466
1555362807007254678,33585,1555362807007254678,world,-2.89931583405,-0.815665483475,0.797493219376,-0.702188432217,0.15797264874,-0.328245669603,0.611744105816
1555362807007298373,33586,1555362807007298373,world,-2.89871311188,-0.815351486206,0.797423124313,-0.706193208694,0.157125726342,-0.321608304977,0.610876917839
1555362807017662500,33587,1555362807017662500,world,-2.89782047272,-0.815043449402,0.797073841095,-0.70926463604,0.161928623915,-0.31671077013,0.60861903429
1555362807027059477,33588,1555362807027059477,world,-2.89752292633,-0.81498003006,0.796768665314,-0.710174500942,0.163855224848,-0.315697222948,0.607568085194
1555362807027107866,33589,1555362807027107866,world,-2.8974571228,-0.81495308876,0.796717166901,-0.710171639919,0.164059236646,-0.315645009279,0.60754352808
1555362807037423061,33590,1555362807037423061,world,-2.89754772186,-0.815007925034,0.796885967255,-0.709734857082,0.163916274905,-0.316302984953,0.607750236988
1555362807047704835,33591,1555362807047704835,world,-2.89945888519,-0.81582403183,0.797653436661,-0.701119422913,0.156595364213,-0.32821932435,0.613336443901
1555362807057089604,33592,1555362807057089604,world,-2.89824104309,-0.815244436264,0.797251462936,-0.706884562969,0.161052167416,-0.32039758563,0.609690010548
1555362807067375881,33593,1555362807067375881,world,-2.89774227142,-0.814993143082,0.79690861702,-0.709067821503,0.162760809064,-0.317318677902,0.608309745789
1555362807077644736,33594,1555362807077644736,world,-2.8975982666,-0.814967632294,0.796759128571,-0.709641993046,0.163556069136,-0.316835790873,0.607678234577
1555362807077680668,33595,1555362807077680668,world,-2.89761543274,-0.814979076385,0.79691362381,-0.7095875144,0.163371682167,-0.316712796688,0.607855439186
1555362807087042003,33596,1555362807087042003,world,-2.89953994751,-0.81572675705,0.797622203827,-0.701158642769,0.157150268555,-0.330845087767,0.611736834049
1555362807097424176,33597,1555362807097424176,world,-2.89829826355,-0.815204381943,0.797237157822,-0.706864058971,0.161047399044,-0.320849508047,0.60947728157
1555362807106715729,33598,1555362807106715729,world,-2.89779853821,-0.814993858337,0.796959400177,-0.709070920944,0.162610903382,-0.317125678062,0.608446836472
1555362807117109966,33599,1555362807117109966,world,-2.89764499664,-0.815034627914,0.796793937683,-0.709686875343,0.163248896599,-0.31655356288,0.607855498791
1555362807127527483,33600,1555362807127527483,world,-2.89763069153,-0.815032243729,0.796888828278,-0.709651827812,0.16327470541,-0.316671103239,0.607828080654
1555362807127564229,33601,1555362807127564229,world,-2.8977060318,-0.815059661865,0.797058820724,-0.709406495094,0.163120344281,-0.316988170147,0.60799074173
1555362807136847044,33602,1555362807136847044,world,-2.89776515961,-0.815058231354,0.797091722488,-0.709073007107,0.162702590227,-0.31724396348,0.608358204365
1555362807147196147,33603,1555362807147196147,world,-2.89780235291,-0.815103292465,0.79699921608,-0.708858788013,0.162673547864,-0.317773073912,0.608339428902
1555362807157536255,33604,1555362807157536255,world,-2.89784526825,-0.815107107162,0.796867132187,-0.708709359169,0.162565752864,-0.318036317825,0.608404755592
1555362807166836587,33605,1555362807166836587,world,-2.89788627625,-0.815124988556,0.796914815903,-0.708568811417,0.162482976913,-0.318328499794,0.608437657356
1555362807177141364,33606,1555362807177141364,world,-2.89791965485,-0.815104961395,0.797094583511,-0.708457529545,0.162133619189,-0.318076848984,0.608792126179
1555362807187534819,33607,1555362807187534819,world,-2.89792728424,-0.815103292465,0.79713010788,-0.708445131779,0.162244901061,-0.317892074585,0.608873426914
1555362807187572654,33608,1555362807187572654,world,-2.89793014526,-0.815097093582,0.797060012817,-0.708468854427,0.162316918373,-0.318176180124,0.608678162098
1555362807196984114,33609,1555362807196984114,world,-2.89790821075,-0.815170764923,0.79691362381,-0.708391726017,0.162650257349,-0.318597972393,0.608458161354
1555362807207283233,33610,1555362807207283233,world,-2.89790630341,-0.815201759338,0.796877622604,-0.708384394646,0.162741884589,-0.319029539824,0.608215987682
1555362807217684598,33611,1555362807217684598,world,-2.89788722992,-0.815152645111,0.797030448914,-0.708346605301,0.162325322628,-0.318561434746,0.6086165905
1555362807217754196,33612,1555362807217754196,world,-2.89789962769,-0.815144777298,0.797125101089,-0.708334982395,0.162420466542,-0.31842687726,0.608675122261
1555362807227045109,33613,1555362807227045109,world,-2.89790058136,-0.815105199814,0.797126054764,-0.708347201347,0.162249371409,-0.318111151457,0.608871638775
1555362807237319722,33614,1555362807237319722,world,-2.89792060852,-0.815193891525,0.797039985657,-0.708291113377,0.162323907018,-0.318371087313,0.608781218529
1555362807247719705,33615,1555362807247719705,world,-2.89789867401,-0.815225839615,0.796926498413,-0.70827960968,0.16266566515,-0.318729281425,0.608515977859
1555362807257042275,33616,1555362807257042275,world,-2.89791679382,-0.815187692642,0.796956777573,-0.708361625671,0.162305116653,-0.318444013596,0.608665943146
1555362807267360826,33617,1555362807267360826,world,-2.89790439606,-0.815194368362,0.797042369843,-0.708324730396,0.162289634347,-0.318458348513,0.608705639839
1555362807277678447,33618,1555362807277678447,world,-2.89789390564,-0.815191507339,0.7971367836,-0.70829552412,0.162343725562,-0.318412035704,0.608749330044
1555362807277747106,33619,1555362807277747106,world,-2.89788913727,-0.815202713013,0.797116041183,-0.708231568336,0.16241119802,-0.31844446063,0.608788669109
1555362807287125904,33620,1555362807287125904,world,-2.89789676666,-0.815174341202,0.79695892334,-0.708311676979,0.16233740747,-0.318452805281,0.608710944653
1555362807297484172,33621,1555362807297484172,world,-2.89786624908,-0.815183877945,0.796853542328,-0.708346247673,0.162614509463,-0.318635433912,0.608501136303
1555362807306761928,33622,1555362807306761928,world,-2.89790534973,-0.815148591995,0.796970844269,-0.708335220814,0.162334695458,-0.318301707506,0.608763337135
1555362807317143291,33623,1555362807317143291,world,-2.89795398712,-0.815128087997,0.797127723694,-0.708351492882,0.161995455623,-0.318159073591,0.60890930891
1555362807327549249,33624,1555362807327549249,world,-2.89798069,-0.815127372742,0.7971971035,-0.708297729492,0.161989986897,-0.318176746368,0.60896396637
1555362807327623235,33625,1555362807327623235,world,-2.8979473114,-0.815158367157,0.797034263611,-0.708321988583,0.162373706698,-0.318473905325,0.608678281307
1555362807336922718,33626,1555362807336922718,world,-2.89790630341,-0.815177202225,0.796857118607,-0.708334028721,0.162605419755,-0.318733602762,0.608466267586
1555362807347368506,33627,1555362807347368506,world,-2.89792537689,-0.815164089203,0.796892166138,-0.708400428295,0.162499114871,-0.318700164557,0.608435094357
1555362807357685228,33628,1555362807357685228,world,-2.89794445038,-0.815180778503,0.79710316658,-0.708272278309,0.162258937955,-0.318757563829,0.608618140221
1555362807366949105,33629,1555362807366949105,world,-2.89793395996,-0.815200328827,0.797198295593,-0.708204329014,0.162414327264,-0.318637520075,0.608718693256
1555362807377334782,33630,1555362807377334782,world,-2.89794254303,-0.815178871155,0.797045230865,-0.708332479,0.162521824241,-0.318383187056,0.608673989773
1555362807387742822,33631,1555362807387742822,world,-2.89792919159,-0.815154314041,0.796872138977,-0.70834594965,0.162523105741,-0.318307429552,0.608697533607
1555362807387807523,33632,1555362807387807523,world,-2.89789962769,-0.815232753754,0.79686999321,-0.708262979984,0.16269017756,-0.318827569485,0.60847723484
1555362807397259099,33633,1555362807397259099,world,-2.89793682098,-0.815202474594,0.797082185745,-0.70827203989,0.16247279942,-0.318574100733,0.608657479286
1555362807407729795,33634,1555362807407729795,world,-2.89794254303,-0.815171480179,0.797195672989,-0.708275616169,0.16217584908,-0.318149119616,0.60895472765
1555362807437540446,33635,1555362807437540446,world,-2.89793205261,-0.815177202225,0.797073602676,-0.708375573158,0.162218138576,-0.318356126547,0.608718812466
1555362807437584758,33636,1555362807437584758,world,-2.89791202545,-0.81516456604,0.796889305115,-0.708346605301,0.162571191788,-0.318462133408,0.608603000641
1555362807437602136,33637,1555362807437602136,world,-2.89791584015,-0.815194606781,0.796885490417,-0.70830565691,0.162669613957,-0.31867018342,0.608515381813
1555362807446851560,33638,1555362807446851560,world,-2.89793014526,-0.815158128738,0.796980619431,-0.70833837986,0.162455365062,-0.318647474051,0.608546435833
1555362807446918154,33639,1555362807446918154,world,-2.89795970917,-0.815107345581,0.797132968903,-0.708334028721,0.162131384015,-0.318361908197,0.608787357807
1555362807457520762,33640,1555362807457520762,world,-2.89796733856,-0.815089941025,0.797139167786,-0.708405733109,0.161985337734,-0.318346261978,0.608751058578
1555362807477084041,33641,1555362807477084041,world,-2.89796924591,-0.815139532089,0.796982049942,-0.708369553089,0.162223652005,-0.318611174822,0.608590960503
1555362807477135341,33642,1555362807477135341,world,-2.89793014526,-0.815123081207,0.796853065491,-0.708399116993,0.162451758981,-0.31887498498,0.608357548714
1555362807487572282,33643,1555362807487572282,world,-2.89792919159,-0.815191984177,0.796890497208,-0.70834839344,0.16265617311,-0.31919631362,0.608193337917
1555362807487629617,33644,1555362807487629617,world,-2.89795017242,-0.815069437027,0.797031402588,-0.708388864994,0.162063509226,-0.318366348743,0.608739256859
1555362807496962309,33645,1555362807496962309,world,-2.89797878265,-0.81508398056,0.797162771225,-0.708327770233,0.162018895149,-0.31833922863,0.60883641243
1555362807507414638,33646,1555362807507414638,world,-2.89797878265,-0.815079450607,0.79713177681,-0.708284974098,0.161979958415,-0.318178862333,0.608980357647
1555362807516744393,33647,1555362807516744393,world,-2.8979473114,-0.81510925293,0.796917200089,-0.708311259747,0.162336036563,-0.318453401327,0.60871142149
1555362807537266786,33648,1555362807537266786,world,-2.8979473114,-0.815172195435,0.796806812286,-0.708333075047,0.162512615323,-0.318744212389,0.608486771584
1555362807537304554,33649,1555362807537304554,world,-2.89791107178,-0.815140962601,0.796947240829,-0.708363592625,0.162514463067,-0.318447619677,0.608605980873
1555362807537364582,33650,1555362807537364582,world,-2.89797973633,-0.815146446228,0.797171831131,-0.708314538002,0.162075445056,-0.318291038275,0.608861863613
1555362807547624114,33651,1555362807547624114,world,-2.89797210693,-0.815125465393,0.797190666199,-0.708363354206,0.161905437708,-0.317911565304,0.609048724174
1555362807556916192,33652,1555362807556916192,world,-2.8979473114,-0.815173864365,0.797017335892,-0.708340883255,0.162412643433,-0.318636655807,0.608560562134
1555362807567176692,33653,1555362807567176692,world,-2.89792823792,-0.815156936646,0.796865463257,-0.708354711533,0.162449598312,-0.318706512451,0.608498096466
1555362807577460678,33654,1555362807577460678,world,-2.89791965485,-0.815138578415,0.796865224838,-0.708334207535,0.162387430668,-0.318462729454,0.608666181564
1555362807586701047,33655,1555362807586701047,world,-2.89793300629,-0.81511425972,0.797078609467,-0.708319485188,0.162296310067,-0.318384438753,0.608748555183
1555362807586739448,33656,1555362807586739448,world,-2.89980316162,-0.81586766243,0.797750711441,-0.70010638237,0.155995354056,-0.331629872322,0.612811625004
1555362807597196652,33657,1555362807597196652,world,-2.89844512939,-0.815328121185,0.797236204147,-0.706115841866,0.160511881113,-0.322091519833,0.609830677509
1555362807607468966,33658,1555362807607468966,world,-2.89789772034,-0.815126657486,0.796898841858,-0.708531141281,0.162411600351,-0.318235933781,0.608549058437
1555362807616670096,33659,1555362807616670096,world,-2.89772605896,-0.815077781677,0.796742200851,-0.709291636944,0.163055822253,-0.316901057959,0.608187496662
1555362807626917417,33660,1555362807626917417,world,-2.89772891998,-0.81507062912,0.796921253204,-0.709306359291,0.163163229823,-0.316873550415,0.608155846596
1555362807626982805,33661,1555362807626982805,world,-2.89958000183,-0.815896034241,0.797641038895,-0.700900375843,0.156193196774,-0.328707069159,0.613427996635
1555362807637268205,33662,1555362807637268205,world,-2.89832401276,-0.815317153931,0.797243595123,-0.70673084259,0.160854697227,-0.320457905531,0.609888613224
1555362807656900335,33663,1555362807656900335,world,-2.89780712128,-0.815084218979,0.796914100647,-0.709024548531,0.162907928228,-0.317490011454,0.608231365681
1555362807677436353,33664,1555362807677436353,world,-2.89765262604,-0.814995765686,0.796700239182,-0.709647655487,0.163613513112,-0.316620707512,0.607768297195
1555362807677472694,33665,1555362807677472694,world,-2.8976392746,-0.815055370331,0.796806812286,-0.709611833096,0.163750514388,-0.317327290773,0.607404530048
1555362807677519594,33666,1555362807677519594,world,-2.89767742157,-0.815053224564,0.797073125839,-0.709322810173,0.162871599197,-0.316759705544,0.608274102211
1555362807677541999,33667,1555362807677541999,world,-2.89778232574,-0.815091133118,0.797158241272,-0.708974421024,0.162819892168,-0.317645460367,0.608232080936
1555362807697068169,33668,1555362807697068169,world,-2.89781475067,-0.815004587173,0.797017812729,-0.708961963654,0.162640556693,-0.317378312349,0.608433961868
1555362807717690663,33669,1555362807717690663,world,-2.89786815643,-0.815093517303,0.796832084656,-0.708812177181,0.162762284279,-0.318237096071,0.608127355576
1555362807717729728,33670,1555362807717729728,world,-2.89789295197,-0.815074205399,0.796823263168,-0.708633244038,0.162651076913,-0.318272173405,0.608347117901
1555362807717782045,33671,1555362807717782045,world,-2.89792537689,-0.815111875534,0.79700756073,-0.708514273167,0.162522479892,-0.318390846252,0.608458101749
1555362807727037146,33672,1555362807727037146,world,-2.89981079102,-0.815846443176,0.797770738602,-0.700226664543,0.155903235078,-0.331074267626,0.612998127937
1555362807747555236,33673,1555362807747555236,world,-2.89849185944,-0.815302371979,0.797311067581,-0.706178128719,0.160419389606,-0.321783304214,0.609945714474
1555362807747614555,33674,1555362807747614555,world,-2.89792633057,-0.815123081207,0.796910047531,-0.708523690701,0.162463575602,-0.318408697844,0.608453512192
1555362807747662467,33675,1555362807747662467,world,-2.89770126343,-0.815057754517,0.796698093414,-0.709262132645,0.163327157497,-0.317204028368,0.607991158962
1555362807756995760,33676,1555362807756995760,world,-2.89770889282,-0.815088033676,0.796838760376,-0.709398508072,0.163297981024,-0.317262619734,0.607809126377
1555362807797054008,33677,1555362807797054008,world,-2.89772129059,-0.815021753311,0.797058105469,-0.709002614021,0.162911623716,-0.317560702562,0.608219027519
1555362807797144406,33678,1555362807797144406,world,-2.89963626862,-0.815812349319,0.797694683075,-0.700780570507,0.156779319048,-0.331355720758,0.611988782883
1555362807797167036,33679,1555362807797167036,world,-2.89835166931,-0.815279245377,0.79715180397,-0.706602811813,0.160972490907,-0.321280747652,0.609572947025
1555362807797196649,33680,1555362807797196649,world,-2.89780712128,-0.815148830414,0.796797275543,-0.708839476109,0.163011297584,-0.317932158709,0.608188390732
1555362807797224850,33681,1555362807797224850,world,-2.89761924744,-0.815089225769,0.796775579453,-0.70950782299,0.163679689169,-0.317020654678,0.607705116272
1555362807816920218,33682,1555362807816920218,world,-2.89767456055,-0.815050840378,0.797000408173,-0.709541261196,0.163227677345,-0.316420614719,0.608100295067
1555362807827204153,33683,1555362807827204153,world,-2.899559021,-0.815771818161,0.797713041306,-0.70109128952,0.156686380506,-0.329961806536,0.612409651279
1555362807827264540,33685,1555362807827264540,world,-2.89778709412,-0.815038442612,0.796863079071,-0.709045648575,0.162886455655,-0.31729054451,0.608316659927
1555362807837574003,33686,1555362807837574003,world,-2.89762592316,-0.81499671936,0.796734571457,-0.709620654583,0.163349598646,-0.316475987434,0.607945919037
1555362807846953407,33687,1555362807846953407,world,-2.89766025543,-0.815029621124,0.796884536743,-0.709599256516,0.163490846753,-0.316726565361,0.607802629471
1555362807857230316,33688,1555362807857230316,world,-2.89958763123,-0.815731287003,0.797671318054,-0.701204419136,0.156596630812,-0.329734504223,0.612425625324
1555362807867665008,33689,1555362807867665008,world,-2.89895153046,-0.815405845642,0.797510623932,-0.705380797386,0.15618608892,-0.323153704405,0.611240923405
1555362807876981559,33690,1555362807876981559,world,-2.89798164368,-0.815095901489,0.797012805939,-0.708580315113,0.161502227187,-0.318066954613,0.60882204771
1555362807877035091,33691,1555362807877035091,world,-2.89764308929,-0.815063714981,0.79669213295,-0.709576845169,0.163846224546,-0.316757142544,0.60771715641
1555362807887365809,33692,1555362807887365809,world,-2.89756202698,-0.815005064011,0.796743154526,-0.709785938263,0.164040029049,-0.316213399172,0.60770380497
1555362807897752309,33693,1555362807897752309,world,-2.8994550705,-0.815784931183,0.797561883926,-0.701387643814,0.157810553908,-0.330247998238,0.611626982689
1555362807907168876,33694,1555362807907168876,world,-2.89817142487,-0.815286874771,0.797259807587,-0.7069414258,0.161252781749,-0.320307433605,0.609618365765
1555362807917522617,33695,1555362807917522617,world,-2.89770412445,-0.815114021301,0.79699587822,-0.709167838097,0.163077607751,-0.31719699502,0.608171582222
1555362807926813899,33696,1555362807926813899,world,-2.89757633209,-0.815058231354,0.796788454056,-0.709686994553,0.163644313812,-0.316185384989,0.607940495014
1555362807937090365,33697,1555362807937090365,world,-2.89760971069,-0.815092802048,0.796751022339,-0.709630072117,0.163787007332,-0.316657781601,0.607722818851
1555362807966971186,33698,1555362807966971186,world,-2.89766311646,-0.815064430237,0.796945333481,-0.70940220356,0.163333073258,-0.316733539104,0.608071386814
1555362807977229363,33699,1555362807977229363,world,-2.89838409424,-0.815190553665,0.797313451767,-0.707384765148,0.157893702388,-0.319669783115,0.610317587852
1555362807977317133,33702,1555362807977317133,world,-2.89777851105,-0.815135240555,0.796829938889,-0.708790302277,0.163299754262,-0.31802341342,0.608120501041
1555362807987702598,33703,1555362807987702598,world,-2.89779853821,-0.815133333206,0.796935319901,-0.708769857883,0.163237050176,-0.318025171757,0.608160316944
1555362807987730408,33704,1555362807987730408,world,-2.89783668518,-0.815093278885,0.797086715698,-0.70865291357,0.162839800119,-0.317956060171,0.608439207077
1555362807997048809,33705,1555362807997048809,world,-2.89788818359,-0.815113067627,0.797148704529,-0.708576500416,0.162729486823,-0.317976355553,0.608547031879
1555362808007412379,33706,1555362808007412379,world,-2.89790534973,-0.815090656281,0.797001600266,-0.708595335484,0.162528976798,-0.318098068237,0.60851508379
1555362808017765042,33707,1555362808017765042,world,-2.89789009094,-0.815188884735,0.79679775238,-0.708422660828,0.162903755903,-0.318746507168,0.608276546001
1555362808027166308,33708,1555362808027166308,world,-2.89793586731,-0.815139770508,0.796903848648,-0.708464205265,0.162467807531,-0.318217694759,0.608621478081
1555362808037556022,33709,1555362808037556022,world,-2.89797210693,-0.81515455246,0.79709482193,-0.708348155022,0.162394985557,-0.318454712629,0.608652055264
1555362808037594674,33710,1555362808037594674,world,-2.89797019958,-0.815112113953,0.797155857086,-0.708310842514,0.162135779858,-0.318320989609,0.608834505081
1555362808046919284,33711,1555362808046919284,world,-2.89795398712,-0.815134525299,0.797002077103,-0.708364665508,0.162319526076,-0.318489640951,0.608634889126
1555362808057251043,33712,1555362808057251043,world,-2.89793777466,-0.815176963806,0.796855449677,-0.708355426788,0.162664413452,-0.318954825401,0.608309745789
1555362808117291597,33713,1555362808117291597,world,-2.89791202545,-0.815144062042,0.79690527916,-0.708437979221,0.162418082356,-0.318655759096,0.60843616724
1555362808117325689,33714,1555362808117325689,world,-2.8979139328,-0.815141916275,0.797090530396,-0.708419620991,0.162160351872,-0.318399101496,0.608660578728
1555362808117371551,33715,1555362808117371551,world,-2.8979177475,-0.815092086792,0.797148227692,-0.708325922489,0.162158861756,-0.3184453547,0.608745932579
1555362808117430497,33719,1555362808117430497,world,-2.89790916443,-0.815153360367,0.797036170959,-0.708314955235,0.162278443575,-0.318520724773,0.608687281609
1555362808127710052,33720,1555362808127710052,world,-2.89790821075,-0.81511759758,0.797122240067,-0.708282470703,0.162206172943,-0.318132758141,0.608947277069
1555362808127774147,33721,1555362808127774147,world,-2.89795017242,-0.815107345581,0.797127962112,-0.708270072937,0.162056982517,-0.318116784096,0.609009742737
1555362808137173047,33722,1555362808137173047,world,-2.89791202545,-0.81516289711,0.797015428543,-0.708253026009,0.16247163713,-0.318669050932,0.608630120754
1555362808147560309,33723,1555362808147560309,world,-2.8979139328,-0.815212965012,0.79688334465,-0.70830065012,0.162441760302,-0.318893373013,0.608465313911
1555362808157014474,33724,1555362808157014474,world,-2.89794635773,-0.815143346786,0.796927452087,-0.708368659019,0.162244781852,-0.318446487188,0.608672559261
1555362808167312646,33725,1555362808167312646,world,-2.89794635773,-0.815126895905,0.797074794769,-0.708315730095,0.162197932601,-0.318313926458,0.608816087246
1555362808177657504,33726,1555362808177657504,world,-2.89796638489,-0.815151691437,0.797135591507,-0.708302974701,0.162298023701,-0.318364024162,0.608777999878
1555362808177723444,33727,1555362808177723444,world,-2.8979845047,-0.815104961395,0.797117948532,-0.708349764347,0.162149444222,-0.318329483271,0.608781218529
1555362808186983287,33728,1555362808186983287,world,-2.89796447754,-0.815139293671,0.79691195488,-0.708354890347,0.162396177649,-0.318679183722,0.608526408672
1555362808216936595,33729,1555362808216936595,world,-2.89795207977,-0.815120220184,0.796813726425,-0.708345711231,0.162434473634,-0.318489462137,0.608626186848
1555362808216964388,33730,1555362808216964388,world,-2.89795303345,-0.815111398697,0.796981096268,-0.708336293697,0.162440761924,-0.318479269743,0.60864084959
1555362808217000874,33731,1555362808217000874,world,-2.89796161652,-0.815104722977,0.797133207321,-0.708303272724,0.162129953504,-0.318521171808,0.608740210533
1555362808227242912,33732,1555362808227242912,world,-2.89981651306,-0.81586265564,0.797739267349,-0.70016849041,0.156203389168,-0.332460731268,0.612237215042
1555362808227289336,33733,1555362808227289336,world,-2.89842605591,-0.815309047699,0.797159194946,-0.706211149693,0.160600662231,-0.32239022851,0.609538972378
1555362808237647703,33734,1555362808237647703,world,-2.8978729248,-0.815112352371,0.796766042709,-0.70855486393,0.162682548165,-0.318380862474,0.60837328434
1555362808246916574,33735,1555362808246916574,world,-2.89770126343,-0.815050840378,0.79682302475,-0.709230720997,0.163244396448,-0.317178547382,0.608063220978
1555362808257246561,33736,1555362808257246561,world,-2.89956378937,-0.815743923187,0.79763674736,-0.701113939285,0.156674459577,-0.329708844423,0.612523078918
1555362808267531292,33737,1555362808267531292,world,-2.89894580841,-0.815366268158,0.797510147095,-0.705400943756,0.156170964241,-0.322633743286,0.611496269703
1555362808276970939,33738,1555362808276970939,world,-2.89794921875,-0.815012216568,0.797078847885,-0.708770692348,0.161259770393,-0.31730145216,0.609064221382
1555362808287232551,33739,1555362808287232551,world,-2.89757537842,-0.814975261688,0.796717166901,-0.709796845913,0.163772091269,-0.316472858191,0.60762834549
1555362808297448596,33740,1555362808297448596,world,-2.89754486084,-0.814963579178,0.796728372574,-0.709890186787,0.163984999061,-0.316128015518,0.607641339302
1555362808307686298,33741,1555362808307686298,world,-2.8976020813,-0.8149933815,0.796972036362,-0.709677577019,0.163709580898,-0.316406697035,0.60781878233
1555362808307750677,33742,1555362808307750677,world,-2.89771938324,-0.814991235733,0.797079563141,-0.70931994915,0.163125738502,-0.316769123077,0.608204424381
1555362808317046915,33743,1555362808317046915,world,-2.89776706696,-0.815023422241,0.797030925751,-0.709085226059,0.16299058497,-0.317214012146,0.608282566071
1555362808327403915,33744,1555362808327403915,world,-2.89779376984,-0.815076589584,0.796851873398,-0.708864152431,0.163073867559,-0.317959278822,0.608128666878
1555362808327427619,33745,1555362808327427619,world,-2.8978509903,-0.815105676651,0.796850442886,-0.708688318729,0.162859812379,-0.31831997633,0.608202219009
1555362808337653569,33746,1555362808337653569,world,-2.89789199829,-0.815083026886,0.796956777573,-0.708596646786,0.162481099367,-0.318238705397,0.608452796936
1555362808346872307,33747,1555362808346872307,world,-2.89793014526,-0.815095663071,0.797096014023,-0.708437502384,0.162380263209,-0.318456053734,0.608551323414
1555362808357079170,33748,1555362808357079170,world,-2.89794826508,-0.815011024475,0.79710650444,-0.708486914635,0.162060901523,-0.31798812747,0.608823537827
1555362808367286694,33749,1555362808367286694,world,-2.89794540405,-0.815089225769,0.797012805939,-0.708424210548,0.162269517779,-0.318457335234,0.608595788479
1555362808377503540,33750,1555362808377503540,world,-2.89792251587,-0.815093994141,0.796947002411,-0.708460628986,0.162353724241,-0.318557918072,0.608478188515
1555362808377526039,33751,1555362808377526039,world,-2.8979434967,-0.815116167068,0.796907663345,-0.708457529545,0.162305563688,-0.318684279919,0.60842859745
1555362808396815684,33752,1555362808396815684,world,-2.89792156219,-0.815132379532,0.797009706497,-0.708423256874,0.162348076701,-0.318838089705,0.608376443386
1555362808396836182,33753,1555362808396836182,world,-2.89794826508,-0.8150639534,0.797079801559,-0.708395063877,0.162032261491,-0.318514972925,0.608662724495
1555362808407029533,33754,1555362808407029533,world,-2.89793491364,-0.815158128738,0.79706454277,-0.708313703537,0.162482023239,-0.31890809536,0.608431637287
1555362808417231406,33755,1555362808417231406,world,-2.89793586731,-0.815085887909,0.796975851059,-0.708365559578,0.162411555648,-0.318437904119,0.608636081219
1555362808427572763,33756,1555362808427572763,world,-2.89795875549,-0.815102338791,0.796874284744,-0.708379387856,0.162363097072,-0.318705409765,0.608493030071
1555362808427592984,33757,1555362808427592984,world,-2.89793491364,-0.815053939819,0.796936988831,-0.708394765854,0.162237167358,-0.318421959877,0.608657121658
1555362808436816383,33758,1555362808436816383,world,-2.89794254303,-0.815131664276,0.797081708908,-0.708346366882,0.162483990192,-0.318747878075,0.608476877213
1555362808447067959,33759,1555362808447067959,world,-2.89798259735,-0.815079212189,0.797133922577,-0.708360433578,0.162196457386,-0.318510293961,0.608661651611
1555362808457390048,33760,1555362808457390048,world,-2.89794826508,-0.815086364746,0.79699754715,-0.708375930786,0.162393271923,-0.318556070328,0.608567237854
1555362808467680718,33761,1555362808467680718,world,-2.89794635773,-0.815112113953,0.796860218048,-0.708349823952,0.162308141589,-0.318823903799,0.608479917049
1555362808487448218,33762,1555362808487448218,world,-2.89793777466,-0.815072536469,0.796948432922,-0.708377480507,0.162290140986,-0.318710654974,0.608511865139
1555362808487528571,33763,1555362808487528571,world,-2.89978122711,-0.815810680389,0.797653436661,-0.700220882893,0.156308144331,-0.332598477602,0.612075686455
1555362808496867636,33764,1555362808496867636,world,-2.89841842651,-0.815230369568,0.797234773636,-0.706020176411,0.160015076399,-0.322279304266,0.609972834587
1555362808496930922,33765,1555362808496930922,world,-2.89787006378,-0.815057516098,0.796925544739,-0.708353161812,0.16213567555,-0.318573027849,0.60865342617
1555362808507190679,33766,1555362808507190679,world,-2.89770889282,-0.814954042435,0.79677438736,-0.709290802479,0.162811249495,-0.316931068897,0.608238220215
1555362808517422842,33767,1555362808517422842,world,-2.89770507812,-0.815063238144,0.796879529953,-0.709366202354,0.163293197751,-0.317259728909,0.607849597931
1555362808527752814,33768,1555362808527752814,world,-2.89774417877,-0.81498336792,0.79705119133,-0.709256827831,0.162873968482,-0.316925019026,0.608264267445
1555362808527833585,33769,1555362808527833585,world,-2.89783000946,-0.815011024475,0.797027826309,-0.70910769701,0.162807270885,-0.317184358835,0.608320832253
1555362808537159208,33770,1555362808537159208,world,-2.89784622192,-0.815014839172,0.796945333481,-0.708896756172,0.162687733769,-0.317514389753,0.608426451683
1555362808547489101,33771,1555362808547489101,world,-2.89787006378,-0.815076351166,0.796875,-0.708652853966,0.162566944957,-0.318092346191,0.608440995216
1555362808556795132,33772,1555362808556795132,world,-2.89792251587,-0.815062761307,0.79695057869,-0.708592653275,0.162450313568,-0.318195223808,0.608488440514
1555362808567111678,33773,1555362808567111678,world,-2.89794826508,-0.815019130707,0.797068119049,-0.708572685719,0.162027403712,-0.317889213562,0.608784258366
1555362808577566379,33774,1555362808577566379,world,-2.89796447754,-0.815073251724,0.797078132629,-0.708537936211,0.162128433585,-0.318232983351,0.60861825943
1555362808577601877,33775,1555362808577601877,world,-2.89793109894,-0.815010070801,0.797023057938,-0.708458840847,0.16210693121,-0.318293243647,0.6086845994
1555362808586853842,33776,1555362808586853842,world,-2.89796066284,-0.815093755722,0.796916246414,-0.708448052406,0.162417635322,-0.318626135588,0.608440101147
1555362808597150142,33777,1555362808597150142,world,-2.89795780182,-0.815030574799,0.796918869019,-0.708386719227,0.162079304457,-0.318193614483,0.60882794857
1555362808607449014,33778,1555362808607449014,world,-2.89795970917,-0.815125465393,0.796960115433,-0.708374798298,0.162350565195,-0.31885689497,0.608422398567
1555362808616704776,33779,1555362808616704776,world,-2.89796352386,-0.815038919449,0.797072172165,-0.708441615105,0.162084802985,-0.318229526281,0.608743846416
1555362808627041162,33780,1555362808627041162,world,-2.89979553223,-0.81582069397,0.797614812851,-0.700197696686,0.156301096082,-0.332862496376,0.611960709095
1555362808637410071,33781,1555362808637410071,world,-2.898478508,-0.815293550491,0.797133684158,-0.70610666275,0.16060398519,-0.322633385658,0.609530568123
1555362808646791473,33782,1555362808646791473,world,-2.89793682098,-0.81506061554,0.79690527916,-0.708487510681,0.162332087755,-0.318375170231,0.608548343182
1555362808657086828,33783,1555362808657086828,world,-2.89774703979,-0.814992666245,0.796836614609,-0.709295034409,0.162854343653,-0.316833227873,0.608272850513
1555362808657108408,33784,1555362808657108408,world,-2.8977394104,-0.814994335175,0.796984910965,-0.709334433079,0.162841558456,-0.31675568223,0.608270585537
1555362808667495078,33785,1555362808667495078,world,-2.89776515961,-0.814985752106,0.79710650444,-0.709128141403,0.162719026208,-0.316897422075,0.608470082283
1555362808676632083,33786,1555362808676632083,world,-2.89779567719,-0.815042972565,0.797011375427,-0.709004938602,0.162800654769,-0.317411452532,0.608323872089
1555362808686896521,33787,1555362808686896521,world,-2.89783382416,-0.815090179443,0.796870946884,-0.708830535412,0.162924975157,-0.318077534437,0.60814589262
1555362808697099911,33788,1555362808697099911,world,-2.89788150787,-0.815067529678,0.796885728836,-0.708698630333,0.162706598639,-0.318115472794,0.608338236809
1555362808697118101,33789,1555362808697118101,world,-2.89791107178,-0.81514787674,0.796979427338,-0.708521187305,0.162582322955,-0.318376779556,0.608441472054
1555362808717701750,33790,1555362808717701750,world,-2.89792442322,-0.815039157867,0.797089338303,-0.708562016487,0.162139192224,-0.31778588891,0.608820796013
1555362808726944825,33791,1555362808726944825,world,-2.89793968201,-0.815092563629,0.797020435333,-0.708490729332,0.162304267287,-0.31837567687,0.608551740646
1555362808737393554,33792,1555362808737393554,world,-2.89794063568,-0.815082788467,0.796956300735,-0.708514630795,0.162173032761,-0.318313509226,0.608591377735
1555362808747611650,33793,1555362808747611650,world,-2.89793968201,-0.815108299255,0.796924114227,-0.708488047123,0.162310808897,-0.318613111973,0.608428835869
1555362808747629977,33794,1555362808747629977,world,-2.89795303345,-0.81510591507,0.796970367432,-0.708402037621,0.162313625216,-0.318601101637,0.608534514904
1555362808787495919,33795,1555362808787495919,world,-2.89793586731,-0.81506228447,0.797044038773,-0.708422780037,0.162158235908,-0.318143814802,0.608790814877
1555362808787517171,33796,1555362808787517171,world,-2.89794158936,-0.815133571625,0.797025442123,-0.708331406116,0.162350088358,-0.318616330624,0.608599066734
1555362808787550734,33797,1555362808787550734,world,-2.89794254303,-0.81508398056,0.79704117775,-0.708384871483,0.16227029264,-0.318438380957,0.608651101589
1555362808787561920,33798,1555362808787561920,world,-2.89792633057,-0.815144538879,0.796928405762,-0.708373904228,0.162602946162,-0.318832725286,0.608368575573
1555362808806994655,33799,1555362808806994655,world,-2.89793109894,-0.815121889114,0.796941518784,-0.708403229713,0.162285730243,-0.318652123213,0.608513772488
1555362808807028522,33800,1555362808807028522,world,-2.89796733856,-0.815079212189,0.796997308731,-0.708361923695,0.162046089768,-0.318367868662,0.608774542809
1555362808807074133,33801,1555362808807074133,world,-2.89797496796,-0.815099477768,0.797053575516,-0.708340167999,0.162082314491,-0.318407654762,0.608769416809
1555362808807089626,33802,1555362808807089626,world,-2.89795684814,-0.815102577209,0.797070503235,-0.708331346512,0.162297606468,-0.318452596664,0.60869884491
1555362808817337434,33803,1555362808817337434,world,-2.89795017242,-0.815173864365,0.796919107437,-0.708391070366,0.162539169192,-0.318960517645,0.608298718929
1555362808827684660,33804,1555362808827684660,world,-2.89791202545,-0.815129518509,0.796924829483,-0.70843142271,0.162607476115,-0.318777889013,0.608329236507
1555362808837152915,33805,1555362808837152915,world,-2.89796257019,-0.815124511719,0.797021150589,-0.708401203156,0.162322878838,-0.318617224693,0.608524560928
1555362808837188582,33806,1555362808837188582,world,-2.89798164368,-0.815080404282,0.797101974487,-0.708364725113,0.161981880665,-0.318390965462,0.608776330948
1555362808847548169,33807,1555362808847548169,world,-2.89798069,-0.815066099167,0.797063589096,-0.708360493183,0.16196206212,-0.318348348141,0.608808636665
1555362808856927186,33808,1555362808856927186,world,-2.89795303345,-0.815099954605,0.796940803528,-0.708368480206,0.162203833461,-0.318627923727,0.60858887434
1555362808867401801,33809,1555362808867401801,world,-2.89793014526,-0.815083742142,0.796889305115,-0.708366632462,0.162383973598,-0.318530082703,0.608594179153
1555362808876727521,33810,1555362808876727521,world,-2.89796161652,-0.815125226974,0.7969789505,-0.70836687088,0.162311077118,-0.318730831146,0.608508110046
1555362808876772718,33811,1555362808876772718,world,-2.89796543121,-0.815056085587,0.797104120255,-0.708397865295,0.162174165249,-0.31830239296,0.608732700348
1555362808887113594,33812,1555362808887113594,world,-2.89796066284,-0.815081119537,0.797063112259,-0.708396613598,0.162109598517,-0.318311303854,0.608746886253
1555362808907744994,33813,1555362808907744994,world,-2.89795780182,-0.815076589584,0.79697394371,-0.708363473415,0.162200912833,-0.31844624877,0.608690440655
1555362808907788755,33814,1555362808907788755,world,-2.89796543121,-0.815075159073,0.796924829483,-0.708402991295,0.162198647857,-0.318290561438,0.60872644186
1555362808927439806,33815,1555362808927439806,world,-2.89795207977,-0.815113782883,0.79697561264,-0.708395540714,0.162312939763,-0.31852260232,0.608583331108
1555362808927533946,33816,1555362808927533946,world,-2.89795970917,-0.815106153488,0.797069311142,-0.708331286907,0.162263974547,-0.318557351828,0.608653008938
1555362808927555123,33817,1555362808927555123,world,-2.89796066284,-0.81507062912,0.797096967697,-0.708350896835,0.162103295326,-0.31847846508,0.608714342117
1555362808947213593,33818,1555362808947213593,world,-2.8979511261,-0.815090894699,0.797010660172,-0.708368062973,0.162262737751,-0.318513393402,0.608633518219
1555362808957673648,33819,1555362808957673648,world,-2.89796352386,-0.815079450607,0.796893596649,-0.708390653133,0.162312850356,-0.31858548522,0.608556210995
1555362808967042871,33820,1555362808967042871,world,-2.89794158936,-0.815107107162,0.796898841858,-0.708403706551,0.162511333823,-0.318766325712,0.608393132687
1555362808967086247,33821,1555362808967086247,world,-2.89796638489,-0.815090417862,0.796980381012,-0.708384335041,0.162150636315,-0.318504840136,0.608648896217
1555362808977429260,33822,1555362808977429260,world,-2.89980983734,-0.815834283829,0.797663450241,-0.700103640556,0.156121224165,-0.332104504108,0.612525761127
1555362808986767461,33823,1555362808986767461,world,-2.89846134186,-0.815276384354,0.797241926193,-0.706100583076,0.160413056612,-0.32226318121,0.609783768654
1555362808997172983,33824,1555362808997172983,world,-2.89793968201,-0.815096616745,0.796951293945,-0.708488047123,0.162380978465,-0.318369626999,0.608537495136
1555362809007542127,33825,1555362809007542127,world,-2.89773845673,-0.815007925034,0.796849489212,-0.709309101105,0.16305680573,-0.317054659128,0.608086764812
1555362809007577300,33826,1555362809007577300,world,-2.89770126343,-0.815050840378,0.796849727631,-0.70930981636,0.163386970758,-0.317337691784,0.607849657536
1555362809016814445,33827,1555362809016814445,world,-2.89775753021,-0.814999580383,0.796973705292,-0.70924705267,0.162854775786,-0.317207425833,0.608133554459
1555362809027131904,33828,1555362809027131904,world,-2.89779758453,-0.815036296844,0.797035217285,-0.709024965763,0.162753731012,-0.317564994097,0.608233034611
1555362809027159671,33829,1555362809027159671,world,-2.89785289764,-0.815038442612,0.79700922966,-0.708818972111,0.162615820765,-0.317869693041,0.608350753784
1555362809037470137,33830,1555362809037470137,world,-2.89787387848,-0.815046787262,0.796903133392,-0.708705425262,0.162381529808,-0.317915230989,0.608521878719
1555362809057039882,33831,1555362809057039882,world,-2.89790153503,-0.8150806427,0.796887159348,-0.708566129208,0.162508994341,-0.318039387465,0.608585178852
1555362809057085069,33832,1555362809057085069,world,-2.89792060852,-0.815031051636,0.796992778778,-0.708527803421,0.162154465914,-0.317937940359,0.608777284622
1555362809067377462,33833,1555362809067377462,world,-2.89794158936,-0.815112352371,0.797083616257,-0.708351969719,0.162167117,-0.318506807089,0.608681201935
1555362809076643970,33834,1555362809076643970,world,-2.89795970917,-0.815079450607,0.797100782394,-0.708409667015,0.162202700973,-0.318259090185,0.608734130859
1555362809087135748,33835,1555362809087135748,world,-2.89793300629,-0.815138578415,0.796977758408,-0.70842397213,0.162533208728,-0.31875500083,0.608369767666
1555362809087168748,33836,1555362809087168748,world,-2.89792919159,-0.815097570419,0.796882152557,-0.708410084248,0.162331014872,-0.318470060825,0.608589053154
1555362809106788554,33837,1555362809106788554,world,-2.8979473114,-0.815138816833,0.796906471252,-0.708419084549,0.162461876869,-0.318790316582,0.608376026154
1555362809117194570,33838,1555362809117194570,world,-2.89795589447,-0.815055847168,0.797043561935,-0.708408772945,0.162033244967,-0.318271845579,0.608773648739
1555362809117268881,33839,1555362809117268881,world,-2.89977931976,-0.815849542618,0.797607660294,-0.700336933136,0.156908690929,-0.333967447281,0.611042976379
1555362809127598693,33840,1555362809127598693,world,-2.89847755432,-0.815237998962,0.797216892242,-0.706233561039,0.160455435514,-0.322413891554,0.609538793564
1555362809127638349,33841,1555362809127638349,world,-2.89793395996,-0.815077066422,0.796965360641,-0.708594143391,0.162267193198,-0.318137407303,0.608565866947
1555362809137031074,33842,1555362809137031074,world,-2.89772415161,-0.815044403076,0.796873092651,-0.709282696247,0.162919551134,-0.317213833332,0.608071327209
1555362809147484331,33843,1555362809147484331,world,-2.89772987366,-0.81498670578,0.79690527916,-0.709482610226,0.163004800677,-0.31656062603,0.608155667782
1555362809156756229,33844,1555362809156756229,world,-2.89777088165,-0.8150370121,0.796967506409,-0.709242999554,0.162756934762,-0.316978126764,0.608283936977
1555362809167128470,33845,1555362809167128470,world,-2.89779663086,-0.815015077591,0.797024726868,-0.70903557539,0.162599653006,-0.317127376795,0.608490049839
1555362809177450040,33846,1555362809177450040,world,-2.89783763885,-0.815103292465,0.796979427338,-0.708836972713,0.162816792727,-0.318009734154,0.60820287466
1555362809197126261,33847,1555362809197126261,world,-2.89786815643,-0.815073490143,0.796942949295,-0.7087200284,0.162562683225,-0.318046987057,0.608387768269
1555362809197154808,33848,1555362809197154808,world,-2.89788913727,-0.81508898735,0.796921014786,-0.70860183239,0.162415996194,-0.318249166012,0.608458697796
1555362809207479998,33849,1555362809207479998,world,-2.89791679382,-0.815086126328,0.796989440918,-0.708549380302,0.162338033319,-0.318287163973,0.608520627022
1555362809207518814,33850,1555362809207518814,world,-2.89795017242,-0.815084695816,0.797031164169,-0.708456516266,0.16232213378,-0.318332374096,0.608609378338
1555362809216806714,33851,1555362809216806714,world,-2.89796257019,-0.815073013306,0.7970662117,-0.708448410034,0.162106126547,-0.318100988865,0.608797252178
1555362809227119173,33852,1555362809227119173,world,-2.89796543121,-0.815091848373,0.797024250031,-0.708380877972,0.162202596664,-0.318382740021,0.60870295763
1555362809227149526,33853,1555362809227149526,world,-2.89794540405,-0.815047740936,0.796988010406,-0.708416998386,0.162242263556,-0.3182310462,0.608729720116
1555362809247838004,33854,1555362809247838004,world,-2.89793205261,-0.815068244934,0.796921730042,-0.708408892155,0.162361055613,-0.31851285696,0.608559966087
1555362809247907335,33855,1555362809247907335,world,-2.89797878265,-0.815079689026,0.796974420547,-0.708352386951,0.162131562829,-0.318394690752,0.608748793602
1555362809257224852,33856,1555362809257224852,world,-2.89794158936,-0.815068483353,0.797038078308,-0.708409667015,0.161970481277,-0.318434327841,0.608704268932
1555362809276677715,33857,1555362809276677715,world,-2.89977455139,-0.815854549408,0.797624588013,-0.700269818306,0.156603604555,-0.3334030509,0.611506223679
1555362809276728759,33858,1555362809276728759,world,-2.89845561981,-0.815245389938,0.797228336334,-0.706194221973,0.160472482443,-0.322437494993,0.609567463398
1555362809286965223,33859,1555362809286965223,world,-2.89789962769,-0.815075874329,0.796943426132,-0.708440601826,0.162514671683,-0.318510532379,0.608483374119
1555362809297439201,33860,1555362809297439201,world,-2.89772129059,-0.815035820007,0.79683303833,-0.709246277809,0.163186356425,-0.317294478416,0.608000159264
1555362809297498835,33861,1555362809297498835,world,-2.89770507812,-0.814980745316,0.79687666893,-0.709419488907,0.162874400616,-0.316663295031,0.608210802078
1555362809306779930,33862,1555362809306779930,world,-2.89960861206,-0.81573843956,0.797576189041,-0.701170623302,0.15687866509,-0.330909758806,0.611757814884
1555362809317163331,33863,1555362809317163331,world,-2.89831352234,-0.815192461014,0.797221183777,-0.706794023514,0.160951152444,-0.320898085833,0.609558463097
1555362809327535780,33864,1555362809327535780,world,-2.89780521393,-0.815069198608,0.796928882599,-0.708953678608,0.16282299161,-0.317521601915,0.608320057392
1555362809327580875,33865,1555362809327580875,world,-2.89762878418,-0.8149766922,0.796805143356,-0.709596037865,0.163389742374,-0.316256612539,0.608078241348
1555362809336895114,33866,1555362809336895114,world,-2.89766311646,-0.815063476562,0.796804666519,-0.709599077702,0.163517042994,-0.316752105951,0.607782483101
1555362809347252446,33867,1555362809347252446,world,-2.8977022171,-0.814982175827,0.796962499619,-0.709274530411,0.162530049682,-0.316699951887,0.608452856541
1555362809357532032,33868,1555362809357532032,world,-2.89778995514,-0.815040111542,0.797023773193,-0.709040462971,0.162771105766,-0.317299693823,0.608348608017
1555362809366921435,33869,1555362809366921435,world,-2.8978509903,-0.815028429031,0.796983242035,-0.708938121796,0.162557721138,-0.317480623722,0.608430683613
1555362809377212616,33870,1555362809377212616,world,-2.89789962769,-0.815024375916,0.796961307526,-0.708722114563,0.162454992533,-0.317852944136,0.608515322208
1555362809387581907,33871,1555362809387581907,world,-2.8979511261,-0.815047502518,0.79692196846,-0.708579838276,0.162390723825,-0.318161308765,0.60853689909
1555362809387633456,33872,1555362809387633456,world,-2.89794921875,-0.815063476562,0.796971082687,-0.708570718765,0.162382572889,-0.318269342184,0.608493328094
1555362809396955459,33873,1555362809396955459,world,-2.89795303345,-0.81508398056,0.797023773193,-0.708573043346,0.1623442173,-0.31838658452,0.6084395051
1555362809417688089,33874,1555362809417688089,world,-2.89796352386,-0.815055847168,0.797058820724,-0.708499908447,0.162249416113,-0.318235576153,0.608628928661
1555362809417754996,33875,1555362809417754996,world,-2.89795398712,-0.815089225769,0.797014713287,-0.708381712437,0.162228494883,-0.318526089191,0.608620047569
1555362809427116857,33876,1555362809427116857,world,-2.8979434967,-0.815095424652,0.796914577484,-0.7083812356,0.162345379591,-0.318571865559,0.608565449715
1555362809437371308,33877,1555362809437371308,world,-2.89794445038,-0.815120697021,0.79695057869,-0.708343982697,0.1625674963,-0.318771958351,0.608444690704
1555362809437418209,33878,1555362809437418209,world,-2.89795303345,-0.815077543259,0.797052145004,-0.70836597681,0.16210141778,-0.318351209164,0.608763813972
1555362809446714283,33879,1555362809446714283,world,-2.8979549408,-0.815114974976,0.797068834305,-0.708366513252,0.162316903472,-0.318693727255,0.608526408672
1555362809457038928,33880,1555362809457038928,world,-2.89793491364,-0.815025806427,0.796996593475,-0.708420157433,0.162227377295,-0.31825158,0.608719289303
1555362809467485960,33881,1555362809467485960,world,-2.89974403381,-0.815816402435,0.797466516495,-0.700253844261,0.156971916556,-0.334162533283,0.611015319824
1555362809476664550,33882,1555362809476664550,world,-2.89845752716,-0.815263271332,0.797124624252,-0.706173717976,0.160670906305,-0.322725623846,0.609386444092
1555362809497472480,33883,1555362809497472480,world,-2.89974117279,-0.815797805786,0.79762339592,-0.700374603271,0.156601071358,-0.332474559546,0.611892282963
1555362809497533113,33884,1555362809497533113,world,-2.89890289307,-0.815348863602,0.797434806824,-0.705497324467,0.156093433499,-0.322618067265,0.611413121223
1555362809497555787,33885,1555362809497555787,world,-2.89785957336,-0.815024852753,0.796991825104,-0.709081411362,0.161641538143,-0.31690248847,0.608809053898
1555362809506840221,33886,1555362809506840221,world,-2.8975276947,-0.814931154251,0.796742200851,-0.710104525089,0.163728564978,-0.31541749835,0.607829272747
1555362809517206371,33887,1555362809517206371,world,-2.89750003815,-0.814945459366,0.796753406525,-0.710148394108,0.164082691073,-0.315360695124,0.607711911201
1555362809527595282,33888,1555362809527595282,world,-2.89755058289,-0.814967393875,0.796943664551,-0.70970749855,0.163675755262,-0.316094994545,0.607955336571
1555362809527634964,33889,1555362809527634964,world,-2.8976726532,-0.814984560013,0.79706120491,-0.709483504295,0.16333155334,-0.316490799189,0.608103275299
1555362809557671708,33890,1555362809557671708,world,-2.89774513245,-0.815019607544,0.797003030777,-0.709147810936,0.163129597902,-0.317093282938,0.608235061169
1555362809557755691,33891,1555362809557755691,world,-2.89772510529,-0.814982414246,0.796803236008,-0.708955526352,0.163108333945,-0.317968547344,0.608007967472
1555362809557795815,33892,1555362809557795815,world,-2.89734745026,-0.814076662064,0.796809673309,-0.708842039108,0.161150842905,-0.317161053419,0.609083235264
1555362809567192679,33893,1555362809567192679,world,-2.89699268341,-0.812593698502,0.797246217728,-0.707251310349,0.153457835317,-0.317647278309,0.612655282021
1555362809577521205,33894,1555362809577521205,world,-2.89559459686,-0.810962677002,0.797331809998,-0.70787614584,0.154024004936,-0.318749576807,0.611217319965
1555362809577586285,33895,1555362809577586285,world,-2.89409160614,-0.809808254242,0.797233104706,-0.705716788769,0.158671110868,-0.323488950729,0.610034584999
1555362809597333770,33896,1555362809597333770,world,-2.89292907715,-0.809330701828,0.797071218491,-0.702780783176,0.168378770351,-0.330992907286,0.606787860394
1555362809597403134,33897,1555362809597403134,world,-2.89223957062,-0.809077501297,0.797003269196,-0.70191270113,0.172315135598,-0.334153801203,0.604952394962
1555362809616982939,33898,1555362809616982939,world,-2.89213180542,-0.808761358261,0.797090053558,-0.703245580196,0.170197784901,-0.331640779972,0.605386376381
1555362809617047670,33899,1555362809617047670,world,-2.8923664093,-0.808652639389,0.797278404236,-0.704273462296,0.167630076408,-0.328063517809,0.606855332851
1555362809627566518,33900,1555362809627566518,world,-2.89269733429,-0.809003829956,0.797312021255,-0.703971207142,0.168228596449,-0.328507035971,0.606800496578
1555362809636923750,33901,1555362809636923750,world,-2.89302921295,-0.809514284134,0.797193527222,-0.703640818596,0.169560372829,-0.329354852438,0.606353282928
1555362809647221267,33902,1555362809647221267,world,-2.89338302612,-0.809857606888,0.797036647797,-0.704346001148,0.16826044023,-0.327882558107,0.60669451952
1555362809647261754,33903,1555362809647261754,world,-2.89372348785,-0.810218095779,0.797019004822,-0.7053206563,0.166484162211,-0.326146513224,0.606987893581
1555362809666825532,33904,1555362809666825532,world,-2.89398193359,-0.810341596603,0.797161579132,-0.705430567265,0.165224149823,-0.325116306543,0.60775667429
1555362809666902275,33905,1555362809666902275,world,-2.89410018921,-0.810552597046,0.797247171402,-0.705059409142,0.166335001588,-0.325892627239,0.607468485832
1555362809677248538,33906,1555362809677248538,world,-2.89416980743,-0.81069111824,0.797207355499,-0.704880177975,0.166615143418,-0.326232612133,0.607417166233
1555362809677288916,33907,1555362809677288916,world,-2.89424800873,-0.810738563538,0.797082424164,-0.705252587795,0.165946006775,-0.325574666262,0.607521176338
1555362809697002893,33908,1555362809697002893,world,-2.89432811737,-0.8107380867,0.797028064728,-0.70559579134,0.165152356029,-0.324913471937,0.607692778111
1555362809697044546,33909,1555362809697044546,world,-2.89433670044,-0.810755252838,0.797058582306,-0.705430030823,0.165152564645,-0.324977457523,0.607850968838
1555362809707366698,33910,1555362809707366698,world,-2.894323349,-0.810836076736,0.797167301178,-0.705090820789,0.166069045663,-0.325798898935,0.607555031776
1555362809717722611,33911,1555362809717722611,world,-2.8943901062,-0.810786485672,0.797264099121,-0.705155134201,0.165367662907,-0.325208902359,0.607987642288
1555362809727027126,33912,1555362809727027126,world,-2.89435577393,-0.810864686966,0.797139644623,-0.705469489098,0.165687009692,-0.325663894415,0.607292115688
1555362809737364746,33913,1555362809737364746,world,-2.89433288574,-0.810822248459,0.797032833099,-0.705550611019,0.16539876163,-0.325473994017,0.607378184795
1555362809737406846,33914,1555362809737406846,world,-2.8943195343,-0.810863256454,0.797006607056,-0.705411493778,0.165978506207,-0.325814396143,0.607199072838
1555362809757099039,33915,1555362809757099039,world,-2.89434432983,-0.810826539993,0.797142028809,-0.705186724663,0.165784403682,-0.325436800718,0.607715547085
1555362809757139592,33916,1555362809757139592,world,-2.89439868927,-0.810839414597,0.797271728516,-0.705276250839,0.165446162224,-0.324888348579,0.607997179031
1555362809767536910,33917,1555362809767536910,world,-2.8943939209,-0.810806512833,0.797229290009,-0.705394566059,0.16500480473,-0.324929863214,0.607957720757
1555362809776876863,33918,1555362809776876863,world,-2.89432430267,-0.810831546783,0.797057390213,-0.705381214619,0.165817990899,-0.325349479914,0.607527375221
1555362809787270299,33919,1555362809787270299,world,-2.89434528351,-0.810789346695,0.797002077103,-0.705324947834,0.165635421872,-0.325473695993,0.607576012611
1555362809787312028,33920,1555362809787312028,world,-2.89433002472,-0.810819387436,0.797086000443,-0.705281496048,0.165695309639,-0.325507998466,0.607591629028
1555362809797693605,33921,1555362809797693605,world,-2.8943939209,-0.810800790787,0.797244310379,-0.705221116543,0.165162011981,-0.324816077948,0.608177125454
1555362809807099704,33922,1555362809807099704,world,-2.89442157745,-0.81082201004,0.797262907028,-0.705291748047,0.16525810957,-0.324905395508,0.608021318913
1555362809826786360,33923,1555362809826786360,world,-2.8943901062,-0.810819864273,0.797147512436,-0.705296754837,0.165392935276,-0.325048089027,0.607902526855
1555362809826844039,33924,1555362809826844039,world,-2.89436721802,-0.810861587524,0.797034978867,-0.705233573914,0.165737509727,-0.32555937767,0.607608318329
1555362809837218641,33925,1555362809837218641,world,-2.89438152313,-0.810859203339,0.797070980072,-0.705220162868,0.165634319186,-0.325504869223,0.607681214809
1555362809847659229,33926,1555362809847659229,world,-2.8943901062,-0.810824632645,0.797146081924,-0.705338716507,0.165208816528,-0.325059533119,0.607897758484
1555362809847725335,33927,1555362809847725335,world,-2.89442920685,-0.810845851898,0.797233819962,-0.705270349979,0.165141537786,-0.32485550642,0.608104348183
1555362809857082304,33928,1555362809857082304,world,-2.89441776276,-0.810814857483,0.797211408615,-0.705230712891,0.165110647678,-0.325019836426,0.608070850372
1555362809867416875,33929,1555362809867416875,world,-2.89436149597,-0.810867071152,0.797074317932,-0.70538598299,0.165788605809,-0.325696378946,0.607344031334
1555362809886963237,33930,1555362809886963237,world,-2.89435863495,-0.810838460922,0.79704785347,-0.705424249172,0.165585920215,-0.325455754995,0.607483804226
1555362809917069381,33931,1555362809917069381,world,-2.89437294006,-0.810839176178,0.797111988068,-0.705350458622,0.165530994534,-0.325305372477,0.607664942741
1555362809917111146,33932,1555362809917111146,world,-2.89439582825,-0.810796737671,0.797191619873,-0.705287694931,0.165198326111,-0.325085163116,0.607946157455
1555362809917164899,33933,1555362809917164899,world,-2.8943939209,-0.810838699341,0.797213554382,-0.70526188612,0.16546665132,-0.325279206038,0.607799232006
1555362809917192069,33934,1555362809917192069,world,-2.89436721802,-0.810820579529,0.797177553177,-0.705283164978,0.165477335453,-0.325285315514,0.607768297195
1555362809936950617,33935,1555362809936950617,world,-2.89434623718,-0.810840129852,0.797030925751,-0.705389022827,0.165858209133,-0.325329780579,0.607517957687
1555362809947306822,33936,1555362809947306822,world,-2.89435863495,-0.810795307159,0.797085523605,-0.705368101597,0.165406003594,-0.325103908777,0.607786297798
1555362809947377322,33937,1555362809947377322,world,-2.89438343048,-0.810826301575,0.79717206955,-0.705225050449,0.165397718549,-0.325122267008,0.607944607735
1555362809947400241,33938,1555362809947400241,world,-2.89441108704,-0.810829401016,0.797286748886,-0.705234110355,0.165085688233,-0.324895322323,0.608140349388
1555362809977293960,33939,1555362809977293960,world,-2.89438438416,-0.810838699341,0.797183036804,-0.70524084568,0.165429279208,-0.32505401969,0.607954204082
1555362809977322363,33940,1555362809977322363,world,-2.89434242249,-0.810861349106,0.797036647797,-0.705346226692,0.166002377868,-0.325504273176,0.607434689999
1555362809977363797,33941,1555362809977363797,world,-2.89435386658,-0.810798406601,0.797024965286,-0.705338895321,0.165526911616,-0.325257748365,0.607705056667
1555362809977380127,33942,1555362809977380127,world,-2.89433574677,-0.810920000076,0.797092437744,-0.705403089523,0.165929555893,-0.325889229774,0.607182025909
1555362809987872815,33943,1555362809987872815,world,-2.89444637299,-0.810755491257,0.79726600647,-0.705265820026,0.164847448468,-0.324599057436,0.60832631588
1555362809997250807,33944,1555362809997250807,world,-2.89444541931,-0.810776472092,0.797203302383,-0.705355525017,0.165147051215,-0.324718564749,0.608077228069
1555362809997295062,33945,1555362809997295062,world,-2.89436817169,-0.810824632645,0.797029733658,-0.705467700958,0.165559411049,-0.325372934341,0.607484817505
1555362810017001264,33946,1555362810017001264,world,-2.89434432983,-0.810810804367,0.796999454498,-0.705389678478,0.165717884898,-0.325307458639,0.607567489147
1555362810017072410,33947,1555362810017072410,world,-2.89435195923,-0.81086564064,0.797122001648,-0.705319702625,0.165778830647,-0.325506716967,0.607525229454
1555362810027451628,33948,1555362810027451628,world,-2.89436531067,-0.810849905014,0.797201395035,-0.70535826683,0.165382504463,-0.325221538544,0.607741117477
1555362810036768796,33949,1555362810036768796,world,-2.89437961578,-0.810803890228,0.797235965729,-0.705309391022,0.165118038654,-0.325087547302,0.607941389084
1555362810036822657,33950,1555362810036822657,world,-2.89434623718,-0.810860157013,0.797108411789,-0.705355644226,0.165780544281,-0.325447320938,0.607514858246
1555362810047198400,33951,1555362810047198400,world,-2.89434242249,-0.810865879059,0.79703950882,-0.705429017544,0.16580234468,-0.325569242239,0.607358396053
1555362810057720353,33952,1555362810057720353,world,-2.89433193207,-0.810869455338,0.797041654587,-0.705336153507,0.165980353951,-0.325630813837,0.607384562492
1555362810067061602,33953,1555362810067061602,world,-2.89440059662,-0.810806751251,0.797160863876,-0.705348908901,0.165302738547,-0.325070112944,0.607854783535
1555362810086960281,33954,1555362810086960281,world,-2.89444828033,-0.810807466507,0.797247409821,-0.705294489861,0.165183529258,-0.324711531401,0.608141839504
1555362810097299212,33955,1555362810097299212,world,-2.89439678192,-0.810829639435,0.797175645828,-0.705265581608,0.165246620774,-0.324944913387,0.608033537865
1555362810097376201,33956,1555362810097376201,world,-2.89436817169,-0.810838222504,0.797068357468,-0.705351352692,0.165610611439,-0.325409293175,0.607586622238
