%time,field.header.seq,field.header.stamp,field.header.frame_id,field.pose.position.x,field.pose.position.y,field.pose.position.z,field.pose.orientation.x,field.pose.orientation.y,field.pose.orientation.z,field.pose.orientation.w
1554932509320495005,84851,1554932509320495005,world,-0.846905708313,-0.842291593552,0.946596384048,0.0590484328568,-0.0192032326013,-0.966145992279,-0.250412911177
1554932509320539533,84852,1554932509320539533,world,-0.847604513168,-0.842470169067,0.946668148041,0.0586180090904,-0.018600333482,-0.966685533524,-0.248469412327
1554932509350441689,84853,1554932509350441689,world,-0.846840620041,-0.842299938202,0.946592330933,0.0591235235333,-0.0184977203608,-0.966366231441,-0.249596744776
1554932509370266767,84854,1554932509370266767,world,-0.846423387527,-0.842232227325,0.946572065353,0.0591175146401,-0.0183885097504,-0.966178417206,-0.250332385302
1554932509380690242,84855,1554932509380690242,world,-0.846324920654,-0.842215299606,0.946591615677,0.0593506768346,-0.0183195993304,-0.966011166573,-0.250927209854
1554932509420943153,84856,1554932509420943153,world,-0.846157312393,-0.842194795609,0.946525812149,0.0593807846308,-0.0190797057003,-0.965765476227,-0.251807510853
1554932509470677071,84857,1554932509470677071,world,-0.845483541489,-0.842589378357,0.945833444595,0.0566692203283,-0.0241147354245,-0.965028524399,-0.254807770252
1554932509480033904,84858,1554932509480033904,world,-0.844682693481,-0.842550754547,0.945212841034,0.0541106984019,-0.0287438817322,-0.963993728161,-0.258770316839
1554932509490312480,84859,1554932509490312480,world,-0.844238042831,-0.842417478561,0.944814443588,0.0479400344193,-0.0314323194325,-0.963450491428,-0.261680930853
1554932509520372809,84860,1554932509520372809,world,-0.844493865967,-0.84259390831,0.94465970993,0.0433684661984,-0.0307040512562,-0.963447451591,-0.262574613094
1554932509520449494,84862,1554932509520449494,world,-0.844680070877,-0.84244799614,0.944797039032,0.0452254489064,-0.0291452035308,-0.963987290859,-0.260449051857
1554932509530690029,84863,1554932509530690029,world,-0.844752311707,-0.842489480972,0.944578647614,0.0488175116479,-0.0312780737877,-0.964018702507,-0.259435266256
1554932509530718412,84864,1554932509530718412,world,-0.844808101654,-0.842500209808,0.944525957108,0.0508462153375,-0.0321281664073,-0.964066386223,-0.258763581514
1554932509550491590,84865,1554932509550491590,world,-0.844861268997,-0.84249663353,0.944568157196,0.0519458428025,-0.0320654548705,-0.96412551403,-0.258332043886
1554932509570254001,84866,1554932509570254001,world,-0.844908714294,-0.84240603447,0.944959640503,0.050046864897,-0.0287527944893,-0.964364945889,-0.258203357458
1554932509570292841,84867,1554932509570292841,world,-0.84493970871,-0.842447042465,0.944849967957,0.0517755970359,-0.0299619231373,-0.964300394058,-0.257965803146
1554932509570347837,84868,1554932509570347837,world,-0.844974279404,-0.842372894287,0.945147514343,0.0500729717314,-0.0274787265807,-0.964463531971,-0.257968783379
1554932509580784350,84869,1554932509580784350,world,-0.844995737076,-0.842323541641,0.945303201675,0.049347858876,-0.026320617646,-0.96454513073,-0.257924109697
1554932509590214003,84870,1554932509590214003,world,-0.845019102097,-0.842304468155,0.945384263992,0.0491217896342,-0.0257573220879,-0.964591622353,-0.257850080729
1554932509590258282,84871,1554932509590258282,world,-0.845042943954,-0.842299461365,0.945406198502,0.0491825900972,-0.0256027430296,-0.964601576328,-0.257816642523
1554932509600579924,84872,1554932509600579924,world,-0.845048427582,-0.842305421829,0.94540643692,0.0494515039027,-0.0256078951061,-0.964578568935,-0.257850915194
1554932509611034069,84873,1554932509611034069,world,-0.845049381256,-0.842302799225,0.945399284363,0.0496219396591,-0.0257340632379,-0.964578390121,-0.257806122303
1554932509670208774,84874,1554932509670208774,world,-0.845083236694,-0.842197656631,0.945217132568,0.049069724977,-0.0242039375007,-0.964566528797,-0.258104383945
1554932509680715939,84875,1554932509680715939,world,-0.845099449158,-0.842133760452,0.945132017136,0.0485241487622,-0.0231327880174,-0.964544653893,-0.258386999369
1554932509780279236,84876,1554932509780279236,world,-0.844998598099,-0.842324018478,0.945770740509,0.0556828044355,-0.0239571835846,-0.964289486408,-0.257820278406
1554932509780323639,84877,1554932509780323639,world,-0.844929933548,-0.842291593552,0.946049451828,0.0584887750447,-0.0235600322485,-0.964177429676,-0.257654368877
1554932509799994994,84878,1554932509799994994,world,-0.844972848892,-0.84193444252,0.945979595184,0.058799687773,-0.0244739484042,-0.964437305927,-0.256523400545
1554932509800067821,84880,1554932509800067821,world,-0.844902992249,-0.842311620712,0.945662736893,0.0571148395538,-0.0264123361558,-0.964235424995,-0.257469236851
1554932509810341626,84881,1554932509810341626,world,-0.844918727875,-0.84238243103,0.945597171783,0.0563589185476,-0.0265871062875,-0.96423470974,-0.257620483637
1554932509820801128,84882,1554932509820801128,world,-0.844927072525,-0.842408418655,0.945560455322,0.0557999573648,-0.0265295803547,-0.964240431786,-0.257726460695
1554932509830185142,84883,1554932509830185142,world,-0.844930887222,-0.842411756516,0.94553565979,0.0553502961993,-0.0264266915619,-0.964261472225,-0.257755488157
1554932509940159665,84884,1554932509940159665,world,-0.845069885254,-0.842428445816,0.944998025894,0.0524347424507,-0.0291709285229,-0.964394211769,-0.257572203875
1554932509950605699,84885,1554932509950605699,world,-0.845129489899,-0.842496395111,0.944704771042,0.0513676516712,-0.0311930514872,-0.964445531368,-0.257358282804
1554932509970328841,84886,1554932509970328841,world,-0.845122337341,-0.842502593994,0.944743871689,0.0515526980162,-0.030921312049,-0.964440822601,-0.257371485233
1554932509980900845,84887,1554932509980900845,world,-0.845103502274,-0.842464923859,0.944847345352,0.0519321486354,-0.0301595106721,-0.964419841766,-0.25746434927
1554932510000536345,84888,1554932510000536345,world,-0.84507226944,-0.842464208603,0.944932699203,0.0521512925625,-0.0295344144106,-0.964393794537,-0.257589638233
1554932510010992100,84889,1554932510010992100,world,-0.844979286194,-0.842327594757,0.945472717285,0.0540872626007,-0.0258652027696,-0.964354276657,-0.257733523846
1554932510039885242,84890,1554932510039885242,world,-0.845002412796,-0.842343091965,0.945213079453,0.0541920736432,-0.0286694988608,-0.964293599129,-0.257641345263
1554932510060768337,84891,1554932510060768337,world,-0.845081329346,-0.842418193817,0.944807529449,0.0534147396684,-0.0320500917733,-0.964258849621,-0.257535427809
1554932510080355502,84892,1554932510080355502,world,-0.845098257065,-0.842434167862,0.944764614105,0.0534323640168,-0.0322266817093,-0.964264392853,-0.257488965988
1554932510090826692,84893,1554932510090826692,world,-0.845006227493,-0.842308521271,0.94545006752,0.0558774471283,-0.0273714046925,-0.964218199253,-0.257705181837
1554932510120011301,84894,1554932510120011301,world,-0.845029592514,-0.842323541641,0.945238113403,0.0548156164587,-0.0286891404539,-0.964282214642,-0.257550388575
1554932510120067423,84895,1554932510120067423,world,-0.844962120056,-0.842254638672,0.945631027222,0.050071079284,-0.0272048283368,-0.96454012394,-0.257711619139
1554932510150162042,84896,1554932510150162042,world,-0.844938516617,-0.842224836349,0.945837974548,0.0533247366548,-0.0250014141202,-0.964446365833,-0.257633179426
1554932510160558081,84897,1554932510160558081,world,-0.845035076141,-0.842360019684,0.945111751556,0.055150449276,-0.029026478529,-0.964268445969,-0.257492423058
1554932510180307724,84898,1554932510180307724,world,-0.845100879669,-0.842446804047,0.944668292999,0.0540149286389,-0.0319980233908,-0.964268267155,-0.257381737232
1554932510190670915,84899,1554932510190670915,world,-0.845110654831,-0.842514753342,0.944742918015,0.0526925586164,-0.0307031478733,-0.964379608631,-0.257396399975
1554932510220652031,84900,1554932510220652031,world,-0.845066547394,-0.842483758926,0.944862604141,0.0530107617378,-0.0304910149425,-0.964386165142,-0.257331609726
1554932510220720205,84901,1554932510220720205,world,-0.845055580139,-0.842455863953,0.944990158081,0.0523950532079,-0.0303982365876,-0.964470684528,-0.257151514292
1554932510230214003,84902,1554932510230214003,world,-0.844960689545,-0.842290639877,0.945590496063,0.0557030588388,-0.0262505766004,-0.964323282242,-0.2574660182
1554932510240622561,84903,1554932510240622561,world,-0.845003604889,-0.842343091965,0.945185422897,0.0549175366759,-0.0291596278548,-0.964288055897,-0.257453739643
1554932510240672435,84904,1554932510240672435,world,-0.844944238663,-0.842238426208,0.945659160614,0.0567189529538,-0.025850886479,-0.964240550995,-0.257594466209
1554932510270804038,84905,1554932510270804038,world,-0.845019340515,-0.842246294022,0.945618391037,0.0518303439021,-0.0253399647772,-0.964530944824,-0.257588267326
1554932510270875053,84907,1554932510270875053,world,-0.845009326935,-0.842328310013,0.945197343826,0.0542506240308,-0.0287623442709,-0.964320898056,-0.257516801357
1554932510280273845,84908,1554932510280273845,world,-0.844958305359,-0.842261791229,0.945570707321,0.0562658272684,-0.0262365043163,-0.964259088039,-0.257585376501
1554932510290738245,84909,1554932510290738245,world,-0.845022916794,-0.842287063599,0.945499897003,0.0514499880373,-0.0260314363986,-0.964520871639,-0.25763297081
1554932510290780244,84910,1554932510290780244,world,-0.844963788986,-0.842245817184,0.94570183754,0.0547792613506,-0.0251464117318,-0.964374303818,-0.257583141327
1554932510310528488,84911,1554932510310528488,world,-0.845041513443,-0.842302322388,0.945706129074,0.0488232038915,-0.0262632425874,-0.964675307274,-0.257542639971
1554932510310569072,84912,1554932510310569072,world,-0.844985723495,-0.842262268066,0.945754766464,0.0537285842001,-0.0253956951201,-0.964427769184,-0.257580071688
1554932510320951997,84913,1554932510320951997,world,-0.845047950745,-0.842300653458,0.945510149002,0.0506112277508,-0.0261104404926,-0.964569926262,-0.257607549429
1554932510340674922,84914,1554932510340674922,world,-0.845087528229,-0.842327833176,0.945337533951,0.0487743280828,-0.0267225131392,-0.964634954929,-0.257655620575
1554932510351068392,84915,1554932510351068392,world,-0.84500169754,-0.842276573181,0.945558309555,0.0542283728719,-0.0258829854429,-0.964372634888,-0.257633149624
1554932510351110455,84916,1554932510351110455,world,-0.845041513443,-0.842311143875,0.94540977478,0.0513190999627,-0.0264233984053,-0.964520573616,-0.257620304823
1554932510360561348,84917,1554932510360561348,world,-0.844961643219,-0.842306613922,0.945589780807,0.0498184300959,-0.027056241408,-0.964587688446,-0.257597863674
1554932510370897459,84918,1554932510370897459,world,-0.845021009445,-0.842325210571,0.945423364639,0.0494697652757,-0.0270254630595,-0.964605152607,-0.257603168488
1554932510390739271,84919,1554932510390739271,world,-0.844964504242,-0.842272281647,0.945594787598,0.0551850609481,-0.0260677672923,-0.964326679707,-0.257583230734
1554932510390808819,84921,1554932510390808819,world,-0.844978570938,-0.842282295227,0.9455742836,0.055992692709,-0.0259333662689,-0.964285552502,-0.257576614618
1554932510420824598,84922,1554932510420824598,world,-0.845021486282,-0.842387914658,0.944976329803,0.0553614236414,-0.0302624870092,-0.964221596718,-0.257480233908
1554932510420893152,84924,1554932510420893152,world,-0.845027446747,-0.842318296432,0.945344924927,0.0524540655315,-0.0271793007851,-0.964452266693,-0.257568657398
1554932510430164749,84925,1554932510430164749,world,-0.844972610474,-0.842265844345,0.945577383041,0.0555688515306,-0.025967951864,-0.964296936989,-0.257622390985
1554932510440561429,84926,1554932510440561429,world,-0.845034599304,-0.842293739319,0.945429325104,0.0515081472695,-0.0264288820326,-0.964516103268,-0.257598698139
1554932510480906159,84927,1554932510480906159,world,-0.844976425171,-0.842267036438,0.945601940155,0.0552182085812,-0.0256986171007,-0.964329361916,-0.257603317499
1554932510480948719,84928,1554932510480948719,world,-0.845043420792,-0.842363595963,0.944989442825,0.0546878278255,-0.0303348377347,-0.964257717133,-0.257480442524
1554932510490349249,84929,1554932510490349249,world,-0.844989538193,-0.842284679413,0.945404052734,0.0566195957363,-0.027514308691,-0.964214980602,-0.257539838552
1554932510490435322,84930,1554932510490435322,world,-0.845038175583,-0.842308759689,0.945358753204,0.0517490394413,-0.0270023252815,-0.964492738247,-0.257578521967
1554932510490461237,84931,1554932510490461237,world,-0.844985723495,-0.842277526855,0.9455909729,0.0550516396761,-0.0258389040828,-0.964347481728,-0.257557421923
1554932510510256553,84932,1554932510510256553,world,-0.845058202744,-0.842414855957,0.945499658585,0.0499681867659,-0.0280379317701,-0.96458953619,-0.257456839085
1554932510510333643,84933,1554932510510333643,world,-0.84499502182,-0.842349767685,0.945651531219,0.0484166219831,-0.0276741050184,-0.96465909481,-0.257532387972
1554932510531026584,84934,1554932510531026584,world,-0.845041275024,-0.842421293259,0.945031166077,0.051517251879,-0.0309275258332,-0.964433550835,-0.257405489683
1554932510531100060,84935,1554932510531100060,world,-0.844977855682,-0.84232711792,0.945417404175,0.0555001161993,-0.027586940676,-0.964275896549,-0.257547706366
1554932510531144139,84937,1554932510531144139,world,-0.844974279404,-0.842280626297,0.945590496063,0.0555013716221,-0.025551090017,-0.96434700489,-0.257490843534
1554932510540525293,84938,1554932510540525293,world,-0.84502530098,-0.842398166656,0.945022821426,0.0549241416156,-0.0297777839005,-0.964283585548,-0.257397979498
1554932510550765061,84939,1554932510550765061,world,-0.845068693161,-0.842381715775,0.945093154907,0.05104059726,-0.0286913011223,-0.964507818222,-0.257480680943
1554932510560031713,84940,1554932510560031713,world,-0.844977855682,-0.842298746109,0.945516586304,0.0549613311887,-0.0261695403606,-0.964333474636,-0.257595181465
1554932510570506156,84941,1554932510570506156,world,-0.845028877258,-0.842294931412,0.945466041565,0.0512315630913,-0.0260124057531,-0.964534759521,-0.257626593113
1554932510600783102,84942,1554932510600783102,world,-0.845075368881,-0.84229683876,0.945413351059,0.0488345213234,-0.0261958036572,-0.964668095112,-0.257574439049
1554932510610246143,84943,1554932510610246143,world,-0.845072746277,-0.842306137085,0.945383310318,0.0488410592079,-0.0264268368483,-0.964653134346,-0.257605582476
1554932510640243205,84944,1554932510640243205,world,-0.845069646835,-0.842299938202,0.945377349854,0.0493362359703,-0.0266148056835,-0.964621722698,-0.257609575987
1554932510640309143,84946,1554932510640309143,world,-0.845027446747,-0.842310905457,0.945653915405,0.0504000633955,-0.0268208030611,-0.964556694031,-0.25762540102
1554932510650612065,84947,1554932510650612065,world,-0.84495806694,-0.842308044434,0.945719480515,0.0495346672833,-0.0272324476391,-0.964583516121,-0.257649749517
1554932510661002825,84948,1554932510661002825,world,-0.845027208328,-0.842344999313,0.945673704147,0.0476387664676,-0.0275533534586,-0.964682340622,-0.257603228092
1554932510670409355,84949,1554932510670409355,world,-0.844968557358,-0.842314004898,0.945702552795,0.0485717058182,-0.0274581070989,-0.964636683464,-0.257610350847
1554932510670440820,84950,1554932510670440820,world,-0.845012903214,-0.842409849167,0.945028305054,0.0528421476483,-0.0307590663433,-0.964344322681,-0.257491052151
1554932510680791294,84951,1554932510680791294,world,-0.844955921173,-0.84232211113,0.945391654968,0.057077229023,-0.0275366883725,-0.964190304279,-0.257528603077
1554932510700467816,84952,1554932510700467816,world,-0.845032691956,-0.842350006104,0.945513248444,0.0512930937111,-0.0274849757552,-0.964514374733,-0.257537871599
1554932510710814624,84953,1554932510710814624,world,-0.844968318939,-0.842291355133,0.945631504059,0.0559173226357,-0.0258707683533,-0.964294672012,-0.257565021515
1554932510720207592,84954,1554932510720207592,world,-0.845088481903,-0.842306137085,0.945535182953,0.0512648746371,-0.0264215916395,-0.964455366135,-0.2578753829
1554932510720234927,84955,1554932510720234927,world,-0.84500002861,-0.842276334763,0.94562458992,0.0556932687759,-0.0255742613226,-0.964289546013,-0.257662504911
1554932510730602605,84956,1554932510730602605,world,-0.845049381256,-0.842305421829,0.945412874222,0.0521855652332,-0.0261300653219,-0.964480519295,-0.257626384497
1554932510760719280,84957,1554932510760719280,world,-0.845081329346,-0.842319488525,0.945272684097,0.0497328788042,-0.0265576001257,-0.964587032795,-0.257668793201
1554932510770166281,84958,1554932510770166281,world,-0.84499001503,-0.842267036438,0.945497274399,0.0547439269722,-0.0258176028728,-0.964339137077,-0.257655769587
1554932510770235870,84959,1554932510770235870,world,-0.845029115677,-0.842290878296,0.945381641388,0.0517726428807,-0.0264069531113,-0.964499592781,-0.257609814405
1554932510770294678,84961,1554932510770294678,world,-0.845019102097,-0.842354059219,0.944995880127,0.0551539696753,-0.0300218425691,-0.964237749577,-0.257492095232
1554932510840746911,84962,1554932510840746911,world,-0.845059633255,-0.842337608337,0.945281028748,0.0504913590848,-0.0274033211172,-0.964552938938,-0.257560551167
1554932510850234075,84963,1554932510850234075,world,-0.845068693161,-0.84236574173,0.945164680481,0.0517093613744,-0.0284637138247,-0.964473545551,-0.257501035929
1554932510860526380,84964,1554932510860526380,world,-0.844977855682,-0.842277050018,0.945644378662,0.0554247051477,-0.0254445690662,-0.964317500591,-0.257628887892
1554932510870785258,84965,1554932510870785258,world,-0.845021724701,-0.842282056808,0.945599555969,0.0517983585596,-0.0250634048134,-0.964498639107,-0.257742196321
1554932510890494136,84966,1554932510890494136,world,-0.84513759613,-0.842390060425,0.945771217346,0.0465673469007,-0.0261536817998,-0.964816451073,-0.257442563772
1554932510910311792,84967,1554932510910311792,world,-0.845010995865,-0.842288255692,0.945838212967,0.0532014369965,-0.025040961802,-0.964464247227,-0.257587224245
1554932510910395591,84968,1554932510910395591,world,-0.845034599304,-0.842295408249,0.945599079132,0.0510318651795,-0.0254988931119,-0.964563846588,-0.257609009743
1554932510910424303,84969,1554932510910424303,world,-0.844966411591,-0.842247962952,0.945692777634,0.0552369840443,-0.0249719023705,-0.964350998402,-0.257589548826
1554932510930360876,84970,1554932510930360876,world,-0.845019817352,-0.842282533646,0.945490598679,0.0519816689193,-0.025835333392,-0.964495182037,-0.25764220953
1554932510930441626,84971,1554932510930441626,world,-0.844958782196,-0.842257499695,0.945617198944,0.0557453520596,-0.0253764558583,-0.964291214943,-0.257664591074
1554932510940894058,84972,1554932510940894058,world,-0.845032453537,-0.842275619507,0.945437192917,0.0519833005965,-0.0261120293289,-0.96449059248,-0.25763130188
1554932510950346881,84973,1554932510950346881,world,-0.844972610474,-0.842243671417,0.945577144623,0.055482301861,-0.0255999397486,-0.964333713055,-0.257540255785
1554932510950425345,84974,1554932510950425345,world,-0.845129966736,-0.84240937233,0.945645809174,0.0490508265793,-0.0271583553404,-0.964707016945,-0.257287949324
1554932510980902795,84975,1554932510980902795,world,-0.845046281815,-0.842381715775,0.945655822754,0.0470468252897,-0.0277541857213,-0.964737832546,-0.257482618093
1554932511000683596,84976,1554932511000683596,world,-0.84504699707,-0.842329025269,0.945399999619,0.0488281622529,-0.0271206814796,-0.964616060257,-0.257674574852
1554932511009961480,84977,1554932511009961480,world,-0.84505033493,-0.842303991318,0.945233345032,0.050335187465,-0.0266694761813,-0.96455180645,-0.257672280073
1554932511020436735,84978,1554932511020436735,world,-0.845049858093,-0.842302322388,0.945247173309,0.050747025758,-0.0266078021377,-0.964521050453,-0.257712870836
1554932511040317187,84979,1554932511040317187,world,-0.845042705536,-0.842307329178,0.945280790329,0.0508274585009,-0.0266525633633,-0.964508235455,-0.257740348577
1554932511050735413,84980,1554932511050735413,world,-0.844951868057,-0.842272043228,0.945527553558,0.055994309485,-0.0257872380316,-0.964253783226,-0.257709830999
1554932511050780212,84981,1554932511050780212,world,-0.845001935959,-0.842286586761,0.945414066315,0.0529930740595,-0.0263282135129,-0.964426696301,-0.257642686367
1554932511060078664,84982,1554932511060078664,world,-0.844955444336,-0.842249631882,0.945588588715,0.0567347928882,-0.0256830472499,-0.964221298695,-0.257679820061
1554932511080892997,84983,1554932511080892997,world,-0.845016956329,-0.842362880707,0.945039749146,0.0558314807713,-0.0298153478652,-0.964202165604,-0.25750374794
1554932511090172371,84984,1554932511090172371,world,-0.844955682755,-0.842287063599,0.945407390594,0.0574467368424,-0.0272893421352,-0.964150428772,-0.257622122765
1554932511090236179,84985,1554932511090236179,world,-0.845030546188,-0.842295646667,0.945358753204,0.0526711642742,-0.0269738007337,-0.964425861835,-0.257645070553
1554932511110998848,84986,1554932511110998848,world,-0.844999074936,-0.842260360718,0.945555925369,0.05427262187,-0.0257977154106,-0.964385092258,-0.257585793734
1554932511120295216,84987,1554932511120295216,world,-0.845044374466,-0.842299461365,0.945426940918,0.0513927936554,-0.026291878894,-0.964525401592,-0.257600963116
1554932511130732310,84988,1554932511130732310,world,-0.844960212708,-0.842288732529,0.945607662201,0.0494010448456,-0.0269451066852,-0.964597463608,-0.257653594017
1554932511140216062,84989,1554932511140216062,world,-0.845022678375,-0.842392683029,0.945040941238,0.0522431656718,-0.0303035210818,-0.964386165142,-0.257510751486
1554932511150623151,84990,1554932511150623151,world,-0.844975709915,-0.842302083969,0.94540476799,0.0557039044797,-0.0273502152413,-0.964273333549,-0.257538348436
1554932511150703351,84991,1554932511150703351,world,-0.845029830933,-0.842393875122,0.944968700409,0.0550472848117,-0.0303360931575,-0.964243531227,-0.257456451654
1554932511160038646,84992,1554932511160038646,world,-0.844955921173,-0.842321872711,0.94541144371,0.0568940453231,-0.0272347293794,-0.964204728603,-0.257547289133
1554932511180775375,84993,1554932511180775375,world,-0.845019578934,-0.842322349548,0.945393562317,0.052256975323,-0.0265996195376,-0.96444350481,-0.257702201605
1554932511180844456,84994,1554932511180844456,world,-0.844961643219,-0.842265129089,0.945608139038,0.0551506951451,-0.0254727900028,-0.964301407337,-0.257744729519
1554932511180873019,84995,1554932511180873019,world,-0.84504199028,-0.84229850769,0.945471286774,0.0513181611896,-0.0258540473878,-0.964483380318,-0.257817476988
1554932511209973722,84996,1554932511209973722,world,-0.845101118088,-0.842346906662,0.945534706116,0.0468588657677,-0.0269432086498,-0.964700222015,-0.257744073868
1554932511220455249,84997,1554932511220455249,world,-0.84499835968,-0.842306137085,0.945652484894,0.0531475357711,-0.0258580036461,-0.964406549931,-0.257733911276
1554932511259913859,84998,1554932511259913859,world,-0.845045089722,-0.842310190201,0.94545674324,0.0510170310736,-0.0263056848198,-0.964523494244,-0.257681310177
1554932511259956297,84999,1554932511259956297,world,-0.844978570938,-0.842279195786,0.945579767227,0.0549827106297,-0.0256310347468,-0.964345216751,-0.257600784302
1554932511260018881,85000,1554932511260018881,world,-0.845044374466,-0.842299222946,0.945399045944,0.051780462265,-0.0262357667089,-0.964489340782,-0.25766441226
1554932511260071530,85002,1554932511260071530,world,-0.845041513443,-0.842297792435,0.945391654968,0.0518550164998,-0.0264377910644,-0.964498221874,-0.257595062256
1554932511280719233,85003,1554932511280719233,world,-0.845085859299,-0.8423204422,0.945286035538,0.0493759140372,-0.0268903318793,-0.964641392231,-0.257499456406
1554932511280747532,85004,1554932511280747532,world,-0.844992637634,-0.842278957367,0.945512056351,0.0543425418437,-0.026092723012,-0.964388787746,-0.257527530193
1554932511290171065,85005,1554932511290171065,world,-0.84503865242,-0.842308282852,0.945394515991,0.0514859482646,-0.0265081431717,-0.964517652988,-0.257589370012
1554932511290212393,85006,1554932511290212393,world,-0.844967126846,-0.84227347374,0.945563077927,0.0553567521274,-0.0259157717228,-0.964303612709,-0.257647961378
1554932511310883085,85007,1554932511310883085,world,-0.845021247864,-0.842393159866,0.945004701614,0.05487453565,-0.030081672594,-0.96424716711,-0.257509589195
1554932511310919713,85008,1554932511310919713,world,-0.844971895218,-0.842308759689,0.945386886597,0.0567590482533,-0.0274299941957,-0.964202523232,-0.257564514875
1554932511330609989,85009,1554932511330609989,world,-0.845038414001,-0.842316150665,0.945347309113,0.0521547831595,-0.0270014517009,-0.964444994926,-0.257675677538
1554932511339895828,85010,1554932511339895828,world,-0.844978094101,-0.842264175415,0.945564985275,0.0551760494709,-0.0259018316865,-0.964313983917,-0.257649719715
1554932511339936469,85011,1554932511339936469,world,-0.845036029816,-0.842304468155,0.945430755615,0.0512892976403,-0.0263051725924,-0.964508295059,-0.257684648037
1554932511350274552,85012,1554932511350274552,world,-0.844985723495,-0.842268466949,0.945589542389,0.054818700999,-0.0256258305162,-0.96434879303,-0.257623195648
1554932511350315059,85013,1554932511350315059,world,-0.84505200386,-0.842301845551,0.945423364639,0.051162108779,-0.0262749642134,-0.964532017708,-0.257624179125
1554932511360744427,85014,1554932511360744427,world,-0.844992637634,-0.84228181839,0.945581436157,0.0547099225223,-0.025728976354,-0.96435046196,-0.257629752159
1554932511370024297,85015,1554932511370024297,world,-0.845042943954,-0.842323541641,0.945421457291,0.0509966872633,-0.0264140348881,-0.964529037476,-0.257653713226
1554932511380479446,85016,1554932511380479446,world,-0.845076560974,-0.842351675034,0.945303440094,0.048659529537,-0.0268912445754,-0.964648962021,-0.257607519627
1554932511400210474,85017,1554932511400210474,world,-0.844990491867,-0.842304944992,0.94551897049,0.0538541898131,-0.0260622072965,-0.96437805891,-0.257673412561
1554932511410617839,85018,1554932511410617839,world,-0.84504532814,-0.842316150665,0.945389986038,0.051207985729,-0.0265717115253,-0.964519262314,-0.257632255554
1554932511410673300,85019,1554932511410673300,world,-0.844974279404,-0.84228515625,0.945563316345,0.055145971477,-0.0258842818439,-0.964322447777,-0.257626146078
1554932511419961760,85020,1554932511419961760,world,-0.845037937164,-0.842305660248,0.945403814316,0.0517068579793,-0.0264923386276,-0.964492857456,-0.257639497519
1554932511430343228,85021,1554932511430343228,world,-0.844985961914,-0.842282295227,0.945557117462,0.0553209260106,-0.025905456394,-0.964298605919,-0.257675856352
1554932511440814512,85022,1554932511440814512,world,-0.845041513443,-0.842316150665,0.945400714874,0.0516458153725,-0.0265666469932,-0.964496076107,-0.257632017136
1554932511440854265,85023,1554932511440854265,world,-0.844984769821,-0.842278242111,0.945553541183,0.0551344305277,-0.0259317364544,-0.964328050613,-0.257603108883
1554932511460479840,85024,1554932511460479840,world,-0.845048189163,-0.842308521271,0.94539809227,0.0514915920794,-0.0266000069678,-0.964491903782,-0.25767531991
1554932511460519687,85025,1554932511460519687,world,-0.844986438751,-0.842275857925,0.945550441742,0.0549613274634,-0.0260233357549,-0.964336752892,-0.257597953081
1554932511470904346,85026,1554932511470904346,world,-0.84503364563,-0.842385292053,0.944987773895,0.0543383844197,-0.0301783438772,-0.964305341244,-0.257394522429
1554932511480330569,85027,1554932511480330569,world,-0.844961166382,-0.842325210571,0.945373296738,0.0560028925538,-0.0275924690068,-0.964254677296,-0.257517576218
1554932511490761769,85028,1554932511490761769,world,-0.845035791397,-0.842333316803,0.945341110229,0.0516060963273,-0.0271705165505,-0.964497745037,-0.257570803165
1554932511500234101,85029,1554932511500234101,world,-0.844976663589,-0.842279911041,0.945555686951,0.0546851307154,-0.0260192956775,-0.964341700077,-0.25763848424
1554932511510723835,85030,1554932511510723835,world,-0.845047473907,-0.842387914658,0.945017337799,0.0540109165013,-0.0298838838935,-0.96431183815,-0.257473111153
1554932511520007270,85031,1554932511520007270,world,-0.844976663589,-0.842330217361,0.945394515991,0.0557140149176,-0.0272006932646,-0.964259386063,-0.257604300976
1554932511520055817,85032,1554932511520055817,world,-0.845045089722,-0.842319011688,0.945359706879,0.0512753278017,-0.0267953742296,-0.96449059248,-0.257702767849
1554932511530316313,85033,1554932511530316313,world,-0.84498167038,-0.842283964157,0.94557595253,0.0545011088252,-0.0256800223142,-0.964336574078,-0.257730841637
1554932511540747017,85034,1554932511540747017,world,-0.845053911209,-0.842317342758,0.945437669754,0.0508376136422,-0.0260835252702,-0.964552283287,-0.25763168931
1554932511550046662,85035,1554932511550046662,world,-0.845098972321,-0.842357397079,0.945501565933,0.0466861128807,-0.027129329741,-0.964739143848,-0.257609784603
1554932511580273521,85036,1554932511580273521,world,-0.845089197159,-0.842337846756,0.945423603058,0.0475586727262,-0.0270244888961,-0.964702069759,-0.257599979639
1554932511580369909,85037,1554932511580369909,world,-0.844994783401,-0.842265367508,0.94557595253,0.0538501217961,-0.0259039998055,-0.964411139488,-0.257566064596
1554932511599930707,85038,1554932511599930707,world,-0.845036029816,-0.842285871506,0.945420026779,0.0516445785761,-0.0263007506728,-0.964499115944,-0.257648319006
1554932511599976461,85039,1554932511599976461,world,-0.844964981079,-0.842286586761,0.945568799973,0.0498995035887,-0.0269243624061,-0.964577257633,-0.257635176182
1554932511610335255,85040,1554932511610335255,world,-0.84502530098,-0.842306613922,0.945400953293,0.0498298145831,-0.0268524996936,-0.964596152306,-0.257585555315
1554932511620812633,85041,1554932511620812633,world,-0.845067739487,-0.842322587967,0.945291519165,0.0500076338649,-0.026773435995,-0.964572787285,-0.257646888494
1554932511630239678,85042,1554932511630239678,world,-0.845053434372,-0.84241104126,0.944900274277,0.0531873106956,-0.0301829371601,-0.964317381382,-0.257589221001
1554932511650951033,85043,1554932511650951033,world,-0.845059156418,-0.842371463776,0.945094823837,0.0521243177354,-0.0287259686738,-0.964405596256,-0.25764259696
1554932511670641549,85044,1554932511670641549,world,-0.845059871674,-0.842396020889,0.944967031479,0.0532329790294,-0.0299564041197,-0.964342951775,-0.257510095835
1554932511679914717,85045,1554932511679914717,world,-0.844970703125,-0.842300891876,0.945461750031,0.0564853213727,-0.0268058944494,-0.964233636856,-0.257574141026
1554932511679963808,85046,1554932511679963808,world,-0.845025539398,-0.842310905457,0.945459365845,0.052696838975,-0.0261380579323,-0.964447677135,-0.257644593716
1554932511700726616,85047,1554932511700726616,world,-0.844960927963,-0.842274904251,0.945675373077,0.0558550991118,-0.0250586904585,-0.964298725128,-0.257643461227
1554932511700896621,85048,1554932511700896621,world,-0.845020294189,-0.842292785645,0.945531845093,0.0519949533045,-0.0255374163389,-0.964511334896,-0.257609009743
1554932511760835052,85049,1554932511760835052,world,-0.845059633255,-0.842320919037,0.945397615433,0.0493745580316,-0.0262132175267,-0.964623272419,-0.257637381554
1554932511760929486,85052,1554932511760929486,world,-0.844976902008,-0.842267274857,0.9456179142,0.0553567931056,-0.0255277603865,-0.964298784733,-0.257705152035
1554932511760987593,85053,1554932511760987593,world,-0.845035552979,-0.842296600342,0.94544506073,0.051882263273,-0.0263030976057,-0.964476048946,-0.257686555386
1554932511761011099,85054,1554932511761011099,world,-0.844959020615,-0.842278242111,0.945586919785,0.0553541816771,-0.0257735736668,-0.964317321777,-0.257611751556
1554932511770455860,85055,1554932511770455860,world,-0.84504032135,-0.842302322388,0.945411205292,0.0517245009542,-0.0264193750918,-0.96448379755,-0.257677525282
1554932511789981572,85056,1554932511789981572,world,-0.845085859299,-0.842334985733,0.945297956467,0.0492963530123,-0.026986381039,-0.964607179165,-0.257632642984
1554932511810840710,85057,1554932511810840710,world,-0.845087051392,-0.842331886292,0.945287227631,0.0492352619767,-0.0270594656467,-0.964616119862,-0.257603466511
1554932511830607854,85058,1554932511830607854,world,-0.844991922379,-0.842295646667,0.945534229279,0.0546346567571,-0.0261367149651,-0.964348375797,-0.257612615824
1554932511830647346,85059,1554932511830647346,world,-0.845035791397,-0.842311382294,0.945419549942,0.0519170388579,-0.026562480256,-0.964482009411,-0.257631033659
1554932511830700557,85060,1554932511830700557,world,-0.844968318939,-0.842273712158,0.945591211319,0.0557750910521,-0.0258990041912,-0.964279830456,-0.257648676634
1554932511830723597,85061,1554932511830723597,world,-0.845037937164,-0.842313289642,0.945427894592,0.0522086918354,-0.0264669135213,-0.964466392994,-0.257640063763
1554932511850307926,85062,1554932511850307926,world,-0.844974279404,-0.842284917831,0.945577383041,0.0556819736958,-0.025884333998,-0.964296281338,-0.257608681917
1554932511850354435,85063,1554932511850354435,world,-0.845031261444,-0.842318058014,0.945410490036,0.0520457178354,-0.0265190824866,-0.964465916157,-0.257669627666
1554932511870977022,85064,1554932511870977022,world,-0.844974517822,-0.842287302017,0.945571899414,0.0554839335382,-0.025895819068,-0.964315295219,-0.257578998804
1554932511871018090,85065,1554932511871018090,world,-0.845037937164,-0.84231877327,0.94541311264,0.051733776927,-0.0265397746116,-0.964501202106,-0.257598280907
1554932511880360445,85066,1554932511880360445,world,-0.844978094101,-0.842284202576,0.945565700531,0.0553825646639,-0.0259522348642,-0.964298963547,-0.25765645504
1554932511880398906,85067,1554932511880398906,world,-0.845039844513,-0.842324495316,0.945396900177,0.0516242422163,-0.0266170911491,-0.964496672153,-0.257628887892
1554932511900187555,85068,1554932511900187555,world,-0.845086574554,-0.842339754105,0.945287466049,0.0491666570306,-0.0270290728658,-0.964608132839,-0.257649749517
1554932511910552859,85069,1554932511910552859,world,-0.844989061356,-0.842303514481,0.945512294769,0.0541601404548,-0.0262216124684,-0.964371263981,-0.257618457079
1554932511920917124,85070,1554932511920917124,world,-0.845040798187,-0.842334508896,0.945391893387,0.0513482354581,-0.0266523119062,-0.964502155781,-0.257659941912
1554932511940610581,85071,1554932511940610581,world,-0.845078706741,-0.842347621918,0.945304393768,0.0494435317814,-0.0268926117569,-0.964596629143,-0.257653683424
1554932511940654307,85072,1554932511940654307,world,-0.844986200333,-0.842292785645,0.945526361465,0.0545286796987,-0.0260990895331,-0.964334785938,-0.257689803839
1554932511950990423,85073,1554932511950990423,world,-0.845041275024,-0.842317819595,0.945404529572,0.0516742803156,-0.0266665630043,-0.964493334293,-0.257626324892
1554932511960380611,85074,1554932511960380611,world,-0.844963550568,-0.842294931412,0.945572376251,0.0555788986385,-0.0260416418314,-0.964279770851,-0.257676810026
1554932511970813896,85075,1554932511970813896,world,-0.845032453537,-0.842313289642,0.945417881012,0.0519676506519,-0.0265934616327,-0.964479744434,-0.257625877857
1554932511980602714,85076,1554932511980602714,world,-0.844978809357,-0.842287778854,0.9455742836,0.0553629510105,-0.0259853824973,-0.964321494102,-0.257572621107
1554932511989946418,85077,1554932511989946418,world,-0.845043182373,-0.842306137085,0.945410251617,0.0518274269998,-0.0266021490097,-0.964471518993,-0.257683813572
1554932512000415613,85078,1554932512000415613,world,-0.844986915588,-0.842272281647,0.945563793182,0.0552879795432,-0.0259829200804,-0.964298844337,-0.257673829794
1554932512000457093,85079,1554932512000457093,world,-0.845027923584,-0.842390775681,0.944994449615,0.0547061339021,-0.0301787313074,-0.964248597622,-0.257529109716
1554932512030676375,85080,1554932512030676375,world,-0.84498333931,-0.842344522476,0.945388317108,0.0506731718779,-0.0288230050355,-0.964488863945,-0.257609814405
1554932512030714252,85081,1554932512030714252,world,-0.845045804977,-0.842353343964,0.94552397728,0.0473592169583,-0.0282211303711,-0.964673519135,-0.257615506649
1554932512040020116,85082,1554932512040020116,world,-0.844999074936,-0.842298746109,0.945653438568,0.0531730353832,-0.0260751880705,-0.964407384396,-0.257703661919
1554932512060764572,85083,1554932512060764572,world,-0.845052480698,-0.842290401459,0.945435285568,0.051521062851,-0.0262182205915,-0.964477241039,-0.257763266563
1554932512070128819,85084,1554932512070128819,world,-0.844986915588,-0.842259168625,0.945564508438,0.0559620410204,-0.0254426337779,-0.964263916016,-0.257713198662
1554932512070205507,85085,1554932512070205507,world,-0.845049858093,-0.842373371124,0.944985628128,0.055523455143,-0.0295212194324,-0.964234292507,-0.257483929396
1554932512080642462,85086,1554932512080642462,world,-0.844976425171,-0.842329978943,0.945378780365,0.0514151453972,-0.0283817835152,-0.964480340481,-0.257543683052
1554932512100298610,85087,1554932512100298610,world,-0.845038175583,-0.842325925827,0.945336103439,0.0501612089574,-0.0272985417396,-0.964550077915,-0.257646471262
1554932512100343065,85088,1554932512100343065,world,-0.844972133636,-0.842310190201,0.945554733276,0.0489054843783,-0.0271544661373,-0.96459621191,-0.257730692625
1554932512100403511,85089,1554932512100403511,world,-0.845048189163,-0.842307329178,0.945398569107,0.0492433607578,-0.0266862828285,-0.964595735073,-0.257716983557
1554932512110794572,85090,1554932512110794572,world,-0.844990253448,-0.842278003693,0.94557094574,0.0547388009727,-0.0255526974797,-0.964321494102,-0.257749587297
1554932512130497162,85091,1554932512130497162,world,-0.845048427582,-0.842306613922,0.945410966873,0.0520458817482,-0.0261129066348,-0.964468359947,-0.257701724768
1554932512140948760,85092,1554932512140948760,world,-0.844986438751,-0.842274427414,0.945562362671,0.0557840652764,-0.0254213251173,-0.964274644852,-0.257713615894
1554932512140989988,85093,1554932512140989988,world,-0.845041513443,-0.842307567596,0.945402622223,0.0522161312401,-0.0260278154165,-0.964463412762,-0.257694423199
1554932512141050790,85094,1554932512141050790,world,-0.844978094101,-0.842272996902,0.94554233551,0.0556611008942,-0.0255945120007,-0.964297413826,-0.257637888193
1554932512160725880,85095,1554932512160725880,world,-0.845042705536,-0.842313051224,0.94538640976,0.0519698485732,-0.0263345353305,-0.964482605457,-0.257641106844
1554932512190728916,85096,1554932512190728916,world,-0.845085382462,-0.842339515686,0.945288896561,0.0494080111384,-0.0269336178899,-0.96460133791,-0.257638812065
1554932512200040924,85097,1554932512200040924,world,-0.845071792603,-0.842334270477,0.945314884186,0.0498137660325,-0.0269821528345,-0.964604616165,-0.257543206215
1554932512210461011,85098,1554932512210461011,world,-0.844973325729,-0.842287778854,0.945560216904,0.0550770014524,-0.0260156393051,-0.964339971542,-0.257561981678
1554932512230101065,85099,1554932512230101065,world,-0.845027685165,-0.842304706573,0.945436000824,0.0521872378886,-0.0264191646129,-0.964473843575,-0.257621377707
1554932512250898472,85100,1554932512250898472,world,-0.844959497452,-0.84227013588,0.945588111877,0.0558143220842,-0.025776186958,-0.964294970036,-0.25759601593
1554932512250978360,85101,1554932512250978360,world,-0.845010519028,-0.84229850769,0.945432901382,0.0524495765567,-0.026481827721,-0.964455068111,-0.257632106543
1554932512251023516,85103,1554932512251023516,world,-0.845022916794,-0.842295646667,0.945436477661,0.0521745234728,-0.0265372488648,-0.964476644993,-0.257601380348
1554932512270753787,85104,1554932512270753787,world,-0.844965934753,-0.842265605927,0.945577144623,0.0554617904127,-0.02594550699,-0.964322686195,-0.257551044226
1554932512280059607,85105,1554932512280059607,world,-0.845029115677,-0.842314004898,0.945403575897,0.0517583265901,-0.0265632700175,-0.964508712292,-0.257562667131
1554932512280139059,85106,1554932512280139059,world,-0.844968080521,-0.842284440994,0.945551633835,0.05514023453,-0.0260170064867,-0.964339375496,-0.257550567389
1554932512290600181,85107,1554932512290600181,world,-0.845024108887,-0.842396974564,0.944984436035,0.0546414852142,-0.0303617436439,-0.964283287525,-0.25739133358
1554932512320708947,85108,1554932512320708947,world,-0.844980716705,-0.842315196991,0.945381164551,0.0564948581159,-0.0276575163007,-0.964234173298,-0.257479906082
1554932512320753878,85109,1554932512320753878,world,-0.845048189163,-0.842422246933,0.944954156876,0.0548887141049,-0.0305849220604,-0.96426320076,-0.257387757301
1554932512320818394,85110,1554932512320818394,world,-0.844982147217,-0.842330932617,0.945379495621,0.0560511611402,-0.027456946671,-0.964256465435,-0.257514804602
1554932512320839305,85111,1554932512320839305,world,-0.845036745071,-0.842331647873,0.945363521576,0.0514684654772,-0.0268124826252,-0.964500010014,-0.257627278566
1554932512340443563,85112,1554932512340443563,world,-0.845081090927,-0.842335224152,0.945350408554,0.0485084503889,-0.0263736080378,-0.964654147625,-0.257670015097
1554932512360304521,85113,1554932512360304521,world,-0.845087528229,-0.842344045639,0.945343494415,0.0485721193254,-0.0264331363142,-0.964664399624,-0.257613450289
1554932512370731450,85114,1554932512370731450,world,-0.844997644424,-0.84228682518,0.94557762146,0.0540116503835,-0.0256471354514,-0.964416921139,-0.257536411285
1554932512370819160,85115,1554932512370819160,world,-0.845033884048,-0.842319488525,0.945464611053,0.0514678843319,-0.0262416098267,-0.964535653591,-0.257552623749
1554932512390636328,85116,1554932512390636328,world,-0.844967842102,-0.842270374298,0.94562292099,0.0554373264313,-0.0256597194821,-0.964316487312,-0.257608264685
1554932512390676212,85117,1554932512390676212,world,-0.84503364563,-0.842302322388,0.94545006752,0.0520149357617,-0.0262611750513,-0.964476406574,-0.257662862539
1554932512390737366,85118,1554932512390737366,world,-0.844970226288,-0.84227347374,0.945594549179,0.0555846840143,-0.0257149413228,-0.964297652245,-0.25764170289
1554932512399945594,85119,1554932512399945594,world,-0.845026254654,-0.842301845551,0.945427179337,0.0517727099359,-0.0263810381293,-0.96448880434,-0.257652938366
1554932512410212504,85120,1554932512410212504,world,-0.844971179962,-0.842282056808,0.94557094574,0.0552126802504,-0.0258078221232,-0.964308142662,-0.257673293352
1554932512420678470,85121,1554932512420678470,world,-0.84504032135,-0.842299699783,0.945402145386,0.0516211129725,-0.0265487395227,-0.964485228062,-0.257679373026
1554932512440245494,85122,1554932512440245494,world,-0.844973802567,-0.8422768116,0.945552110672,0.0550006181002,-0.0259396564215,-0.964317083359,-0.257671892643
1554932512450722621,85123,1554932512450722621,world,-0.84504032135,-0.842319488525,0.945388555527,0.0513569936156,-0.0266312193125,-0.964510977268,-0.257627338171
1554932512450805321,85124,1554932512450805321,world,-0.844972372055,-0.842283725739,0.945554733276,0.0549619607627,-0.0260365735739,-0.964327812195,-0.257629871368
1554932512460218147,85125,1554932512460218147,world,-0.845042943954,-0.842314243317,0.945394992828,0.0513304695487,-0.026605470106,-0.964505970478,-0.257654160261
1554932512780996258,85126,1554932512780996258,world,-0.845084667206,-0.842344999313,0.945285797119,0.0489691458642,-0.0269189700484,-0.964612662792,-0.257681757212
1554932512781082663,85127,1554932512781082663,world,-0.844997406006,-0.842310190201,0.945493221283,0.0540126822889,-0.0261531732976,-0.964378297329,-0.257630199194
1554932512781170938,85131,1554932512781170938,world,-0.84498333931,-0.842334985733,0.945372581482,0.056392788887,-0.0274941641837,-0.964231550694,-0.25752940774
1554932512781237257,85132,1554932512781237257,world,-0.845030546188,-0.84242272377,0.944942712784,0.054916922003,-0.0305631291121,-0.964241027832,-0.257467091084
1554932512781288794,85134,1554932512781288794,world,-0.845001459122,-0.842292070389,0.945499897003,0.0541921705008,-0.0261713769287,-0.964360654354,-0.257656335831
1554932512781332852,85135,1554932512781332852,world,-0.845039844513,-0.842303752899,0.945455312729,0.0507927946746,-0.025946451351,-0.964547991753,-0.257670432329
1554932512781412313,85138,1554932512781412313,world,-0.844981193542,-0.842245817184,0.945666313171,0.0546365194023,-0.0251129642129,-0.96437227726,-0.257624477148
1554932512781507060,85139,1554932512781507060,world,-0.845027208328,-0.842357397079,0.945109844208,0.0540254600346,-0.0293405391276,-0.964321017265,-0.257498294115
1554932512781533114,85140,1554932512781533114,world,-0.844972610474,-0.842283248901,0.9454600811,0.0559237636626,-0.0269405506551,-0.964271068573,-0.257542192936
1554932512781588694,85141,1554932512781588694,world,-0.845042467117,-0.842299699783,0.945400476456,0.0515027865767,-0.0266303028911,-0.964525401592,-0.257544577122
1554932512781639899,85143,1554932512781639899,world,-0.844986200333,-0.842285394669,0.945563316345,0.0536349490285,-0.0256301108748,-0.964428246021,-0.257574290037
1554932512781696575,85144,1554932512781696575,world,-0.845039844513,-0.842307090759,0.94543504715,0.0509389974177,-0.0261653978378,-0.964527845383,-0.25769507885
1554932512781777547,85147,1554932512781777547,world,-0.844966650009,-0.842292547226,0.945586442947,0.05427153036,-0.0258383173496,-0.964355766773,-0.257691770792
1554932512781818290,85148,1554932512781818290,world,-0.845034837723,-0.842326164246,0.945420503616,0.0515393726528,-0.0263116881251,-0.964509427547,-0.257629454136
1554932512781870551,85150,1554932512781870551,world,-0.845038414001,-0.842315673828,0.945413589478,0.0518789477646,-0.0263478793204,-0.964482724667,-0.257657676935
1554932512790186649,85151,1554932512790186649,world,-0.844992160797,-0.842277526855,0.945532560349,0.054784592241,-0.0260537676513,-0.964344084263,-0.257605105639
1554932512800562649,85152,1554932512800562649,world,-0.845049619675,-0.842329263687,0.945555925369,0.0492643676698,-0.0272672884166,-0.964625895023,-0.257539272308
1554932512810948500,85153,1554932512810948500,world,-0.84497833252,-0.84229183197,0.945616722107,0.053885743022,-0.0262772720307,-0.964391767979,-0.257593542337
1554932512820386160,85154,1554932512820386160,world,-0.845054388046,-0.842307329178,0.94540977478,0.0509603023529,-0.0266796592623,-0.964537322521,-0.257602334023
1554932512830767166,85155,1554932512830767166,world,-0.844987392426,-0.842283010483,0.945536136627,0.0547374747694,-0.0260194148868,-0.964355945587,-0.25757420063
1554932512830814526,85156,1554932512830814526,world,-0.84504532814,-0.842316389084,0.945357561111,0.0513464733958,-0.0266764052212,-0.964520215988,-0.257590532303
1554932512850642965,85157,1554932512850642965,world,-0.844979524612,-0.842269182205,0.945514917374,0.0549261868,-0.0260598659515,-0.964309453964,-0.257703900337
1554932512859964391,85158,1554932512859964391,world,-0.84504699707,-0.842314720154,0.94536614418,0.0513311773539,-0.0266640279442,-0.964496970177,-0.257681518793
1554932512870422434,85159,1554932512870422434,world,-0.844992876053,-0.842289924622,0.945518016815,0.0548576973379,-0.0260565560311,-0.964332103729,-0.257634282112
1554932512870504272,85160,1554932512870504272,world,-0.845046758652,-0.842309236526,0.945363283157,0.0512982718647,-0.026665745303,-0.964514553547,-0.257622033358
1554932512880838379,85161,1554932512880838379,world,-0.844976425171,-0.842298984528,0.945522785187,0.0546584315598,-0.0260567832738,-0.964334607124,-0.257667034864
1554932512890284998,85162,1554932512890284998,world,-0.845042705536,-0.842335224152,0.945375442505,0.0511800013483,-0.0266820192337,-0.964512944221,-0.257650226355
1554932512900729447,85163,1554932512900729447,world,-0.84498000145,-0.842321395874,0.945556163788,0.0489997677505,-0.0272196177393,-0.96458542347,-0.257746249437
1554932512909926863,85164,1554932512909926863,world,-0.845060348511,-0.842425346375,0.945443868637,0.0476999953389,-0.0287691317499,-0.96464318037,-0.257605284452
1554932512920285136,85165,1554932512920285136,world,-0.845116615295,-0.842489480972,0.945382118225,0.0472260378301,-0.0293250214309,-0.964693427086,-0.257441848516
1554932512930715573,85166,1554932512930715573,world,-0.845008850098,-0.842350244522,0.945538282394,0.0538245253265,-0.0268857460469,-0.964395463467,-0.25752979517
1554932512950385267,85167,1554932512950385267,world,-0.845013380051,-0.84227514267,0.94540810585,0.053134161979,-0.0259418357164,-0.964431226254,-0.257635593414
1554932512980644530,85168,1554932512980644530,world,-0.84509062767,-0.842327594757,0.945437431335,0.0475712157786,-0.0271541029215,-0.964682102203,-0.257658720016
1554932513000298426,85169,1554932513000298426,world,-0.84500670433,-0.842313051224,0.945568799973,0.0475290678442,-0.0273633189499,-0.964662611485,-0.257717728615
1554932513000386739,85170,1554932513000386739,world,-0.845153331757,-0.842424631119,0.945633172989,0.0458528138697,-0.0278291124851,-0.964807808399,-0.257427811623
1554932513000414273,85171,1554932513000414273,world,-0.845024824142,-0.842332601547,0.945635318756,0.0532656125724,-0.0263136662543,-0.964426994324,-0.257587134838
1554932513010876919,85172,1554932513010876919,world,-0.845054149628,-0.842322349548,0.945401191711,0.051491510123,-0.0265021175146,-0.964525282383,-0.257560610771
1554932513010958299,85173,1554932513010958299,world,-0.844978570938,-0.842307329178,0.945535182953,0.0500618889928,-0.0269571319222,-0.964577615261,-0.257599145174
1554932513041008311,85174,1554932513041008311,world,-0.845039844513,-0.842419624329,0.945460319519,0.0486652776599,-0.0281687118113,-0.964617609978,-0.257586926222
1554932513050378939,85175,1554932513050378939,world,-0.844995737076,-0.842325925827,0.945539474487,0.054744604975,-0.0265773683786,-0.964337170124,-0.257586061954
1554932513101010609,85176,1554932513101010609,world,-0.845053434372,-0.84232544899,0.945551872253,0.0505551695824,-0.0270108375698,-0.964546501637,-0.257613629103
1554932513101055926,85177,1554932513101055926,world,-0.844975233078,-0.842259168625,0.945603847504,0.0558392219245,-0.0255790669471,-0.964259564877,-0.257742732763
1554932513101109266,85178,1554932513101109266,world,-0.845133781433,-0.842375278473,0.945615291595,0.0502043627203,-0.026736618951,-0.964610219002,-0.257472246885
1554932513101142375,85180,1554932513101142375,world,-0.845099687576,-0.842279195786,0.945285558701,0.0496755391359,-0.0267878379673,-0.964538574219,-0.257837533951
1554932513120698850,85181,1554932513120698850,world,-0.844970226288,-0.842237472534,0.945466756821,0.0555994771421,-0.0257635395974,-0.964269042015,-0.257740408182
1554932513120743576,85182,1554932513120743576,world,-0.845011711121,-0.842286109924,0.945506334305,0.0509950332344,-0.0267321281135,-0.964532017708,-0.257610350847
1554932513129921820,85183,1554932513129921820,world,-0.844941139221,-0.842245578766,0.945582866669,0.0558320507407,-0.0257216263562,-0.964286506176,-0.257629036903
1554932513140325542,85184,1554932513140325542,world,-0.845000267029,-0.842361688614,0.944989681244,0.0557704716921,-0.0296915750951,-0.964213430882,-0.257488846779
1554932513190799445,85185,1554932513190799445,world,-0.844942331314,-0.842293024063,0.945347309113,0.0576706603169,-0.0270992796868,-0.964153528214,-0.257580786943
1554932513190899052,85188,1554932513190899052,world,-0.845032453537,-0.842302083969,0.945328950882,0.0523252040148,-0.0265229120851,-0.964455962181,-0.257649809122
1554932513190955879,85189,1554932513190955879,world,-0.844990730286,-0.842272520065,0.945566177368,0.0540069267154,-0.0254401452839,-0.964379668236,-0.257697433233
1554932513210769665,85190,1554932513210769665,world,-0.84503865242,-0.842302322388,0.945445299149,0.0512114427984,-0.026003299281,-0.964514613152,-0.257706731558
1554932513220221054,85191,1554932513220221054,world,-0.845075845718,-0.842325210571,0.945343732834,0.0492983423173,-0.0265276767313,-0.964627325535,-0.257604598999
1554932513230503119,85192,1554932513230503119,world,-0.8449883461,-0.842266321182,0.945548534393,0.0544385612011,-0.0257826205343,-0.964379370213,-0.257573693991
1554932513240958244,85193,1554932513240958244,world,-0.845037460327,-0.842299461365,0.945414304733,0.0516332238913,-0.026327714324,-0.964492022991,-0.257674396038
1554932513260653046,85194,1554932513260653046,world,-0.845083475113,-0.842327594757,0.94531083107,0.0496568605304,-0.0267494134605,-0.964591264725,-0.257647871971
1554932513269995621,85195,1554932513269995621,world,-0.845076560974,-0.842339277267,0.945311307907,0.0495299398899,-0.0268284734339,-0.964611768723,-0.257587313652
1554932513280470428,85196,1554932513280470428,world,-0.844980716705,-0.84229516983,0.945554971695,0.0549213923514,-0.0259685888886,-0.964358448982,-0.257531017065
1554932513290860484,85197,1554932513290860484,world,-0.845025777817,-0.842397212982,0.945038795471,0.0550983324647,-0.0299717914313,-0.964265048504,-0.257408082485
1554932513310658889,85198,1554932513310658889,world,-0.845057010651,-0.842371225357,0.945114374161,0.0517340451479,-0.0288366321474,-0.964455962181,-0.257520705462
1554932513310706897,85199,1554932513310706897,world,-0.844971656799,-0.842301130295,0.945499181747,0.0553200170398,-0.0264281444252,-0.964322686195,-0.257532507181
1554932513319955813,85200,1554932513319955813,world,-0.845034599304,-0.842298984528,0.945457458496,0.0518547073007,-0.0261977575719,-0.964484512806,-0.257671326399
1554932513330241852,85201,1554932513330241852,world,-0.844968080521,-0.842253446579,0.945641756058,0.0552310086787,-0.0253054853529,-0.964320123196,-0.257674008608
1554932513340670461,85202,1554932513340670461,world,-0.84502696991,-0.842371225357,0.945098161697,0.054585672915,-0.0292463563383,-0.964279294014,-0.257547467947
1554932513360246337,85203,1554932513360246337,world,-0.845071077347,-0.842367649078,0.94514131546,0.0509477928281,-0.0283587090671,-0.964495539665,-0.25758215785
1554932513360301800,85204,1554932513360301800,world,-0.844983577728,-0.842303514481,0.945532798767,0.0546627603471,-0.0260280855,-0.964343607426,-0.257635205984
1554932513370742157,85205,1554932513370742157,world,-0.845020771027,-0.842380046844,0.94509100914,0.0541264228523,-0.0293250754476,-0.964299678802,-0.257558763027
1554932513380018050,85206,1554932513380018050,world,-0.8449614048,-0.842285394669,0.945505142212,0.0560599043965,-0.0264711305499,-0.964235603809,-0.257694482803
1554932513390480376,85207,1554932513390480376,world,-0.845037460327,-0.842291355133,0.945456981659,0.0515764132142,-0.0260523892939,-0.964510023594,-0.257646352053
1554932513400948412,85208,1554932513400948412,world,-0.844970226288,-0.842253684998,0.945651054382,0.0545589439571,-0.0251255240291,-0.964393496513,-0.257560402155
1554932513410259846,85209,1554932513410259846,world,-0.845046043396,-0.842282533646,0.945497274399,0.0509463883936,-0.0256996527314,-0.964551568031,-0.257651656866
1554932513420739279,85210,1554932513420739279,world,-0.844996452332,-0.842249631882,0.945648670197,0.0544306114316,-0.025182005018,-0.964377760887,-0.257640868425
1554932513420780999,85211,1554932513420780999,world,-0.845057249069,-0.842275381088,0.945472240448,0.0508581027389,-0.0258622057736,-0.964563369751,-0.257608413696
1554932513440464938,85212,1554932513440464938,world,-0.845080137253,-0.842309713364,0.945339202881,0.0487520061433,-0.0265412759036,-0.964643359184,-0.257646888494
1554932513450886339,85213,1554932513450886339,world,-0.84500002861,-0.842271566391,0.945550918579,0.053850222379,-0.0257686451077,-0.964394748211,-0.257641136646
1554932513470606018,85214,1554932513470606018,world,-0.845042705536,-0.842396497726,0.945034980774,0.0540526583791,-0.0298237148672,-0.964304924011,-0.257497310638
1554932513470664175,85215,1554932513470664175,world,-0.844974040985,-0.842313766479,0.94541144371,0.0563610605896,-0.027261286974,-0.964213907719,-0.257627129555
1554932513470684144,85216,1554932513470684144,world,-0.845027208328,-0.842326164246,0.945370197296,0.0520613081753,-0.0268777422607,-0.964459836483,-0.257652312517
1554932513510944393,85217,1554932513510944393,world,-0.845071077347,-0.842338323593,0.945338249207,0.049015108496,-0.0265427194536,-0.964622437954,-0.257675379515
1554932513511026199,85218,1554932513511026199,world,-0.844983816147,-0.842289209366,0.945558071136,0.0543014593422,-0.0257079005241,-0.964370369911,-0.257643848658
1554932513520467090,85219,1554932513520467090,world,-0.845050096512,-0.842400074005,0.945502281189,0.0504607148468,-0.0277175270021,-0.964572548866,-0.257459372282
1554932513550534428,85220,1554932513550534428,world,-0.84498333931,-0.842309713364,0.945618152618,0.0550308637321,-0.026296582073,-0.964322507381,-0.257608801126
1554932513600472954,85221,1554932513600472954,world,-0.845094203949,-0.842301130295,0.94553899765,0.0507355220616,-0.0267958790064,-0.964470148087,-0.257886528969
1554932513600560180,85222,1554932513600560180,world,-0.845156908035,-0.842310428619,0.945464134216,0.0478921607137,-0.0271007660776,-0.964575111866,-0.258005619049
1554932513600643137,85225,1554932513600643137,world,-0.8449614048,-0.84229683876,0.945333480835,0.0567675642669,-0.0272720269859,-0.964238941669,-0.257443070412
1554932513600681590,85226,1554932513600681590,world,-0.845016956329,-0.84229850769,0.945334196091,0.0531526841223,-0.026726776734,-0.964454114437,-0.257465898991
1554932513620402256,85227,1554932513620402256,world,-0.844946146011,-0.842272520065,0.945559978485,0.0563586838543,-0.0256188288331,-0.964266479015,-0.257599920034
1554932513620491448,85228,1554932513620491448,world,-0.845012664795,-0.842289686203,0.945434093475,0.0525799170136,-0.0260813646019,-0.964460372925,-0.257626771927
1554932513630824329,85229,1554932513630824329,world,-0.844952583313,-0.842259168625,0.945600032806,0.0557959973812,-0.0253864601254,-0.964299678802,-0.257620990276
1554932513650603988,85230,1554932513650603988,world,-0.845018625259,-0.842296600342,0.945433855057,0.0521410293877,-0.0260512847453,-0.964476287365,-0.257658839226
1554932513650658138,85231,1554932513650658138,world,-0.844965457916,-0.842262983322,0.945577859879,0.0552991367877,-0.0255970619619,-0.964325368404,-0.25761076808
1554932513659949183,85232,1554932513659949183,world,-0.8450319767,-0.842306852341,0.945428133011,0.0515319406986,-0.0262587610632,-0.964515149593,-0.257615089417
1554932513680821144,85233,1554932513680821144,world,-0.844980716705,-0.84227013588,0.945574045181,0.05513959378,-0.02573434636,-0.964334607124,-0.257596939802
1554932513680898595,85234,1554932513680898595,world,-0.845047473907,-0.842302083969,0.945409297943,0.0514407008886,-0.026395233348,-0.964511096478,-0.257634282112
1554932513680921988,85235,1554932513680921988,world,-0.84498500824,-0.842261552811,0.9455473423,0.0548146106303,-0.0258910730481,-0.964348196983,-0.257600039244
1554932513690276488,85236,1554932513690276488,world,-0.84504199028,-0.842303037643,0.945386886597,0.0512721128762,-0.0265520848334,-0.964525878429,-0.257596790791
1554932513700536989,85237,1554932513700536989,world,-0.844982862473,-0.842274665833,0.94553732872,0.0547631680965,-0.026031203568,-0.964348912239,-0.257594078779
1554932513710933316,85238,1554932513710933316,world,-0.845029115677,-0.842390775681,0.944982290268,0.054231647402,-0.030174901709,-0.96428078413,-0.257509440184
1554932513710983704,85239,1554932513710983704,world,-0.84498167038,-0.842309236526,0.945359945297,0.0560616105795,-0.02760627307,-0.964240252972,-0.257557362318
1554932513730647637,85240,1554932513730647637,world,-0.845031738281,-0.84238910675,0.944931268692,0.0545481145382,-0.0305775012821,-0.96426153183,-0.257467150688
1554932513739979605,85241,1554932513739979605,world,-0.84508061409,-0.842367649078,0.94509267807,0.0504379831254,-0.0287292003632,-0.964507997036,-0.25759485364
1554932513750437908,85242,1554932513750437908,world,-0.844985485077,-0.842284440994,0.94549536705,0.0541441291571,-0.026238290593,-0.964350044727,-0.257699787617
1554932513769990175,85243,1554932513769990175,world,-0.845034837723,-0.842294931412,0.945452451706,0.0508221425116,-0.0259914267808,-0.964529752731,-0.257728517056
