%time,field.header.seq,field.header.stamp,field.header.frame_id,field.pose.position.x,field.pose.position.y,field.pose.position.z,field.pose.orientation.x,field.pose.orientation.y,field.pose.orientation.z,field.pose.orientation.w
1554932293710342826,59607,1554932293710342826,world,-0.845881223679,-0.839089155197,0.946099042892,0.0523460097611,-0.0252608396113,-0.960266590118,-0.272964894772
1554932293910523361,59608,1554932293910523361,world,-0.845801115036,-0.839198827744,0.946241140366,0.0526887848973,-0.0246014725417,-0.959965467453,-0.274016469717
1554932293910580894,59609,1554932293910580894,world,-0.845900297165,-0.839125156403,0.946138858795,0.0520896092057,-0.0251767002046,-0.960218310356,-0.273191601038
1554932294590237416,59610,1554932294590237416,world,-0.845822572708,-0.839358568192,0.946273326874,0.0526690371335,-0.0243584979326,-0.959864854813,-0.274394273758
1554932294590322657,59611,1554932294590322657,world,-0.845773935318,-0.839475393295,0.946316719055,0.0526769310236,-0.0240476746112,-0.959660708904,-0.275133252144
1554932294590418348,59615,1554932294590418348,world,-0.845720767975,-0.839422941208,0.946299314499,0.0528649240732,-0.0241510365158,-0.959703147411,-0.274939954281
1554932294590457464,59616,1554932294590457464,world,-0.845841407776,-0.839322805405,0.946227073669,0.0525520853698,-0.0244535263628,-0.959899306297,-0.274287492037
1554932294590537751,59619,1554932294590537751,world,-0.845706939697,-0.839238405228,0.946178436279,0.0526552200317,-0.0247665848583,-0.959724724293,-0.274850070477
1554932294590586156,59620,1554932294590586156,world,-0.845440626144,-0.839402914047,0.946285009384,0.0527343824506,-0.024271003902,-0.959222137928,-0.276627957821
1554932294590638339,59622,1554932294590638339,world,-0.845465183258,-0.839373350143,0.946237564087,0.0524498857558,-0.0245039649308,-0.959300577641,-0.276389330626
1554932294590667682,59623,1554932294590667682,world,-0.845705270767,-0.839308023453,0.94621181488,0.0523878335953,-0.0244151055813,-0.959775090218,-0.274756878614
1554932294590751759,59625,1554932294590751759,world,-0.845747947693,-0.839328527451,0.946281433105,0.0524101853371,-0.0242588017136,-0.959781587124,-0.27474373579
1554932294590777979,59626,1554932294590777979,world,-0.845711946487,-0.839380741119,0.946263074875,0.0526481345296,-0.0243497621268,-0.95970582962,-0.274954527617
1554932294590837664,59627,1554932294590837664,world,-0.845704317093,-0.839390277863,0.946249246597,0.0527105927467,-0.0243497360498,-0.959711253643,-0.274924099445
1554932294610588488,59628,1554932294610588488,world,-0.845742225647,-0.839313745499,0.946217775345,0.0525005348027,-0.0246826205403,-0.95981669426,-0.27456599474
1554932294640711502,59629,1554932294640711502,world,-0.845713376999,-0.83927989006,0.946262359619,0.0525639988482,-0.0244021061808,-0.959769964218,-0.27474206686
1554932295050356560,59630,1554932295050356560,world,-0.845544099808,-0.839406013489,0.946211576462,0.0528013035655,-0.0245164968073,-0.959464669228,-0.275751024485
1554932295050437860,59631,1554932295050437860,world,-0.845485687256,-0.839421033859,0.946203708649,0.0528595745564,-0.0244495794177,-0.959440112114,-0.275831222534
1554932295050523827,59635,1554932295050523827,world,-0.845591068268,-0.83942937851,0.946201086044,0.0526063926518,-0.0246577057987,-0.959485769272,-0.27570194006
1554932295050572444,59636,1554932295050572444,world,-0.845607042313,-0.839422464371,0.946201562881,0.0525942780077,-0.0247281529009,-0.959575176239,-0.275386929512
1554932295050654338,59639,1554932295050654338,world,-0.845493793488,-0.83907365799,0.946250200272,0.0551032051444,-0.0226366948336,-0.960399091244,-0.272185117006
1554932295110580176,59640,1554932295110580176,world,-0.845419883728,-0.839485406876,0.946138381958,0.0544303432107,-0.0238455925137,-0.959873616695,-0.274064481258
1554932295119983217,59641,1554932295119983217,world,-0.845437765121,-0.839495897293,0.946149110794,0.0542764104903,-0.0237077102065,-0.959937274456,-0.273883938789
1554932295510574992,59642,1554932295510574992,world,-0.846236467361,-0.838936090469,0.946433782578,0.055364921689,-0.0213614888489,-0.961564362049,-0.26809039712
1554932295510660196,59643,1554932295510660196,world,-0.846266508102,-0.838929653168,0.946447849274,0.0555484294891,-0.0212891884148,-0.961596012115,-0.267944455147
1554932295510749896,59647,1554932295510749896,world,-0.845055341721,-0.839615345001,0.946254730225,0.0545922741294,-0.0232768785208,-0.959213793278,-0.276381850243
1554932295510805224,59648,1554932295510805224,world,-0.844674348831,-0.839811325073,0.946103572845,0.0539074465632,-0.024474978447,-0.958400249481,-0.279220283031
1554932295510884239,59651,1554932295510884239,world,-0.844034671783,-0.840246200562,0.945859670639,0.0528612434864,-0.0263903010637,-0.957014679909,-0.28395819664
1554932295510926261,59652,1554932295510926261,world,-0.844076395035,-0.840234518051,0.9458527565,0.0528690889478,-0.0263810884207,-0.957117557526,-0.283610582352
1554932295511010456,59655,1554932295511010456,world,-0.844325304031,-0.840115308762,0.945855140686,0.0529641211033,-0.0264546945691,-0.957524001598,-0.282210439444
1554932295511036137,59656,1554932295511036137,world,-0.84455370903,-0.839886188507,0.946013212204,0.0536577254534,-0.0251395460218,-0.957986533642,-0.280625551939
1554932295511112714,59659,1554932295511112714,world,-0.844504833221,-0.840031147003,0.945954084396,0.0532622933388,-0.025728655979,-0.957740545273,-0.281485944986
1554932295511144524,59660,1554932295511144524,world,-0.844442844391,-0.84010720253,0.945954561234,0.0533131100237,-0.0257538165897,-0.957600355148,-0.281950294971
1554932295511220739,59663,1554932295511220739,world,-0.844446659088,-0.840043067932,0.945912599564,0.0530214942992,-0.0258256532252,-0.957831859589,-0.281211495399
1554932295520543991,59664,1554932295520543991,world,-0.844490528107,-0.840088605881,0.946069478989,0.0535566322505,-0.0248487889767,-0.957712233067,-0.28160533309
1554932295540253235,59665,1554932295540253235,world,-0.844754457474,-0.839812994003,0.946131229401,0.053948007524,-0.0242729447782,-0.958318352699,-0.279511123896
1554932295550665644,59666,1554932295550665644,world,-0.844589471817,-0.840013027191,0.946105718613,0.0540128573775,-0.0244640149176,-0.957952618599,-0.280732959509
1554932295560042535,59667,1554932295560042535,world,-0.844505310059,-0.840099573135,0.946094036102,0.0538538768888,-0.024692742154,-0.957782804966,-0.281322151423
1554932295560083941,59668,1554932295560083941,world,-0.844436883926,-0.840094327927,0.946062803268,0.0573253557086,-0.0243073515594,-0.957638800144,-0.281159937382
1554932295570459952,59669,1554932295570459952,world,-0.844659566879,-0.839221000671,0.946130037308,0.0571282021701,-0.0244000274688,-0.959106326103,-0.276145100594
1554932295580874517,59670,1554932295580874517,world,-0.844571113586,-0.839706897736,0.946041822433,0.0547186359763,-0.0249888934195,-0.958441436291,-0.278875559568
1554932295590315528,59671,1554932295590315528,world,-0.844498157501,-0.839958429337,0.946011304855,0.0537461228669,-0.0251502916217,-0.958054244518,-0.280376702547
1554932295590345730,59672,1554932295590345730,world,-0.844452142715,-0.840079545975,0.946011304855,0.0534357689321,-0.0252422094345,-0.957842886448,-0.281148582697
1554932295600685283,59673,1554932295600685283,world,-0.844380378723,-0.840132951736,0.946027517319,0.0568885914981,-0.0245506875217,-0.957617580891,-0.281299829483
1554932295609948527,59674,1554932295609948527,world,-0.84446310997,-0.840090990067,0.946003437042,0.0545828305185,-0.0251005720347,-0.957775831223,-0.281169295311
1554932295620444236,59675,1554932295620444236,world,-0.844541549683,-0.840022802353,0.945951938629,0.0534316860139,-0.0255327373743,-0.957940161228,-0.280791729689
1554932295630849830,59676,1554932295630849830,world,-0.845117092133,-0.83987569809,0.945699930191,0.0491512790322,-0.0264771003276,-0.958769023418,-0.27864870429
1554932295630895429,59677,1554932295630895429,world,-0.845356941223,-0.839743614197,0.945599555969,0.0470051504672,-0.0268465913832,-0.959229707718,-0.27739533782
1554932295640316937,59678,1554932295640316937,world,-0.845464944839,-0.839618682861,0.945550441742,0.0460871905088,-0.0271458271891,-0.959508657455,-0.276554107666
1554932295660038743,59679,1554932295660038743,world,-0.845457077026,-0.839549303055,0.945541381836,0.0457636043429,-0.0272297430784,-0.959709584713,-0.275901854038
1554932295660093685,59680,1554932295660093685,world,-0.845431566238,-0.839481592178,0.945523262024,0.045920368284,-0.0273121669888,-0.959837019444,-0.275423705578
1554932295670490943,59681,1554932295670490943,world,-0.845486879349,-0.839316129684,0.945586442947,0.0457557812333,-0.026521332562,-0.960128068924,-0.274512678385
1554932295670562065,59682,1554932295670562065,world,-0.845322370529,-0.839349985123,0.945566892624,0.0463400036097,-0.0267810765654,-0.959986031055,-0.274886131287
1554932295681006530,59683,1554932295681006530,world,-0.845172405243,-0.839384794235,0.945453882217,0.0484344996512,-0.0268690939993,-0.959880292416,-0.274885416031
1554932295690410296,59684,1554932295690410296,world,-0.845147132874,-0.839376688004,0.945536851883,0.0478893108666,-0.0270101707429,-0.959854960442,-0.275055736303
1554932295700682971,59685,1554932295700682971,world,-0.845104217529,-0.839380741119,0.945582389832,0.0478009842336,-0.0271487291902,-0.959817707539,-0.275187134743
1554932295709995476,59686,1554932295709995476,world,-0.845049142838,-0.839406728745,0.945612430573,0.0478496663272,-0.0270794816315,-0.959776043892,-0.275330960751
1554932295720442534,59687,1554932295720442534,world,-0.845025777817,-0.839416503906,0.945628643036,0.0479823425412,-0.0270572137088,-0.959724485874,-0.275489479303
1554932295720492801,59688,1554932295720492801,world,-0.845013380051,-0.839413404465,0.945654630661,0.0481089390814,-0.0269760712981,-0.95967400074,-0.275651305914
1554932295740275511,59689,1554932295740275511,world,-0.845011711121,-0.839423418045,0.94566488266,0.0482745245099,-0.026872869581,-0.959652543068,-0.275707244873
1554932295740314411,59690,1554932295740314411,world,-0.845031023026,-0.839442253113,0.945656061172,0.0483354851604,-0.0268289428204,-0.959645211697,-0.275726288557
1554932295750685955,59691,1554932295750685955,world,-0.8450319767,-0.839443683624,0.945652961731,0.0485139265656,-0.0267818942666,-0.959597170353,-0.275866538286
1554932295759902017,59692,1554932295759902017,world,-0.845031023026,-0.839451313019,0.945666313171,0.0484886057675,-0.0266908109188,-0.959560215473,-0.276008337736
1554932295770300528,59693,1554932295770300528,world,-0.845028400421,-0.839469432831,0.945687532425,0.048477768898,-0.0266785379499,-0.959545731544,-0.276062011719
1554932295780692507,59694,1554932295780692507,world,-0.845053911209,-0.839461088181,0.945677518845,0.0486031137407,-0.0266757421196,-0.959541559219,-0.27605471015
1554932295780775174,59695,1554932295780775174,world,-0.845051527023,-0.839461565018,0.945675373077,0.0486690402031,-0.0266939979047,-0.959541678429,-0.276040732861
1554932295800436294,59696,1554932295800436294,world,-0.845031738281,-0.839463949203,0.945678949356,0.048572152853,-0.0266151633114,-0.959560751915,-0.275999188423
1554932295800493236,59697,1554932295800493236,world,-0.845023870468,-0.839461565018,0.945688247681,0.0486070998013,-0.0266227219254,-0.959542036057,-0.27605766058
1554932295810874230,59698,1554932295810874230,world,-0.845018625259,-0.839462280273,0.945684194565,0.0486695840955,-0.0266309194267,-0.959554553032,-0.276002198458
1554932295830727733,59699,1554932295830727733,world,-0.845014095306,-0.839452505112,0.94568157196,0.0487254038453,-0.0265318863094,-0.959531188011,-0.276083081961
1554932295830812798,59700,1554932295830812798,world,-0.844977855682,-0.839487075806,0.945687055588,0.0485625341535,-0.0264235306531,-0.959533452988,-0.276113986969
1554932295830844271,59701,1554932295830844271,world,-0.844979524612,-0.839478492737,0.945672035217,0.0486179888248,-0.0265603065491,-0.959536910057,-0.276079058647
1554932295850520177,59702,1554932295850520177,world,-0.844979524612,-0.839473009109,0.945677757263,0.0486148074269,-0.0265356544405,-0.959535360336,-0.276087760925
1554932295861016376,59703,1554932295861016376,world,-0.84499669075,-0.839472055435,0.945677042007,0.0486517064273,-0.0266909804195,-0.959551692009,-0.276009231806
1554932295870497674,59704,1554932295870497674,world,-0.844997644424,-0.839486837387,0.945672512054,0.0486496463418,-0.0265547651798,-0.959520339966,-0.276131808758
1554932295870572193,59706,1554932295870572193,world,-0.844750881195,-0.839733123779,0.945830345154,0.0499427989125,-0.0261472482234,-0.958874702454,-0.278175413609
1554932295890204410,59707,1554932295890204410,world,-0.844928264618,-0.839567184448,0.945734977722,0.0490100122988,-0.0264142360538,-0.959312260151,-0.276803731918
1554932295890257150,59708,1554932295890257150,world,-0.845036745071,-0.839482784271,0.945684671402,0.0485670864582,-0.0265607759356,-0.959523320198,-0.27613556385
1554932295910899790,59709,1554932295910899790,world,-0.845016002655,-0.839462757111,0.945544242859,0.0499370768666,-0.0264772940427,-0.959556043148,-0.275785326958
1554932295930505840,59710,1554932295930505840,world,-0.845054626465,-0.839450597763,0.945603609085,0.0490139201283,-0.0266510937363,-0.959618270397,-0.275717496872
1554932295930556640,59711,1554932295930556640,world,-0.845069646835,-0.839436292648,0.945641517639,0.0484369397163,-0.0266773067415,-0.959636390209,-0.275753736496
1554932295930607614,59712,1554932295930607614,world,-0.845057010651,-0.839438438416,0.9456615448,0.0483120940626,-0.0266401860863,-0.959609568119,-0.275872707367
1554932295940903436,59713,1554932295940903436,world,-0.845050811768,-0.83944272995,0.945661306381,0.0482276529074,-0.0266357026994,-0.959608256817,-0.275892436504
1554932295980706787,59714,1554932295980706787,world,-0.844969987869,-0.839474439621,0.945546865463,0.0499332286417,-0.0265142470598,-0.959533631802,-0.275860726833
1554932295980777894,59715,1554932295980777894,world,-0.844983577728,-0.839467525482,0.945634365082,0.0490004234016,-0.0264895744622,-0.959516525269,-0.276089340448
1554932295980835132,59717,1554932295980835132,world,-0.844980478287,-0.839480876923,0.945694446564,0.0483837984502,-0.0264549143612,-0.959540367126,-0.276118606329
1554932295990311599,59718,1554932295990311599,world,-0.84500837326,-0.839470863342,0.945689201355,0.0483578667045,-0.0264999289066,-0.959551751614,-0.276079297066
1554932295990353291,59719,1554932295990353291,world,-0.845014095306,-0.839480876923,0.945683479309,0.0483822152019,-0.0265904385597,-0.959553420544,-0.276060640812
1554932295990415642,59720,1554932295990415642,world,-0.845000267029,-0.839506387711,0.945704698563,0.0483566895127,-0.0263436604291,-0.959515571594,-0.276220202446
1554932296000703614,59721,1554932296000703614,world,-0.845005989075,-0.839490413666,0.945706605911,0.048392098397,-0.0263004954904,-0.959509253502,-0.276239722967
1554932296010036528,59722,1554932296010036528,world,-0.845011949539,-0.839490413666,0.945700407028,0.0484173856676,-0.0263490881771,-0.959514498711,-0.276212543249
1554932296020499678,59723,1554932296020499678,world,-0.845020532608,-0.839504957199,0.945693969727,0.0485278479755,-0.0264056380838,-0.959526896477,-0.276144653559
1554932296030863333,59724,1554932296030863333,world,-0.845027446747,-0.8394947052,0.945678949356,0.048640165478,-0.0265728402883,-0.959530591965,-0.276095926762
1554932296030908566,59725,1554932296030908566,world,-0.845001935959,-0.839495897293,0.945698261261,0.0485525354743,-0.0264922119677,-0.95950782299,-0.276198595762
1554932296040381062,59726,1554932296040381062,world,-0.845002412796,-0.839485645294,0.945698022842,0.0485547557473,-0.0264985077083,-0.959499001503,-0.276228278875
1554932296050799113,59727,1554932296050799113,world,-0.844990491867,-0.839495420456,0.945709705353,0.0484634302557,-0.0263766180724,-0.9594861269,-0.276300758123
1554932296060156936,59728,1554932296060156936,world,-0.8450050354,-0.839499950409,0.945680856705,0.0486896373332,-0.0265603084117,-0.95948433876,-0.276249527931
1554932296070493866,59729,1554932296070493866,world,-0.845005989075,-0.839495897293,0.945681333542,0.0485805235803,-0.02656830661,-0.959501504898,-0.276208460331
1554932296070557392,59730,1554932296070557392,world,-0.844985723495,-0.839493513107,0.945691585541,0.0484625250101,-0.0265176743269,-0.959504365921,-0.27622371912
1554932296090181145,59731,1554932296090181145,world,-0.844976902008,-0.83949804306,0.945696115494,0.0485610961914,-0.0264696255326,-0.959490537643,-0.276259124279
1554932296100571977,59732,1554932296100571977,world,-0.844975471497,-0.839502573013,0.945700883865,0.048546873033,-0.0263944454491,-0.959469676018,-0.276341110468
1554932296100615235,59733,1554932296100615235,world,-0.845008611679,-0.83948802948,0.945685863495,0.0485876835883,-0.0264873746783,-0.959495544434,-0.276235222816
1554932296110959824,59734,1554932296110959824,world,-0.844960451126,-0.839500188828,0.945568561554,0.0502586439252,-0.0265238899738,-0.959438562393,-0.276130616665
1554932296130741983,59735,1554932296130741983,world,-0.844985961914,-0.839494466782,0.945635318756,0.0493920370936,-0.0265991128981,-0.959474205971,-0.276156157255
1554932296150491570,59736,1554932296150491570,world,-0.844951629639,-0.839499473572,0.945556163788,0.0504001155496,-0.0264769606292,-0.959420681,-0.276171535254
1554932296150533289,59737,1554932296150533289,world,-0.844934940338,-0.839523553848,0.945511102676,0.0509119331837,-0.026442669332,-0.95942312479,-0.276072770357
1554932296180767499,59738,1554932296180767499,world,-0.84493303299,-0.839535236359,0.945501804352,0.0510240085423,-0.0263894423842,-0.95942479372,-0.276051312685
1554932296180808544,59739,1554932296180808544,world,-0.844983577728,-0.839509248734,0.945637226105,0.0492458641529,-0.0264714434743,-0.959486484528,-0.276152074337
1554932296180872389,59740,1554932296180872389,world,-0.844963312149,-0.839504957199,0.945572376251,0.0501105450094,-0.0265003424138,-0.959477305412,-0.276025205851
1554932296180921428,59742,1554932296180921428,world,-0.845007658005,-0.839476585388,0.945648908615,0.049055583775,-0.0266820285469,-0.959499835968,-0.276119172573
1554932296200606825,59743,1554932296200606825,world,-0.845014095306,-0.839469671249,0.945703268051,0.0482533052564,-0.0266393590719,-0.959506750107,-0.276240468025
1554932296220366134,59744,1554932296220366134,world,-0.844957351685,-0.839485645294,0.945599794388,0.0496003441513,-0.0265343766659,-0.959458589554,-0.27617931366
1554932296220441854,59745,1554932296220441854,world,-0.845002412796,-0.839468240738,0.945675849915,0.048562835902,-0.0266440864652,-0.959506750107,-0.276186048985
1554932296220461548,59746,1554932296220461548,world,-0.844963312149,-0.839467525482,0.94558429718,0.0497539266944,-0.0266489423811,-0.95948946476,-0.276033431292
1554932296230902234,59747,1554932296230902234,world,-0.844954252243,-0.839453935623,0.945535182953,0.05037849769,-0.0265729557723,-0.959507346153,-0.27586504817
1554932296230984156,59748,1554932296230984156,world,-0.844933509827,-0.839440584183,0.945514440536,0.0504737459123,-0.0265566539019,-0.959519982338,-0.275805324316
1554932296231007442,59749,1554932296231007442,world,-0.844921112061,-0.839423656464,0.94550204277,0.0505574382842,-0.0265270415694,-0.959553420544,-0.275676429272
1554932296240892329,59750,1554932296240892329,world,-0.844919681549,-0.839410066605,0.945511102676,0.0505538359284,-0.026465902105,-0.959579706192,-0.275591492653
1554932296250250800,59751,1554932296250250800,world,-0.845004796982,-0.839459896088,0.945613384247,0.0484800823033,-0.0258842725307,-0.959596157074,-0.275961816311
1554932296260704784,59752,1554932296260704784,world,-0.844997644424,-0.839496135712,0.945536851883,0.0490689389408,-0.025608619675,-0.95957493782,-0.275957465172
1554932296270001441,59753,1554932296270001441,world,-0.845028877258,-0.839520692825,0.945646762848,0.0477944910526,-0.025505580008,-0.959579586983,-0.276174366474
1554932296270071481,59754,1554932296270071481,world,-0.84498167038,-0.839541912079,0.9455742836,0.0488882288337,-0.0254578087479,-0.959529399872,-0.276161551476
1554932296300018571,59755,1554932296300018571,world,-0.844972848892,-0.839527845383,0.945517778397,0.0494833961129,-0.0255699045956,-0.959521532059,-0.276072412729
1554932296310357846,59756,1554932296310357846,world,-0.845016002655,-0.839514493942,0.945625782013,0.0482553802431,-0.0257398225367,-0.959547281265,-0.276184469461
1554932296310425561,59757,1554932296310425561,world,-0.845030546188,-0.839524269104,0.945684194565,0.0475664176047,-0.025727905333,-0.959565460682,-0.276242345572
1554932296310463391,59759,1554932296310463391,world,-0.845008134842,-0.839518547058,0.945719242096,0.0473136641085,-0.0258061494678,-0.959557116032,-0.276307195425
1554932296320909943,59760,1554932296320909943,world,-0.844974756241,-0.83952665329,0.945578813553,0.0490753725171,-0.0258478187025,-0.959516406059,-0.276137381792
1554932296330413993,59761,1554932296330413993,world,-0.845004796982,-0.839515686035,0.945645809174,0.0483051799238,-0.0259285848588,-0.959543585777,-0.276170998812
1554932296350020060,59762,1554932296350020060,world,-0.845024108887,-0.839497804642,0.94566488266,0.0479618869722,-0.0259715653956,-0.959565877914,-0.276149243116
1554932296350095486,59763,1554932296350095486,world,-0.845116376877,-0.839409589767,0.945759773254,0.0470919013023,-0.0252329092473,-0.959752619267,-0.275718301535
1554932296380140112,59764,1554932296380140112,world,-0.845063686371,-0.839470624924,0.94571852684,0.0474358312786,-0.0256422497332,-0.959636449814,-0.276025921106
1554932296380210044,59765,1554932296380210044,world,-0.844995260239,-0.839502573013,0.945562839508,0.0493914298713,-0.0258236434311,-0.959538221359,-0.276007473469
1554932296380258453,59767,1554932296380258453,world,-0.845007896423,-0.839508056641,0.945643663406,0.0483252815902,-0.026171406731,-0.959555268288,-0.27610424161
1554932296390604410,59768,1554932296390604410,world,-0.845008134842,-0.839510679245,0.945650100708,0.0481352768838,-0.0262007694691,-0.959532856941,-0.276212304831
1554932296400936464,59769,1554932296400936464,world,-0.844997406006,-0.839505434036,0.945672273636,0.0479516275227,-0.026101231575,-0.959531486034,-0.276258587837
1554932296410380791,59770,1554932296410380791,world,-0.844962120056,-0.839512348175,0.945538282394,0.0495449006557,-0.0260505825281,-0.959514021873,-0.276042640209
1554932296420834009,59771,1554932296420834009,world,-0.844957113266,-0.839518070221,0.945472240448,0.0503291301429,-0.0260218139738,-0.959493219852,-0.275975912809
1554932296430161310,59772,1554932296430161310,world,-0.8449883461,-0.839516401291,0.945579767227,0.0488902553916,-0.0260270629078,-0.959529876709,-0.27610629797
1554932296440582868,59773,1554932296440582868,world,-0.844997167587,-0.83952665329,0.945634126663,0.0482581146061,-0.0260870251805,-0.959546089172,-0.276155591011
1554932296440638062,59774,1554932296440638062,world,-0.845698595047,-0.839198112488,0.945774078369,0.0465503893793,-0.0247244928032,-0.960837066174,-0.272054851055
1554932296449913831,59775,1554932296449913831,world,-0.845324516296,-0.839363574982,0.945727586746,0.0471934005618,-0.0254586562514,-0.960122764111,-0.27438852191
1554932296460235794,59776,1554932296460235794,world,-0.845107793808,-0.839462518692,0.945694446564,0.0476596131921,-0.0259328298271,-0.959742426872,-0.275591462851
1554932296470725125,59777,1554932296470725125,world,-0.844988107681,-0.839525699615,0.945689201355,0.047861058265,-0.0260305460542,-0.959543764591,-0.276238113642
1554932296470778822,59778,1554932296470778822,world,-0.844935655594,-0.839540958405,0.945684194565,0.0479643121362,-0.0260737910867,-0.959439337254,-0.276578754187
1554932296490392501,59779,1554932296490392501,world,-0.844928026199,-0.839548110962,0.945669651031,0.0480715334415,-0.0260536782444,-0.959421098232,-0.276625394821
1554932296490432491,59780,1554932296490432491,world,-0.844944953918,-0.839541196823,0.945657253265,0.0481965132058,-0.0260636191815,-0.959440171719,-0.276536256075
1554932296500876728,59781,1554932296500876728,world,-0.844903469086,-0.839538812637,0.945541143417,0.0497300922871,-0.0258191283792,-0.959402024746,-0.276419907808
1554932296510293682,59782,1554932296510293682,world,-0.844916820526,-0.839549779892,0.945613145828,0.0487967431545,-0.0258920323104,-0.959426701069,-0.276493877172
1554932296510345487,59783,1554932296510345487,world,-0.844942569733,-0.839537382126,0.945637226105,0.0484714731574,-0.0260435584933,-0.959462106228,-0.276414215565
1554932296520626488,59784,1554932296520626488,world,-0.844969987869,-0.83952665329,0.945649147034,0.0482097007334,-0.0260508134961,-0.959491193295,-0.276358127594
1554932296530967425,59785,1554932296530967425,world,-0.8449883461,-0.839513778687,0.945665597916,0.0480066090822,-0.0260292645544,-0.959511816502,-0.276323884726
1554932296540278114,59786,1554932296540278114,world,-0.844989776611,-0.839510202408,0.945677518845,0.047886159271,-0.0260207336396,-0.959537625313,-0.276255935431
1554932296550675914,59787,1554932296550675914,world,-0.844942569733,-0.839525222778,0.945541381836,0.0495636984706,-0.025936294347,-0.959493041039,-0.276123195887
1554932296560050907,59788,1554932296560050907,world,-0.844969749451,-0.839513063431,0.945617198944,0.0486220940948,-0.0259020216763,-0.959509968758,-0.276234775782
1554932296590038698,59789,1554932296590038698,world,-0.845086574554,-0.839416265488,0.945717334747,0.047703050077,-0.0252733789384,-0.959755182266,-0.275600731373
1554932296590134832,59792,1554932296590134832,world,-0.844972372055,-0.839504957199,0.945682764053,0.0480153225362,-0.0258768927306,-0.959500670433,-0.276375800371
1554932296610700670,59793,1554932296610700670,world,-0.844947099686,-0.839498996735,0.945679187775,0.0481136702001,-0.0259230788797,-0.959466814995,-0.276471585035
1554932296610722812,59794,1554932296610722812,world,-0.844963788986,-0.839464426041,0.945642232895,0.0483804680407,-0.0261726472527,-0.959480047226,-0.27635550499
1554932296630306178,59795,1554932296630306178,world,-0.844966888428,-0.839511156082,0.945501804352,0.0498655810952,-0.0261969063431,-0.959523200989,-0.275938928127
1554932296630349761,59796,1554932296630349761,world,-0.844951152802,-0.839527606964,0.945456504822,0.0504809059203,-0.0261365100741,-0.959502279758,-0.275905817747
1554932296630413326,59797,1554932296630413326,world,-0.844907045364,-0.839551687241,0.945477724075,0.0505170822144,-0.0258457940072,-0.959453999996,-0.276094228029
1554932296640781744,59798,1554932296640781744,world,-0.844919681549,-0.839550971985,0.945481777191,0.0505732484162,-0.0257838591933,-0.959448635578,-0.276108711958
1554932296650163471,59799,1554932296650163471,world,-0.844943284988,-0.839530944824,0.945481061935,0.0504995211959,-0.025874171406,-0.959490001202,-0.275969684124
1554932296660535705,59800,1554932296660535705,world,-0.844951629639,-0.839522361755,0.945468425751,0.0503844358027,-0.0259778425097,-0.959518253803,-0.275882810354
1554932296680271809,59801,1554932296680271809,world,-0.844953298569,-0.839514970779,0.945474147797,0.0503160469234,-0.0260582249612,-0.959526598454,-0.275858789682
1554932296699943338,59802,1554932296699943338,world,-0.84494137764,-0.839522600174,0.945513486862,0.050035238266,-0.0258131027222,-0.959507346153,-0.275999486446
1554932296699969581,59803,1554932296699969581,world,-0.844930410385,-0.839529514313,0.945546627045,0.0498639941216,-0.0257770344615,-0.959487318993,-0.276103854179
1554932296700019227,59804,1554932296700019227,world,-0.844929218292,-0.839534044266,0.94554901123,0.0498413220048,-0.0258476976305,-0.959483146667,-0.276115715504
1554932296710398340,59805,1554932296710398340,world,-0.84502696991,-0.839437961578,0.945621728897,0.049045663327,-0.0250632371753,-0.959679424763,-0.275648027658
1554932296710455123,59806,1554932296710455123,world,-0.844986915588,-0.83949136734,0.94556593895,0.0494698993862,-0.02564448677,-0.959573864937,-0.275886207819
1554932296720900085,59807,1554932296720900085,world,-0.844964742661,-0.839512348175,0.945544719696,0.0496277287602,-0.025881614536,-0.959524512291,-0.276007384062
1554932296720941451,59808,1554932296720941451,world,-0.844959259033,-0.839513778687,0.945551633835,0.0496692955494,-0.0259708166122,-0.959501981735,-0.276069760323
1554932296730446107,59809,1554932296730446107,world,-0.844957828522,-0.839525461197,0.945553541183,0.0496847480536,-0.0259843617678,-0.959484696388,-0.276125490665
1554932296750021770,59810,1554932296750021770,world,-0.844958782196,-0.83952498436,0.945534944534,0.0497271791101,-0.0260244999081,-0.959477186203,-0.276140511036
1554932296750061627,59811,1554932296750061627,world,-0.844943284988,-0.839527606964,0.945537567139,0.0496720708907,-0.0260292831808,-0.959479570389,-0.276141524315
1554932296790779435,59812,1554932296790779435,world,-0.844926834106,-0.839544296265,0.94554567337,0.0496843121946,-0.0259884353727,-0.959480404854,-0.276140421629
1554932296790823091,59813,1554932296790823091,world,-0.844931602478,-0.839531421661,0.945551156998,0.049675334245,-0.0258934888989,-0.959460258484,-0.276220738888
1554932296790891848,59814,1554932296790891848,world,-0.844929933548,-0.839520454407,0.945560216904,0.0496971309185,-0.0258681252599,-0.959460377693,-0.276218593121
1554932296790915157,59816,1554932296790915157,world,-0.844942331314,-0.839536190033,0.94554567337,0.0496417135,-0.0259572640061,-0.959512233734,-0.276040494442
1554932296800365440,59817,1554932296800365440,world,-0.844946146011,-0.839531183243,0.945554256439,0.0496474727988,-0.0259479321539,-0.959511160851,-0.276044100523
1554932296920866289,59818,1554932296920866289,world,-0.844934225082,-0.839538097382,0.945571422577,0.0495774298906,-0.0258346349001,-0.959507465363,-0.276079893112
1554932296920914384,59819,1554932296920914384,world,-0.845037460327,-0.839431762695,0.945653676987,0.0488116405904,-0.0250131916255,-0.959706902504,-0.275598376989
1554932296920972687,59820,1554932296920972687,world,-0.844979047775,-0.839484453201,0.945604324341,0.0492248982191,-0.0254975259304,-0.959583044052,-0.275911688805
1554932296921057054,59824,1554932296921057054,world,-0.84493970871,-0.839540958405,0.945540189743,0.0497633330524,-0.0259348656982,-0.959484577179,-0.276116728783
1554932296921113703,59825,1554932296921113703,world,-0.844934463501,-0.839539527893,0.945544242859,0.0497259832919,-0.0258405078202,-0.959456205368,-0.27623051405
1554932296921162471,59827,1554932296921162471,world,-0.844987869263,-0.839505195618,0.945590257645,0.0492834970355,-0.0255059991032,-0.959579229355,-0.27591329813
1554932296921202195,59828,1554932296921202195,world,-0.844968557358,-0.839511871338,0.945563077927,0.0495562106371,-0.0257743299007,-0.959518909454,-0.276049733162
1554932296921225082,59829,1554932296921225082,world,-0.844950914383,-0.839528560638,0.945542573929,0.0498003996909,-0.0260302741081,-0.959494113922,-0.276067912579
1554932296921274104,59830,1554932296921274104,world,-0.844995260239,-0.839461088181,0.945647716522,0.0488930717111,-0.0250087119639,-0.95962536335,-0.275868445635
1554932296921298110,59831,1554932296921298110,world,-0.844963550568,-0.839504718781,0.945590257645,0.0493299290538,-0.0256163515151,-0.959524273872,-0.276086360216
1554932297190203511,59832,1554932297190203511,world,-0.844944953918,-0.839532375336,0.945562124252,0.0495911389589,-0.0258965417743,-0.959493875504,-0.27611887455
1554932297190290933,59833,1554932297190290933,world,-0.844950199127,-0.839537382126,0.945544958115,0.0497120805085,-0.026016863063,-0.959487199783,-0.276109218597
1554932297190377621,59836,1554932297190377621,world,-0.844910860062,-0.839550733566,0.945563554764,0.0497588664293,-0.0258535146713,-0.959439754486,-0.276280879974
1554932297190436188,59837,1554932297190436188,world,-0.844933271408,-0.839532852173,0.945549249649,0.049762506038,-0.0258514676243,-0.95945763588,-0.276218175888
1554932297190525339,59840,1554932297190525339,world,-0.844936847687,-0.839533805847,0.945551395416,0.0497324988246,-0.0259821359068,-0.959494829178,-0.276082038879
1554932297190580508,59841,1554932297190580508,world,-0.844928503036,-0.839524030685,0.945560932159,0.0497044101357,-0.0258978493512,-0.959492921829,-0.27610167861
1554932297190667636,59844,1554932297190667636,world,-0.844978094101,-0.839486837387,0.945548295975,0.0496333427727,-0.0258178729564,-0.959526062012,-0.276006758213
1554932297190720960,59845,1554932297190720960,world,-0.844942331314,-0.839516878128,0.9455473423,0.0497545786202,-0.0258845780045,-0.95947599411,-0.276152968407
1554932297190781058,59847,1554932297190781058,world,-0.844909667969,-0.839547634125,0.94556927681,0.0496015325189,-0.0257871542126,-0.959444999695,-0.276297271252
1554932297190841147,59848,1554932297190841147,world,-0.844919919968,-0.839545726776,0.945566892624,0.0495757311583,-0.025810547173,-0.959482550621,-0.276168763638
1554932297190898063,59850,1554932297190898063,world,-0.844926357269,-0.839531421661,0.945572376251,0.0495234914124,-0.0258072260767,-0.959461927414,-0.276250600815
1554932297190944650,59851,1554932297190944650,world,-0.844933748245,-0.839528799057,0.94556427002,0.0495837777853,-0.025856167078,-0.959489583969,-0.276138901711
1554932297191003318,59853,1554932297191003318,world,-0.844923973083,-0.839539289474,0.945571422577,0.0495265945792,-0.0256483741105,-0.95945417881,-0.276291519403
1554932297191062059,59854,1554932297191062059,world,-0.844940423965,-0.839550495148,0.945548295975,0.0495718047023,-0.0257259346545,-0.959473729134,-0.276208072901
1554932297191118232,59856,1554932297191118232,world,-0.844952821732,-0.839516162872,0.9455473423,0.0495577454567,-0.025822930038,-0.959498167038,-0.276117026806
1554932297191163445,59857,1554932297191163445,world,-0.844935655594,-0.839527368546,0.945569515228,0.0495837256312,-0.025737952441,-0.959480881691,-0.276180416346
1554932297191243547,59860,1554932297191243547,world,-0.844934463501,-0.839539766312,0.945563316345,0.0495853982866,-0.0258840527385,-0.959487080574,-0.276144891977
1554932297191303362,59861,1554932297191303362,world,-0.844932794571,-0.839547157288,0.945566892624,0.0496110394597,-0.0258270390332,-0.959474444389,-0.276189297438
1554932297191355074,59863,1554932297191355074,world,-0.844988822937,-0.839492321014,0.945592403412,0.0493016503751,-0.0254939552397,-0.959584593773,-0.27589276433
1554932297200620916,59864,1554932297200620916,world,-0.844950437546,-0.839525699615,0.945573329926,0.0494645610452,-0.0257010851055,-0.959503412247,-0.276126384735
1554932297210939144,59865,1554932297210939144,world,-0.844935894012,-0.83953332901,0.945559263229,0.0495256334543,-0.0257408171892,-0.959467768669,-0.276235818863
1554932297210971194,59866,1554932297210971194,world,-0.844922304153,-0.83954334259,0.945561647415,0.049594912678,-0.0257639009506,-0.959429979324,-0.276352703571
1554932297220431197,59867,1554932297220431197,world,-0.844929456711,-0.839549303055,0.945555210114,0.0496022291481,-0.0257968846709,-0.959435462952,-0.276329159737
1554932297220518759,59868,1554932297220518759,world,-0.844922542572,-0.839552879333,0.945553302765,0.049632627517,-0.02583678253,-0.959460735321,-0.276232302189
1554932297230922799,59869,1554932297230922799,world,-0.844920158386,-0.839541912079,0.945563554764,0.0495580472052,-0.0258791018277,-0.959478616714,-0.276179552078
1554932297240334872,59870,1554932297240334872,world,-0.844923496246,-0.839524507523,0.945563554764,0.0495848245919,-0.0259135533124,-0.959483861923,-0.276153326035
1554932297250791444,59871,1554932297250791444,world,-0.844930171967,-0.839532852173,0.94556760788,0.0495881289244,-0.0258310958743,-0.959470272064,-0.276207625866
1554932297260226020,59872,1554932297260226020,world,-0.844938993454,-0.83953499794,0.945556402206,0.0495644062757,-0.0258716791868,-0.959509849548,-0.276070654392
1554932297260262078,59873,1554932297260262078,world,-0.844950199127,-0.839517831802,0.945553541183,0.0495335794985,-0.025885084644,-0.959491491318,-0.276138663292
1554932297270639384,59874,1554932297270639384,world,-0.844921827316,-0.839543819427,0.945558309555,0.0494825132191,-0.0257523972541,-0.959483146667,-0.276189029217
1554932297300618926,59875,1554932297300618926,world,-0.844929695129,-0.839543819427,0.945561647415,0.0495518147945,-0.0257940292358,-0.959491491318,-0.276143968105
1554932297300688356,59877,1554932297300688356,world,-0.844950199127,-0.839540481567,0.9455473423,0.0496158823371,-0.025841306895,-0.959500193596,-0.276097685099
1554932297309977610,59878,1554932297309977610,world,-0.844943761826,-0.839546918869,0.945551872253,0.0497033074498,-0.0259498171508,-0.959505558014,-0.27605304122
1554932297310031014,59879,1554932297310031014,world,-0.844928026199,-0.839544057846,0.945562601089,0.0496500842273,-0.0258267950267,-0.959475874901,-0.27617713809
1554932297330680553,59880,1554932297330680553,world,-0.844924688339,-0.839544773102,0.945568084717,0.0495864823461,-0.0257610250264,-0.959476232529,-0.276193499565
1554932297330719909,59881,1554932297330719909,world,-0.844933509827,-0.839534521103,0.945567369461,0.0495442263782,-0.025830341503,-0.959494233131,-0.276132136583
1554932297340054605,59882,1554932297340054605,world,-0.844941139221,-0.839526176453,0.945557355881,0.0495135262609,-0.025808500126,-0.959501028061,-0.276116013527
1554932297350370944,59883,1554932297350370944,world,-0.844931125641,-0.83954501152,0.945565462112,0.0494117066264,-0.025702977553,-0.959484815598,-0.276200532913
1554932297360832612,59884,1554932297360832612,world,-0.844932794571,-0.839542388916,0.945571660995,0.049407389015,-0.0257417690009,-0.959490180016,-0.276179164648
1554932297630372673,59885,1554932297630372673,world,-0.844941854477,-0.839537382126,0.945562601089,0.0494902804494,-0.0257923342288,-0.959488630295,-0.276164740324
1554932297630491194,59889,1554932297630491194,world,-0.844931125641,-0.839545488358,0.945562601089,0.0496043898165,-0.0257440451533,-0.959471464157,-0.27620857954
1554932297630560693,59890,1554932297630560693,world,-0.844941139221,-0.839543581009,0.945554733276,0.0496806465089,-0.0258233826607,-0.959466338158,-0.276205211878
1554932297630684431,59896,1554932297630684431,world,-0.844945907593,-0.839525222778,0.945553064346,0.0495877936482,-0.0257673673332,-0.959479928017,-0.276180058718
1554932297630742510,59897,1554932297630742510,world,-0.844934940338,-0.83953499794,0.945554018021,0.0495591200888,-0.0256641674787,-0.959473252296,-0.27621820569
1554932297630826854,59901,1554932297630826854,world,-0.844934225082,-0.839542150497,0.945569038391,0.0495641976595,-0.0258128270507,-0.959490180016,-0.276144504547
1554932297630871107,59902,1554932297630871107,world,-0.844939231873,-0.83954834938,0.945569038391,0.0495968833566,-0.0258331857622,-0.959504365921,-0.276087194681
1554932297630936827,59905,1554932297630936827,world,-0.844956159592,-0.839515447617,0.945541620255,0.0496867224574,-0.0258923266083,-0.959517717361,-0.276019096375
1554932297630985465,59906,1554932297630985465,world,-0.844952106476,-0.839515447617,0.945546150208,0.0496510826051,-0.0258233379573,-0.9595028162,-0.276083678007
1554932297631028518,59908,1554932297631028518,world,-0.844940423965,-0.839540958405,0.945561885834,0.049605499953,-0.0257903318852,-0.959488034248,-0.276146441698
1554932297640353063,59909,1554932297640353063,world,-0.844967842102,-0.839482307434,0.945597648621,0.0492387339473,-0.0254823602736,-0.959564805031,-0.275973886251
1554932297650776455,59910,1554932297650776455,world,-0.844953775406,-0.839515686035,0.945571184158,0.0495195761323,-0.0256831981242,-0.959517359734,-0.276069909334
1554932297660112363,59911,1554932297660112363,world,-0.844941139221,-0.839526891708,0.945555925369,0.0497130714357,-0.0258649941534,-0.959483742714,-0.27613529563
1554932297670589231,59912,1554932297670589231,world,-0.84493970871,-0.839525222778,0.945550918579,0.0496977493167,-0.0259029455483,-0.959481954575,-0.276140242815
1554932297690301323,59913,1554932297690301323,world,-0.844928979874,-0.839535713196,0.945554733276,0.0496403090656,-0.0259313937277,-0.959463238716,-0.2762131989
1554932297700677999,59914,1554932297700677999,world,-0.844925403595,-0.839528083801,0.945555925369,0.0496355481446,-0.0259389579296,-0.959468305111,-0.276195764542
1554932297700748616,59916,1554932297700748616,world,-0.844939231873,-0.839535713196,0.945563793182,0.0496514961123,-0.0259064473212,-0.9594861269,-0.276133865118
1554932297710021617,59917,1554932297710021617,world,-0.844932556152,-0.839551210403,0.945564508438,0.0497043915093,-0.0259023625404,-0.959479093552,-0.276149451733
1554932297720472076,59918,1554932297720472076,world,-0.844926118851,-0.839549303055,0.945566415787,0.0496301911771,-0.025858907029,-0.95947945118,-0.276165395975
1554932297730821172,59919,1554932297730821172,world,-0.844925880432,-0.839557170868,0.945564985275,0.0496461763978,-0.0258760713041,-0.959496855736,-0.276100665331
1554932297730884866,59920,1554932297730884866,world,-0.844938993454,-0.839545965195,0.945563077927,0.049612980336,-0.0258464869112,-0.959493041039,-0.27612259984
1554932297740346718,59921,1554932297740346718,world,-0.844938278198,-0.839534759521,0.945568084717,0.0495749153197,-0.0258753392845,-0.959481954575,-0.276165366173
1554932297760065162,59922,1554932297760065162,world,-0.844925880432,-0.839550018311,0.945574998856,0.0496053807437,-0.0258224215358,-0.9594861269,-0.276149958372
1554932297760129987,59923,1554932297760129987,world,-0.844923734665,-0.839560270309,0.94557261467,0.0495821870863,-0.025732005015,-0.959479093552,-0.276187300682
1554932297770592392,59924,1554932297770592392,world,-0.844927787781,-0.83954334259,0.945569515228,0.0495326370001,-0.0257338955998,-0.959480047226,-0.276192724705
1554932297770634730,59925,1554932297770634730,world,-0.844952583313,-0.839540243149,0.945552587509,0.0496333241463,-0.0259038060904,-0.959517478943,-0.276028513908
1554932297779937379,59926,1554932297779937379,world,-0.844946622849,-0.839537858963,0.945557594299,0.0496187396348,-0.0258751083165,-0.959496498108,-0.276106715202
1554932297790350963,59927,1554932297790350963,world,-0.844937562943,-0.839547157288,0.945569992065,0.0495392270386,-0.0258490238339,-0.959476947784,-0.276191294193
1554932297810024247,59928,1554932297810024247,world,-0.844921588898,-0.83952999115,0.9455742836,0.0495015904307,-0.0258259437978,-0.95949113369,-0.276151329279
1554932297810080771,59929,1554932297810080771,world,-0.844928979874,-0.83952665329,0.945569515228,0.0495383962989,-0.0258722696453,-0.959504127502,-0.276094853878
1554932297830828415,59930,1554932297830828415,world,-0.844953298569,-0.839524269104,0.945565223694,0.0495896562934,-0.0258597992361,-0.959516406059,-0.276044398546
1554932297830899732,59932,1554932297830899732,world,-0.844925642014,-0.839550256729,0.945571899414,0.0495819412172,-0.0258002411574,-0.959478974342,-0.276181131601
1554932297840341993,59933,1554932297840341993,world,-0.844924211502,-0.839538812637,0.94558095932,0.0495817735791,-0.0258106905967,-0.95945763588,-0.276254355907
1554932297850698358,59934,1554932297850698358,world,-0.844928741455,-0.839538812637,0.94557261467,0.0495181530714,-0.0258498564363,-0.959484696388,-0.276167869568
1554932297870388780,59935,1554932297870388780,world,-0.844933986664,-0.839554071426,0.945567131042,0.049500670284,-0.0258217733353,-0.959501624107,-0.276115089655
1554932297870442739,59937,1554932297870442739,world,-0.844932794571,-0.839544296265,0.945559978485,0.0495291687548,-0.0258113760501,-0.959487199783,-0.276161313057
1554932297891000326,59938,1554932297891000326,world,-0.844929456711,-0.839558362961,0.94556760788,0.0495495758951,-0.0258106421679,-0.959493517876,-0.276135653257
1554932297891052281,59939,1554932297891052281,world,-0.844939470291,-0.839537143707,0.945569992065,0.0495581030846,-0.0258635208011,-0.959499001503,-0.276109814644
1554932297910806427,59940,1554932297910806427,world,-0.844933986664,-0.83954668045,0.94557094574,0.0495710261166,-0.0258143637329,-0.959483861923,-0.276164889336
1554932297920270111,59941,1554932297920270111,world,-0.844932317734,-0.839550733566,0.945568084717,0.0495725385845,-0.0257647465914,-0.959477543831,-0.276191323996
1554932297920337972,59943,1554932297920337972,world,-0.84494304657,-0.839531898499,0.945566177368,0.049706324935,-0.025837212801,-0.95948112011,-0.276148021221
1554932297930702781,59944,1554932297930702781,world,-0.844931602478,-0.839539766312,0.945580482483,0.0496494397521,-0.0257667712867,-0.959468364716,-0.276208847761
1554932297939903921,59945,1554932297939903921,world,-0.844929933548,-0.83953499794,0.945570707321,0.0497153624892,-0.0258569158614,-0.959460139275,-0.276217490435
1554932297950257417,59946,1554932297950257417,world,-0.844923496246,-0.839540719986,0.94556760788,0.0496852360666,-0.0258423741907,-0.959463715553,-0.276211768389
1554932297960575782,59947,1554932297960575782,world,-0.844919204712,-0.839550256729,0.945581197739,0.0495553985238,-0.0257408060133,-0.959493637085,-0.276140660048
1554932297970957604,59948,1554932297970957604,world,-0.844946146011,-0.839527845383,0.945566654205,0.0496226213872,-0.0257922317833,-0.959495425224,-0.276117414236
1554932297971027263,59949,1554932297971027263,world,-0.845019578934,-0.839444875717,0.94565987587,0.0487025938928,-0.0248670037836,-0.959673047066,-0.275748699903
1554932297980739907,59950,1554932297980739907,world,-0.844962596893,-0.839512825012,0.945615530014,0.0491181090474,-0.0253701843321,-0.959571957588,-0.2759809196
1554932297990214453,59951,1554932297990214453,world,-0.844945430756,-0.839541435242,0.94558763504,0.0494251288474,-0.0256063509732,-0.95950627327,-0.276132464409
1554932298030613417,59952,1554932298030613417,world,-0.844915151596,-0.839560031891,0.94558095932,0.0495302788913,-0.0257466044277,-0.959466099739,-0.276240557432
1554932298030669374,59953,1554932298030669374,world,-0.844925880432,-0.83954334259,0.945562601089,0.0496278107166,-0.0258856639266,-0.959448933601,-0.276269316673
1554932298030759376,59955,1554932298030759376,world,-0.844922065735,-0.839562177658,0.945557355881,0.0496665909886,-0.0258106179535,-0.959442734718,-0.276291042566
1554932298040244432,59956,1554932298040244432,world,-0.844930410385,-0.839541912079,0.94554901123,0.0497107766569,-0.0258707907051,-0.959454655647,-0.27623590827
1554932298040316081,59957,1554932298040316081,world,-0.844929218292,-0.839551448822,0.945564508438,0.049608848989,-0.0257719624788,-0.959476470947,-0.276187777519
1554932298050833763,59958,1554932298050833763,world,-0.844927310944,-0.839540719986,0.945565223694,0.0495729632676,-0.0258383750916,-0.959491193295,-0.276136815548
1554932298060246696,59959,1554932298060246696,world,-0.844927549362,-0.839532613754,0.945570230484,0.0495854988694,-0.0258522219956,-0.959457039833,-0.27625182271
1554932298060325889,59960,1554932298060325889,world,-0.844940423965,-0.839537620544,0.945551395416,0.0496974512935,-0.0259245596826,-0.959490418434,-0.276109009981
1554932298070745878,59961,1554932298070745878,world,-0.84493303299,-0.839541196823,0.945551872253,0.0496450662613,-0.0259128808975,-0.959485769272,-0.276135921478
1554932298090567172,59962,1554932298090567172,world,-0.844929456711,-0.839531421661,0.945569038391,0.0495737530291,-0.0258339140564,-0.959471940994,-0.276204049587
1554932298090648811,59963,1554932298090648811,world,-0.844927310944,-0.839544296265,0.945564746857,0.0496217012405,-0.0258111506701,-0.959475755692,-0.276184439659
1554932298100960001,59964,1554932298100960001,world,-0.844937562943,-0.839536428452,0.945556879044,0.0495989359915,-0.0258486438543,-0.959508657455,-0.276070535183
1554932298110398834,59965,1554932298110398834,world,-0.84493637085,-0.839533805847,0.945552825928,0.0496759787202,-0.0259178299457,-0.959506988525,-0.276055932045
1554932298120860071,59966,1554932298120860071,world,-0.844932079315,-0.839517593384,0.945558786392,0.0495637767017,-0.0258873682469,-0.95949447155,-0.276122540236
1554932298120940944,59967,1554932298120940944,world,-0.844922304153,-0.839539051056,0.945577383041,0.0495109893382,-0.0257707927376,-0.959486961365,-0.276169240475
1554932298140737516,59968,1554932298140737516,world,-0.844941854477,-0.839531898499,0.945563077927,0.0495932027698,-0.0257395748049,-0.959483385086,-0.276169776917
1554932298160648923,59969,1554932298160648923,world,-0.844945430756,-0.839534759521,0.945556879044,0.0495847538114,-0.0257361344993,-0.959481596947,-0.276177793741
1554932298160713772,59970,1554932298160713772,world,-0.844938278198,-0.839545726776,0.945559501648,0.0495425388217,-0.0257170312107,-0.959488987923,-0.276161283255
1554932298160741904,59971,1554932298160741904,world,-0.844927072525,-0.839545488358,0.945567369461,0.0494953989983,-0.0256800577044,-0.959491729736,-0.276163876057
1554932298160792855,59972,1554932298160792855,world,-0.844936609268,-0.839538097382,0.945561408997,0.0495691262186,-0.0257606115192,-0.959471344948,-0.276213794947
1554932298190865788,59973,1554932298190865788,world,-0.844932317734,-0.839551448822,0.945574760437,0.0495824031532,-0.025738267228,-0.959481835365,-0.276176959276
1554932298190908394,59974,1554932298190908394,world,-0.844924449921,-0.839547634125,0.945575475693,0.0495666638017,-0.0257740709931,-0.959481954575,-0.276175916195
1554932298219907962,59975,1554932298219907962,world,-0.844933271408,-0.839522123337,0.945566892624,0.0495778881013,-0.0258606355637,-0.959477543831,-0.276181548834
1554932298219993624,59979,1554932298219993624,world,-0.844932556152,-0.839526414871,0.945568561554,0.0495791435242,-0.0258334055543,-0.959476590157,-0.276186943054
1554932298250005523,59980,1554932298250005523,world,-0.84491610527,-0.839539289474,0.945569038391,0.0495211146772,-0.0257800873369,-0.959466338158,-0.276237994432
1554932298260436950,59981,1554932298260436950,world,-0.844924449921,-0.839530467987,0.945569038391,0.0495152547956,-0.0257204119116,-0.959459543228,-0.27626824379
1554932298260519088,59983,1554932298260519088,world,-0.845046758652,-0.839423656464,0.945642232895,0.0488985963166,-0.0249777529389,-0.959679365158,-0.275681853294
1554932298270880824,59984,1554932298270880824,world,-0.844989299774,-0.839493989944,0.945602416992,0.0492317117751,-0.025464663282,-0.959571242332,-0.275954693556
1554932298280251478,59985,1554932298280251478,world,-0.844930648804,-0.839527130127,0.945597410202,0.0494708791375,-0.0256220288575,-0.959480404854,-0.276212900877
1554932298290722404,59986,1554932298290722404,world,-0.844933748245,-0.839532852173,0.945562124252,0.0496228933334,-0.0259063020349,-0.959480166435,-0.276159822941
1554932298290769865,59987,1554932298290769865,world,-0.844945907593,-0.839528083801,0.945537567139,0.0496627055109,-0.0260911714286,-0.959490656853,-0.276098996401
1554932298300218869,59988,1554932298300218869,world,-0.844937562943,-0.839538574219,0.945544719696,0.0497199185193,-0.026008637622,-0.959479093552,-0.276136636734
1554932298321067102,59989,1554932298321067102,world,-0.844945669174,-0.839531183243,0.945555448532,0.0496294237673,-0.0259124580771,-0.959474563599,-0.276177585125
1554932298330603444,59990,1554932298330603444,world,-0.844930171967,-0.83953332901,0.945563316345,0.0496379807591,-0.0258067138493,-0.959447979927,-0.276278346777
1554932298330668951,59992,1554932298330668951,world,-0.845485448837,-0.839177846909,0.944989442825,0.0528873838484,-0.0303914304823,-0.960153579712,-0.272735446692
1554932298350327978,59993,1554932298350327978,world,-0.845181465149,-0.839378118515,0.945306539536,0.0510316044092,-0.0278508681804,-0.959788382053,-0.274638682604
1554932298350379536,59994,1554932298350379536,world,-0.845010757446,-0.83947634697,0.945483207703,0.0500269457698,-0.0264240708202,-0.959568679333,-0.275730252266
1554932298360737497,59995,1554932298360737497,world,-0.845459699631,-0.839198350906,0.945013046265,0.0528124757111,-0.0303224194795,-0.960148632526,-0.272774547338
1554932298360765975,59996,1554932298360765975,world,-0.845118999481,-0.839420795441,0.945367336273,0.0507484897971,-0.0274271797389,-0.959712803364,-0.274997889996
1554932298369991493,59997,1554932298369991493,world,-0.844952583313,-0.839531421661,0.94554400444,0.0497379899025,-0.0259711146355,-0.959503769875,-0.276051104069
1554932298380434932,59998,1554932298380434932,world,-0.844873189926,-0.839584827423,0.945628881454,0.049221239984,-0.0252914149314,-0.959406733513,-0.276543706656
1554932298400158943,59999,1554932298400158943,world,-0.844848155975,-0.839600086212,0.945654153824,0.0489829853177,-0.0250689331442,-0.959364712238,-0.27675190568
1554932298410554863,60000,1554932298410554863,world,-0.844839096069,-0.839611530304,0.945672273636,0.048895958811,-0.0249719321728,-0.959343016148,-0.276851207018
1554932298460287962,60001,1554932298460287962,world,-0.84484744072,-0.839605093002,0.945655107498,0.049030136317,-0.0251691378653,-0.959370434284,-0.276714682579
1554932298460336830,60002,1554932298460336830,world,-0.844861030579,-0.839587688446,0.945639371872,0.0490547567606,-0.0252794232219,-0.959390997887,-0.276628762484
1554932298460420932,60003,1554932298460420932,world,-0.844871044159,-0.83958029747,0.945632696152,0.0492449402809,-0.0253990571946,-0.959407389164,-0.276527106762
1554932298460509381,60007,1554932298460509381,world,-0.844918012619,-0.839547872543,0.945586442947,0.0493903234601,-0.0255554784089,-0.959464251995,-0.276289761066
1554932298470864824,60008,1554932298470864824,world,-0.845426559448,-0.839214324951,0.94505739212,0.0523957423866,-0.029867362231,-0.960132002831,-0.2729639709
1554932298500764405,60009,1554932298500764405,world,-0.845109462738,-0.839422225952,0.945384263992,0.0505353696644,-0.0272747427225,-0.959722399712,-0.275018721819
1554932298500824428,60012,1554932298500824428,world,-0.845404148102,-0.839244127274,0.945081710815,0.0524427704513,-0.0296463891864,-0.960044622421,-0.273285865784
1554932298510249935,60013,1554932298510249935,world,-0.84508228302,-0.839460134506,0.945412397385,0.05046916008,-0.0270261466503,-0.959655165672,-0.275289803743
1554932298520645047,60014,1554932298520645047,world,-0.844918966293,-0.839554786682,0.945575714111,0.049449659884,-0.0257282275707,-0.959473133087,-0.276232004166
1554932298520677943,60015,1554932298520677943,world,-0.844874858856,-0.839590549469,0.945634841919,0.0491107963026,-0.0253246612847,-0.959413647652,-0.276536375284
1554932298529919252,60016,1554932298529919252,world,-0.844878911972,-0.839581727982,0.945645570755,0.049022808671,-0.0251809190959,-0.959399044514,-0.27661588788
1554932298550614854,60017,1554932298550614854,world,-0.844862937927,-0.839594364166,0.945656299591,0.049026876688,-0.0250648148358,-0.959370076656,-0.276725947857
1554932298550659293,60018,1554932298550659293,world,-0.84485411644,-0.839603662491,0.945650339127,0.0491082631052,-0.025033492595,-0.959362566471,-0.276740372181
1554932298561005968,60019,1554932298561005968,world,-0.844863653183,-0.839586257935,0.945647239685,0.0491259023547,-0.0250083003193,-0.95935177803,-0.276776790619
1554932298561052957,60020,1554932298561052957,world,-0.844890594482,-0.839562416077,0.945626735687,0.0492815598845,-0.025242337957,-0.959398269653,-0.276566714048
1554932298570465247,60021,1554932298570465247,world,-0.84489440918,-0.839564561844,0.945621013641,0.04921258986,-0.0254362877458,-0.959429681301,-0.276452422142
1554932298580851407,60022,1554932298580851407,world,-0.84490275383,-0.839560508728,0.945606946945,0.0493284985423,-0.0256123710424,-0.959440052509,-0.276379257441
1554932298590177763,60023,1554932298590177763,world,-0.844897508621,-0.839549779892,0.945615291595,0.049352299422,-0.025655625388,-0.959435522556,-0.276386886835
1554932298600555481,60024,1554932298600555481,world,-0.844904661179,-0.839549303055,0.945608139038,0.0494668595493,-0.025636812672,-0.959439098835,-0.27635589242
1554932298610950876,60025,1554932298610950876,world,-0.844926118851,-0.839532852173,0.945593595505,0.0494967252016,-0.0256064012647,-0.959471821785,-0.276239275932
1554932298650306181,60026,1554932298650306181,world,-0.84495139122,-0.839516639709,0.945573568344,0.0495452657342,-0.0257256664336,-0.95947766304,-0.276199191809
1554932298650336310,60027,1554932298650336310,world,-0.844942092896,-0.839530229568,0.945558309555,0.0495321452618,-0.0258507728577,-0.959504961967,-0.276095211506
1554932298650380366,60028,1554932298650380366,world,-0.844932079315,-0.839543581009,0.945558547974,0.0494842007756,-0.0257687885314,-0.959477901459,-0.276205480099
1554932298650395363,60029,1554932298650395363,world,-0.844933748245,-0.83952832222,0.945565700531,0.0494665503502,-0.0257167294621,-0.959468722343,-0.276245415211
1554932298660806844,60030,1554932298660806844,world,-0.844938516617,-0.839531421661,0.945564508438,0.0494549050927,-0.0257458500564,-0.959476351738,-0.2762183249
1554932298660837603,60031,1554932298660837603,world,-0.844936847687,-0.839527130127,0.945560932159,0.0495334081352,-0.025817906484,-0.959480166435,-0.276184409857
1554932298670270349,60032,1554932298670270349,world,-0.844926595688,-0.83953332901,0.945568561554,0.0495207794011,-0.0258329901844,-0.959478616714,-0.27619022131
1554932298670315172,60033,1554932298670315172,world,-0.84491610527,-0.839545249939,0.945575714111,0.0494687817991,-0.0257532577962,-0.959483265877,-0.276191204786
1554932298689969356,60034,1554932298689969356,world,-0.844917058945,-0.839533090591,0.945581912994,0.0494788661599,-0.0257390607148,-0.959470033646,-0.276236712933
1554932298690024205,60035,1554932298690024205,world,-0.844923496246,-0.839544773102,0.945580482483,0.0495625697076,-0.0257194768637,-0.959449648857,-0.276294320822
1554932298700336513,60036,1554932298700336513,world,-0.845016241074,-0.839445114136,0.945665121078,0.048706792295,-0.0248521901667,-0.959651947021,-0.27582269907
1554932298710672412,60037,1554932298710672412,world,-0.844965457916,-0.839490413666,0.945613384247,0.0491175167263,-0.0253199469298,-0.959543585777,-0.276084154844
1554932298740711104,60038,1554932298740711104,world,-0.844952344894,-0.839524030685,0.945577383041,0.0494707599282,-0.0256389994174,-0.959481477737,-0.276207447052
1554932298740809123,60041,1554932298740809123,world,-0.844934225082,-0.839541912079,0.945546388626,0.0497146621346,-0.0258367620409,-0.959454894066,-0.276237696409
1554932298760497537,60042,1554932298760497537,world,-0.845007658005,-0.839466333389,0.945641994476,0.0488879606128,-0.0250082053244,-0.959646105766,-0.275797098875
1554932298760552318,60043,1554932298760552318,world,-0.844977140427,-0.839489459991,0.94558596611,0.0493243299425,-0.0255830641836,-0.959549665451,-0.276001989841
1554932298770883870,60044,1554932298770883870,world,-0.844952344894,-0.839514017105,0.945569038391,0.0495446063578,-0.0258040521294,-0.959483265877,-0.276173084974
1554932298780229408,60045,1554932298780229408,world,-0.844927072525,-0.839543104172,0.945565223694,0.0496555380523,-0.0258221607655,-0.959458351135,-0.27623796463
1554932298780290528,60046,1554932298780290528,world,-0.844910383224,-0.839555025101,0.945566177368,0.0496094748378,-0.0258639641106,-0.959438920021,-0.276309460402
1554932298790701795,60047,1554932298790701795,world,-0.845010519028,-0.839453697205,0.945638656616,0.0488203577697,-0.0249892082065,-0.959624409676,-0.27588608861
1554932298800014332,60048,1554932298800014332,world,-0.845071315765,-0.839407682419,0.945659637451,0.0485578179359,-0.0247536301613,-0.959726452827,-0.275598704815
1554932298810288468,60049,1554932298810288468,world,-0.845089673996,-0.839392662048,0.945666074753,0.0485064983368,-0.0245875790715,-0.959757447243,-0.275514304638
1554932298820675926,60050,1554932298820675926,world,-0.845081329346,-0.839394330978,0.945671319962,0.0484671071172,-0.0245787166059,-0.959756791592,-0.275524616241
1554932298829867614,60051,1554932298829867614,world,-0.845068216324,-0.83939743042,0.945672273636,0.0484961010516,-0.0246460605413,-0.959759414196,-0.275504291058
1554932298829895329,60052,1554932298829895329,world,-0.844960689545,-0.839512586594,0.945595741272,0.0493438765407,-0.0255165956914,-0.95954144001,-0.276033312082
