%time,field.header.seq,field.header.stamp,field.header.frame_id,field.pose.position.x,field.pose.position.y,field.pose.position.z,field.pose.orientation.x,field.pose.orientation.y,field.pose.orientation.z,field.pose.orientation.w
1555358989277700573,20215,1555358989277700573,world,-2.89800262451,-0.814925432205,0.796836614609,-0.708458662033,0.162487149239,-0.318589687347,0.608428239822
1555358989287082978,20216,1555358989287082978,world,-2.89802646637,-0.814895868301,0.796888828278,-0.708522617817,0.16222627461,-0.318266421556,0.608592629433
1555358989287124252,20217,1555358989287124252,world,-2.89801120758,-0.815001010895,0.797028064728,-0.708394348621,0.162024527788,-0.317983806133,0.608943343163
1555358989287174828,20218,1555358989287174828,world,-2.8998260498,-0.815862417221,0.797683000565,-0.69990748167,0.155506238341,-0.32958188653,0.61426627636
1555358989297611691,20219,1555358989297611691,world,-2.89851951599,-0.815198898315,0.797165393829,-0.706072986126,0.160456046462,-0.321573853493,0.610168218613
1555358989297664184,20220,1555358989297664184,world,-2.89797973633,-0.814914941788,0.796845912933,-0.708529829979,0.162321254611,-0.318070501089,0.608661174774
1555358989317409540,20221,1555358989317409540,world,-2.89777469635,-0.814867973328,0.796759605408,-0.709343850613,0.163181349635,-0.317151755095,0.6079621315
1555358989317457995,20222,1555358989317457995,world,-2.89956474304,-0.815742731094,0.797524690628,-0.701085269451,0.156749531627,-0.329152464867,0.612835764885
1555358989326739165,20223,1555358989326739165,world,-2.89897537231,-0.815323114395,0.797459363937,-0.705238819122,0.155806213617,-0.322042644024,0.612087488174
1555358989337123532,20224,1555358989337123532,world,-2.89800930023,-0.814919233322,0.797033786774,-0.708809435368,0.161379694939,-0.317471653223,0.608898639679
1555358989347479396,20225,1555358989347479396,world,-2.89767360687,-0.814762830734,0.796760559082,-0.709845423698,0.163459390402,-0.316149622202,0.607823967934
1555358989347562269,20226,1555358989347562269,world,-2.89761638641,-0.814764499664,0.796696186066,-0.709986388683,0.164027571678,-0.316100746393,0.607531487942
1555358989356927786,20227,1555358989356927786,world,-2.89766216278,-0.814829349518,0.796845674515,-0.709800899029,0.163815259933,-0.316765964031,0.607459187508
1555358989367332695,20228,1555358989367332695,world,-2.89957237244,-0.815729141235,0.797619581223,-0.700922489166,0.156776726246,-0.328311771154,0.613465607166
1555358989377819887,20229,1555358989377819887,world,-2.89834308624,-0.815088272095,0.797154426575,-0.706870555878,0.161173164845,-0.320481985807,0.609629869461
1555358989387156924,20230,1555358989387156924,world,-2.8978509903,-0.814860582352,0.796851158142,-0.709105491638,0.162961408496,-0.317424595356,0.608156740665
1555358989387241236,20231,1555358989387241236,world,-2.89771652222,-0.814791202545,0.796717405319,-0.709741711617,0.163521796465,-0.316669851542,0.607657432556
1555358989406764949,20232,1555358989406764949,world,-2.89776229858,-0.814788341522,0.796840429306,-0.709697842598,0.1632668823,-0.316455721855,0.607888698578
1555358989406826216,20233,1555358989406826216,world,-2.89958286285,-0.815705537796,0.797590970993,-0.701019585133,0.15634046495,-0.328146964312,0.613554239273
1555358989417163725,20234,1555358989417163725,world,-2.89896583557,-0.815346002579,0.797396659851,-0.7052257061,0.155856758356,-0.322154819965,0.612030744553
1555358989427494038,20235,1555358989427494038,world,-2.89799785614,-0.814913511276,0.796935081482,-0.708686232567,0.161569520831,-0.317808270454,0.608816027641
1555358989436709122,20236,1555358989436709122,world,-2.89768695831,-0.814823150635,0.796741962433,-0.709794819355,0.163762897253,-0.316800862551,0.607462227345
1555358989447086320,20237,1555358989447086320,world,-2.89763641357,-0.814785003662,0.796783685684,-0.709981918335,0.163935154676,-0.316446006298,0.607381999493
1555358989457364930,20238,1555358989457364930,world,-2.89768600464,-0.814829349518,0.796904325485,-0.709635555744,0.163959562778,-0.317005723715,0.607488274574
1555358989457431335,20239,1555358989457431335,world,-2.89957618713,-0.815721988678,0.797601222992,-0.700971066952,0.156751051545,-0.328830331564,0.613138854504
1555358989466745317,20240,1555358989466745317,world,-2.89829730988,-0.815167188644,0.797112464905,-0.706809401512,0.160970568657,-0.320112317801,0.609948456287
1555358989477034606,20241,1555358989477034606,world,-2.89784431458,-0.81490278244,0.796813488007,-0.709070980549,0.16302575171,-0.317356318235,0.608215451241
1555358989487422318,20242,1555358989487422318,world,-2.8977355957,-0.814768075943,0.796814680099,-0.709726154804,0.163484409451,-0.316403001547,0.607824742794
1555358989496738504,20243,1555358989496738504,world,-2.89776134491,-0.814785003662,0.796913385391,-0.709702014923,0.163201332092,-0.316607892513,0.607822239399
1555358989507206096,20244,1555358989507206096,world,-2.89958572388,-0.81568312645,0.797578811646,-0.700978696346,0.156335860491,-0.328223913908,0.613560914993
1555358989517559159,20245,1555358989517559159,world,-2.8983745575,-0.815111637115,0.797147274017,-0.706780135632,0.161203086376,-0.320571988821,0.60967952013
1555358989517598484,20246,1555358989517598484,world,-2.8978805542,-0.814828157425,0.796923398972,-0.709063947201,0.16287946701,-0.317395031452,0.608242630959
1555358989527005563,20247,1555358989527005563,world,-2.89773368835,-0.814851760864,0.796792984009,-0.709646344185,0.163615971804,-0.316900968552,0.607623100281
1555358989537460913,20248,1555358989537460913,world,-2.8976764679,-0.814876794815,0.796824216843,-0.709728419781,0.163036882877,-0.316177904606,0.608059287071
1555358989537502878,20249,1555358989537502878,world,-2.89963626862,-0.815607309341,0.797545909882,-0.701242148876,0.156952798367,-0.33036801219,0.611949682236
1555358989546792815,20250,1555358989546792815,world,-2.89899158478,-0.815285682678,0.797392368317,-0.705235183239,0.155795902014,-0.322665542364,0.611766338348
1555358989567602024,20251,1555358989567602024,world,-2.89803314209,-0.814949035645,0.797018527985,-0.708729505539,0.161374419928,-0.317800968885,0.608821213245
1555358989587260808,20252,1555358989587260808,world,-2.89768314362,-0.814837694168,0.796794652939,-0.709841430187,0.163525551558,-0.316340833902,0.60771137476
1555358989587301622,20253,1555358989587301622,world,-2.89763069153,-0.814801692963,0.796771526337,-0.709997534752,0.163923606277,-0.316115260124,0.607538998127
1555358989597624963,20254,1555358989597624963,world,-2.89766788483,-0.814833879471,0.796902656555,-0.709714472294,0.163838773966,-0.316505581141,0.60768944025
1555358989597701024,20255,1555358989597701024,world,-2.89954948425,-0.815734148026,0.797577619553,-0.701019227505,0.15699338913,-0.329016059637,0.612922132015
1555358989607031721,20256,1555358989607031721,world,-2.89899158478,-0.815250396729,0.797371387482,-0.705186188221,0.156282484531,-0.322821676731,0.611616253853
1555358989607085606,20257,1555358989607085606,world,-2.89802265167,-0.814925432205,0.796889543533,-0.708640158176,0.161588326097,-0.318015992641,0.608756303787
1555358989627746531,20258,1555358989627746531,world,-2.89770889282,-0.814809799194,0.796767473221,-0.709766387939,0.163489833474,-0.316630214453,0.607657849789
1555358989627783968,20259,1555358989627783968,world,-2.89761734009,-0.814822435379,0.796845674515,-0.709888994694,0.163482546806,-0.315767765045,0.607965230942
1555358989647508034,20260,1555358989647508034,world,-2.89956665039,-0.815593719482,0.79754114151,-0.701365113258,0.157691687346,-0.330390870571,0.611606240273
1555358989647553550,20261,1555358989647553550,world,-2.89827251434,-0.815063476562,0.797110319138,-0.707160294056,0.161281362176,-0.320173501968,0.609427213669
1555358989656929392,20262,1555358989656929392,world,-2.89781093597,-0.814857959747,0.796834230423,-0.709218740463,0.163186773658,-0.317114770412,0.608125865459
1555358989656980772,20263,1555358989656980772,world,-2.89767360687,-0.814797639847,0.796773672104,-0.709818780422,0.163688585162,-0.316252440214,0.607739925385
1555358989667360064,20264,1555358989667360064,world,-2.89771938324,-0.814766168594,0.796870470047,-0.709807157516,0.163334533572,-0.316028922796,0.607964932919
1555358989676713733,20265,1555358989676713733,world,-2.89778709412,-0.814821004868,0.796966552734,-0.709484517574,0.163227409124,-0.316489338875,0.60813087225
1555358989706754033,20266,1555358989706754033,world,-2.89779186249,-0.814924716949,0.796988248825,-0.709168434143,0.162681087852,-0.316768705845,0.608500421047
1555358989706789979,20267,1555358989706789979,world,-2.89785671234,-0.814916610718,0.796891927719,-0.709027767181,0.162729904056,-0.317527323961,0.608255684376
1555358989706835674,20268,1555358989706835674,world,-2.89791107178,-0.814877271652,0.796814918518,-0.708841025829,0.162568509579,-0.31769245863,0.60843038559
1555358989706861011,20269,1555358989706861011,world,-2.89796161652,-0.814923048019,0.796935796738,-0.70866394043,0.162566423416,-0.318128347397,0.608409285545
1555358989727460885,20270,1555358989727460885,world,-2.89978313446,-0.815793514252,0.797640562057,-0.700074017048,0.155653491616,-0.32964682579,0.614004313946
1555358989747040943,20271,1555358989747040943,world,-2.89849472046,-0.815158843994,0.797226667404,-0.706193983555,0.160496324301,-0.321388065815,0.610115468502
1555358989747115438,20273,1555358989747115438,world,-2.89778614044,-0.814848899841,0.796757459641,-0.709368228912,0.163154184818,-0.317096352577,0.607969880104
1555358989757546358,20274,1555358989757546358,world,-2.89780521393,-0.814763069153,0.796818971634,-0.709505856037,0.162892013788,-0.31661221385,0.608131885529
1555358989777325020,20275,1555358989777325020,world,-2.89783763885,-0.814802408218,0.796983480453,-0.709270298481,0.162939846516,-0.317140340805,0.608118593693
1555358989777391727,20277,1555358989777391727,world,-2.89790534973,-0.814867734909,0.796966075897,-0.70893985033,0.162890478969,-0.317551165819,0.60830283165
1555358989787654538,20278,1555358989787654538,world,-2.89791488647,-0.814950227737,0.796884536743,-0.708793282509,0.162817582488,-0.317891359329,0.608315348625
1555358989796999405,20279,1555358989796999405,world,-2.89797019958,-0.814936161041,0.796883106232,-0.708715081215,0.162417843938,-0.31790548563,0.608505904675
1555358989807287475,20280,1555358989807287475,world,-2.89795303345,-0.815015554428,0.79699420929,-0.708672165871,0.161985948682,-0.317624241114,0.60881793499
1555358989807348270,20281,1555358989807348270,world,-2.89792823792,-0.8150639534,0.797055482864,-0.708483576775,0.161905631423,-0.317795604467,0.608969211578
1555358989847490700,20282,1555358989847490700,world,-2.8979845047,-0.814995527267,0.797065496445,-0.708413720131,0.162041828036,-0.318033307791,0.608890235424
1555358989847522804,20283,1555358989847522804,world,-2.89797115326,-0.814950227737,0.796943426132,-0.708434939384,0.162369295955,-0.318300098181,0.608638703823
1555358989847563209,20284,1555358989847563209,world,-2.89799404144,-0.814975738525,0.796860218048,-0.708374619484,0.162692114711,-0.318725198507,0.608400285244
1555358989847595764,20286,1555358989847595764,world,-2.89799022675,-0.814969301224,0.797053098679,-0.708454310894,0.161959350109,-0.317889690399,0.608939945698
1555358989856833401,20287,1555358989856833401,world,-2.89800548553,-0.815002918243,0.79703950882,-0.708453178406,0.161876678467,-0.31785595417,0.608980894089
1555358989867114247,20288,1555358989867114247,world,-2.89801979065,-0.814907550812,0.796948671341,-0.708477556705,0.162022426724,-0.318291574717,0.608686089516
1555358989877500800,20289,1555358989877500800,world,-2.89803218842,-0.814938545227,0.796863794327,-0.708403646946,0.162445574999,-0.318760335445,0.608414053917
1555358989886737557,20290,1555358989886737557,world,-2.89799785614,-0.814947843552,0.796898365021,-0.708476901054,0.161844179034,-0.317970842123,0.608901917934
1555358989907375340,20291,1555358989907375340,world,-2.89800167084,-0.814994335175,0.796986341476,-0.708399891853,0.161768898368,-0.317858189344,0.609070241451
1555358989907418807,20292,1555358989907418807,world,-2.89982700348,-0.815825223923,0.797640323639,-0.700022637844,0.15568433702,-0.330265283585,0.613722741604
1555358989916690784,20293,1555358989916690784,world,-2.89853668213,-0.815180778503,0.797184228897,-0.706158697605,0.160467654467,-0.321700870991,0.609998822212
1555358989916737141,20294,1555358989916737141,world,-2.89799022675,-0.814978837967,0.796931028366,-0.708512544632,0.162748843431,-0.318485587835,0.608350038528
1555358989937476733,20295,1555358989937476733,world,-2.89781761169,-0.814812898636,0.796822547913,-0.709443092346,0.163054704666,-0.316852211952,0.608036398888
1555358989937520572,20296,1555358989937520572,world,-2.89778137207,-0.814809799194,0.79686832428,-0.709478080273,0.163060083985,-0.316863566637,0.607988297939
1555358989957226857,20297,1555358989957226857,world,-2.89960193634,-0.815741062164,0.797549962997,-0.700852751732,0.156365722418,-0.329036146402,0.613262176514
1555358989957299331,20298,1555358989957299331,world,-2.89902877808,-0.815270423889,0.797409534454,-0.705202281475,0.156007364392,-0.322939425707,0.61160582304
1555358989957323658,20299,1555358989957323658,world,-2.89801120758,-0.814891576767,0.797008514404,-0.708551764488,0.161168023944,-0.318208098412,0.608870148659
1555358989967704707,20300,1555358989967704707,world,-2.89769744873,-0.814792156219,0.796780586243,-0.709726035595,0.163469552994,-0.316688477993,0.60768020153
1555358989977092017,20301,1555358989977092017,world,-2.89763450623,-0.814759492874,0.796743631363,-0.709893286228,0.16378903389,-0.316403388977,0.607547283173
1555358989987500506,20302,1555358989987500506,world,-2.8994808197,-0.815658330917,0.797497749329,-0.701394736767,0.157234832644,-0.328440129757,0.612739622593
1555358989996768360,20303,1555358989996768360,world,-2.89899539948,-0.815186738968,0.797430038452,-0.705552041531,0.156388923526,-0.322351008654,0.6114153862
1555358990007053753,20304,1555358990007053753,world,-2.89802074432,-0.81484413147,0.797059297562,-0.708721756935,0.161299541593,-0.317735493183,0.608884394169
1555358990017364819,20305,1555358990017364819,world,-2.89769458771,-0.814763069153,0.79679608345,-0.709815561771,0.163550719619,-0.316432058811,0.607687354088
1555358990027788806,20306,1555358990027788806,world,-2.89765834808,-0.814730167389,0.796739339828,-0.709941625595,0.163905501366,-0.316110402346,0.607611775398
1555358990027856424,20307,1555358990027856424,world,-2.89772891998,-0.814736366272,0.796861171722,-0.709744811058,0.16369959712,-0.316332489252,0.607781648636
1555358990047573181,20308,1555358990047573181,world,-2.89959335327,-0.815692186356,0.79755115509,-0.701021850109,0.15705819428,-0.328852802515,0.61299008131
1555358990047641597,20309,1555358990047641597,world,-2.8989982605,-0.815317630768,0.797378540039,-0.705107927322,0.156063392758,-0.322239845991,0.612069010735
1555358990057032612,20310,1555358990057032612,world,-2.89806079865,-0.814908981323,0.796960353851,-0.708639860153,0.161559224129,-0.31793692708,0.608805537224
1555358990057094803,20311,1555358990057094803,world,-2.89774894714,-0.814737319946,0.796765089035,-0.709728002548,0.163409724832,-0.316354036331,0.607868134975
1555358990067434917,20312,1555358990067434917,world,-2.89767742157,-0.814771413803,0.796763896942,-0.70990473032,0.163935363293,-0.316550582647,0.607417583466
1555358990087322305,20313,1555358990087322305,world,-2.89956188202,-0.815546274185,0.797478675842,-0.701471984386,0.157883673906,-0.330983549356,0.611113488674
1555358990087390819,20314,1555358990087390819,world,-2.89895153046,-0.815244674683,0.797384500504,-0.70548158884,0.156443059444,-0.322644323111,0.611327946186
1555358990106991709,20315,1555358990106991709,world,-2.89800548553,-0.814875841141,0.797005653381,-0.708829820156,0.161759644747,-0.317545980215,0.608735203743
1555358990107035928,20316,1555358990107035928,world,-2.8976688385,-0.814750432968,0.796765565872,-0.709937512875,0.163537725806,-0.316133588552,0.60770368576
1555358990107056146,20317,1555358990107056146,world,-2.89760971069,-0.81470990181,0.796730518341,-0.710067927837,0.163832932711,-0.315854072571,0.607617020607
1555358990117424009,20318,1555358990117424009,world,-2.89766025543,-0.814760684967,0.796830892563,-0.709634125233,0.16349260509,-0.316389381886,0.607936918736
1555358990126742582,20319,1555358990126742582,world,-2.89953804016,-0.815654277802,0.797559261322,-0.700684905052,0.156221151352,-0.327813208103,0.614145100117
1555358990137050183,20320,1555358990137050183,world,-2.89834499359,-0.815025091171,0.797130584717,-0.706782817841,0.161047443748,-0.320314735174,0.609852552414
1555358990137119782,20321,1555358990137119782,world,-2.89786720276,-0.814811944962,0.796857833862,-0.709086716175,0.16293348372,-0.317518204451,0.608137309551
1555358990147475767,20322,1555358990147475767,world,-2.89776039124,-0.814677000046,0.796815872192,-0.709780216217,0.163244798779,-0.316378712654,0.607838571072
1555358990156826544,20323,1555358990156826544,world,-2.89959144592,-0.815487146378,0.797429323196,-0.701413035393,0.157902404666,-0.331196576357,0.611060917377
1555358990167226136,20324,1555358990167226136,world,-2.89828586578,-0.815007925034,0.797102689743,-0.707307219505,0.161291882396,-0.320493400097,0.609085738659
1555358990177570749,20325,1555358990177570749,world,-2.89781093597,-0.814763307571,0.796965837479,-0.709206938744,0.162549167871,-0.316885620356,0.608429849148
1555358990186970269,20326,1555358990186970269,world,-2.89765167236,-0.81472325325,0.796832323074,-0.70975536108,0.162994921207,-0.31614908576,0.608054161072
1555358990197352050,20327,1555358990197352050,world,-2.89771938324,-0.814769506454,0.796825408936,-0.709772050381,0.163329184055,-0.316164940596,0.607936620712
1555358990197393362,20328,1555358990197393362,world,-2.89774417877,-0.814835786819,0.796833753586,-0.709567427635,0.16332295537,-0.31683588028,0.607827842236
1555358990217124479,20329,1555358990217124479,world,-2.89781761169,-0.814911603928,0.796929121017,-0.709234893322,0.16326777637,-0.317135423422,0.608074426651
1555358990217165556,20330,1555358990217165556,world,-2.89965820312,-0.815795183182,0.797615528107,-0.700562357903,0.156283035874,-0.3287974298,0.613742828369
1555358990227459224,20331,1555358990227459224,world,-2.89842128754,-0.815186262131,0.797190666199,-0.706546187401,0.16075193882,-0.32081258297,0.609943211079
1555358990247070021,20332,1555358990247070021,world,-2.89789485931,-0.814938306808,0.796931266785,-0.708903074265,0.162711456418,-0.317762821913,0.608283102512
1555358990247108205,20333,1555358990247108205,world,-2.89772796631,-0.814834117889,0.796830415726,-0.70961278677,0.163249701262,-0.316750258207,0.607839226723
1555358990247157610,20334,1555358990247157610,world,-2.89770507812,-0.814818143845,0.79687666893,-0.709547936916,0.162860944867,-0.316754758358,0.608016967773
1555358990266874682,20335,1555358990266874682,world,-2.89954948425,-0.815688848495,0.797540664673,-0.70098221302,0.15639205277,-0.328979730606,0.613137662411
1555358990277248341,20336,1555358990277248341,world,-2.89895439148,-0.815230131149,0.797367811203,-0.705159068108,0.155970826745,-0.323169380426,0.611543416977
1555358990277317708,20337,1555358990277317708,world,-2.89794540405,-0.814886331558,0.796974182129,-0.708528757095,0.160677582026,-0.317773789167,0.609253227711
1555358990296995605,20338,1555358990296995605,world,-2.89764118195,-0.814749717712,0.796761512756,-0.709578812122,0.163054183125,-0.316625207663,0.607996582985
1555358990327004900,20339,1555358990327004900,world,-2.89764499664,-0.814707040787,0.796803712845,-0.709877550602,0.163623571396,-0.316228151321,0.607701301575
1555358990327075277,20340,1555358990327075277,world,-2.89951324463,-0.815626621246,0.797498941422,-0.701363682747,0.157201260328,-0.328594088554,0.612701117992
1555358990327098130,20341,1555358990327098130,world,-2.89891719818,-0.815277576447,0.797356367111,-0.705477833748,0.156320586801,-0.322042793036,0.611680865288
1555358990327162664,20342,1555358990327162664,world,-2.89798927307,-0.814948558807,0.797002077103,-0.708823382854,0.161974623799,-0.317945897579,0.608476877213
1555358990327192900,20343,1555358990327192900,world,-2.89768505096,-0.814829587936,0.796817302704,-0.709887385368,0.163823202252,-0.316475301981,0.607507348061
1555358990337533797,20344,1555358990337533797,world,-2.89766216278,-0.814793109894,0.796805143356,-0.710042655468,0.16409933567,-0.316105514765,0.607443988323
1555358990346869799,20345,1555358990346869799,world,-2.89771270752,-0.814861536026,0.796850681305,-0.709725797176,0.163920745254,-0.316595613956,0.607607245445
1555358990357141016,20346,1555358990357141016,world,-2.89774703979,-0.814946174622,0.796934127808,-0.709377229214,0.163354441524,-0.316753357649,0.608084499836
1555358990357176889,20347,1555358990357176889,world,-2.89786243439,-0.814926147461,0.796983957291,-0.709012448788,0.163281008601,-0.317439734936,0.608171582222
1555358990367485541,20348,1555358990367485541,world,-2.8979101181,-0.814867973328,0.796939611435,-0.708877205849,0.162808835506,-0.317621529102,0.608360826969
1555358990376743026,20349,1555358990376743026,world,-2.89792156219,-0.814903259277,0.796910762787,-0.708726763725,0.162893682718,-0.31822130084,0.608199894428
1555358990387079213,20350,1555358990387079213,world,-2.89796638489,-0.814846992493,0.796952724457,-0.708638310432,0.162411645055,-0.31785646081,0.608622729778
1555358990397418443,20351,1555358990397418443,world,-2.89797973633,-0.814888477325,0.796980619431,-0.708601772785,0.16230545938,-0.318018198013,0.60860902071
1555358990397460578,20352,1555358990397460578,world,-2.89798069,-0.814862012863,0.797021150589,-0.708405613899,0.161773070693,-0.317931622267,0.60902428627
1555358990406706110,20353,1555358990406706110,world,-2.89795970917,-0.814876317978,0.797023296356,-0.708353638649,0.161918327212,-0.318205565214,0.608902871609
1555358990417152586,20354,1555358990417152586,world,-2.89797019958,-0.81490945816,0.796968221664,-0.708250999451,0.162036776543,-0.318398237228,0.608890116215
1555358990427536544,20355,1555358990427536544,world,-2.89799785614,-0.814878940582,0.796940565109,-0.708472192287,0.162207961082,-0.318075060844,0.608756124973
1555358990436993981,20356,1555358990436993981,world,-2.89801979065,-0.814919233322,0.796921014786,-0.708505034447,0.162376567721,-0.318377703428,0.608514726162
1555358990447359982,20357,1555358990447359982,world,-2.89979553223,-0.815794706345,0.797563791275,-0.699974179268,0.155955672264,-0.330350935459,0.613662958145
1555358990447431100,20358,1555358990447431100,world,-2.89851379395,-0.815169334412,0.797168493271,-0.706097304821,0.160660088062,-0.321798086166,0.609967947006
1555358990466915715,20359,1555358990466915715,world,-2.89797019958,-0.814898014069,0.796976327896,-0.708390474319,0.162307530642,-0.318327009678,0.608693063259
1555358990477288709,20360,1555358990477288709,world,-2.89783477783,-0.814850091934,0.796917438507,-0.709287106991,0.163019880652,-0.317125290632,0.608085393906
1555358990477332130,20361,1555358990477332130,world,-2.89780044556,-0.814826488495,0.796848297119,-0.709471404552,0.163003697991,-0.316953927279,0.607964217663
1555358990487690068,20362,1555358990487690068,world,-2.89786338806,-0.814872741699,0.79688501358,-0.709388852119,0.162997096777,-0.317136913538,0.607966780663
1555358990487743195,20363,1555358990487743195,world,-2.8978433609,-0.814924955368,0.796925067902,-0.709206223488,0.162474378943,-0.316913753748,0.608435928822
1555358990497057962,20364,1555358990497057962,world,-2.89791679382,-0.81495475769,0.796984910965,-0.708891689777,0.162556454539,-0.317715078592,0.608362674713
1555358990517775481,20365,1555358990517775481,world,-2.89791584015,-0.814988613129,0.796993017197,-0.70878970623,0.162248298526,-0.31728720665,0.608786940575
1555358990517816310,20366,1555358990517816310,world,-2.89792633057,-0.81499671936,0.796961307526,-0.70864969492,0.162570521235,-0.318327784538,0.608320534229
1555358990527255015,20367,1555358990527255015,world,-2.89794635773,-0.814912796021,0.796948432922,-0.708542764187,0.162456765771,-0.318036347628,0.608627915382
1555358990537704794,20368,1555358990537704794,world,-2.89799213409,-0.814893007278,0.796940326691,-0.708535134792,0.16245496273,-0.318216353655,0.608543217182
1555358990537746325,20369,1555358990537746325,world,-2.89985847473,-0.815653562546,0.797586202621,-0.700171589851,0.156522139907,-0.332613557577,0.612069368362
1555358990557400651,20370,1555358990557400651,world,-2.89914989471,-0.815305948257,0.797390937805,-0.704505980015,0.155351057649,-0.323833942413,0.612102150917
1555358990557441187,20371,1555358990557441187,world,-2.89816951752,-0.814968109131,0.797026395798,-0.708101093769,0.160873666406,-0.31860986352,0.609262049198
1555358990577022879,20372,1555358990577022879,world,-2.89769554138,-0.814853429794,0.796850442886,-0.709235787392,0.162481069565,-0.316372871399,0.608681082726
1555358990577061727,20373,1555358990577061727,world,-2.89771556854,-0.814845561981,0.796855211258,-0.709600925446,0.163503840566,-0.31632232666,0.608007669449
1555358990596770044,20374,1555358990596770044,world,-2.89771080017,-0.814894199371,0.796884059906,-0.70954990387,0.163414776325,-0.316146910191,0.608182251453
1555358990607203544,20375,1555358990607203544,world,-2.89966201782,-0.815666675568,0.797492742538,-0.700989603996,0.157725587487,-0.331468075514,0.611445188522
1555358990607242894,20376,1555358990607242894,world,-2.89840316772,-0.815099716187,0.797075271606,-0.706819713116,0.16157746315,-0.321477621794,0.609057366848
1555358990607293151,20377,1555358990607293151,world,-2.8979101181,-0.814922332764,0.796888589859,-0.709000349045,0.163051530719,-0.317664444447,0.608130037785
1555358990627003731,20378,1555358990627003731,world,-2.89778900146,-0.814874887466,0.796862602234,-0.70964628458,0.163452729583,-0.316611081362,0.607818186283
1555358990627054195,20379,1555358990627054195,world,-2.89776039124,-0.814882516861,0.79691362381,-0.70965731144,0.163083150983,-0.315871953964,0.608288943768
1555358990637290879,20380,1555358990637290879,world,-2.89782714844,-0.814887046814,0.796945095062,-0.709384739399,0.163146436214,-0.316811591387,0.608101069927
1555358990656984834,20381,1555358990656984834,world,-2.8978805542,-0.814820766449,0.796916723251,-0.709243893623,0.16275832057,-0.316722661257,0.608415722847
1555358990667430939,20382,1555358990667430939,world,-2.89794254303,-0.814855098724,0.7969186306,-0.708946168423,0.162630289793,-0.317551374435,0.608364999294
1555358990687104210,20383,1555358990687104210,world,-2.89980506897,-0.81560754776,0.797531366348,-0.700419187546,0.15662573278,-0.331939250231,0.612125515938
1555358990687146365,20384,1555358990687146365,world,-2.89916324615,-0.815226793289,0.797394990921,-0.704829216003,0.155827865005,-0.324089944363,0.611472904682
1555358990687199430,20385,1555358990687199430,world,-2.89811038971,-0.81494140625,0.797034263611,-0.708354532719,0.160691678524,-0.31801199913,0.609327852726
1555358990687232424,20386,1555358990687232424,world,-2.89777088165,-0.81481051445,0.79687333107,-0.709485590458,0.163014307618,-0.316396325827,0.608235001564
1555358990687263305,20387,1555358990687263305,world,-2.89766407013,-0.814765930176,0.796829223633,-0.709691166878,0.163555204868,-0.316082119942,0.608013391495
1555358990697728853,20388,1555358990697728853,world,-2.89770412445,-0.814834356308,0.796852827072,-0.709334313869,0.163501471281,-0.316820710897,0.608059763908
1555358990707136015,20389,1555358990707136015,world,-2.89775848389,-0.814885139465,0.796914577484,-0.709253668785,0.163038164377,-0.316475450993,0.60845798254
1555358990717479165,20390,1555358990717479165,world,-2.89786624908,-0.814889907837,0.796961784363,-0.709005534649,0.162773132324,-0.317130148411,0.60847723484
1555358990726753285,20391,1555358990726753285,world,-2.89793109894,-0.814890623093,0.796960353851,-0.70888209343,0.162800401449,-0.31763741374,0.608349204063
1555358990737207930,20392,1555358990737207930,world,-2.89795589447,-0.814882993698,0.796914815903,-0.708806753159,0.162791311741,-0.31760302186,0.608457267284
1555358990747735711,20393,1555358990747735711,world,-2.89802265167,-0.814914226532,0.796936273575,-0.70863878727,0.162551179528,-0.318011194468,0.608503997326
1555358990767350024,20394,1555358990767350024,world,-2.89797687531,-0.815008878708,0.796947956085,-0.708665430546,0.16220061481,-0.317738056183,0.608709156513
1555358990767419256,20395,1555358990767419256,world,-2.89799308777,-0.815037488937,0.796985626221,-0.708538651466,0.162122175097,-0.317623108625,0.608937501907
1555358990767446453,20396,1555358990767446453,world,-2.89803886414,-0.814945697784,0.796995401382,-0.708483040333,0.162193089724,-0.318001925945,0.608785748482
1555358990776742991,20397,1555358990776742991,world,-2.89805030823,-0.814927101135,0.79695057869,-0.708467543125,0.162260204554,-0.318238079548,0.608662486076
1555358990787236403,20398,1555358990787236403,world,-2.89800834656,-0.814936876297,0.796884059906,-0.708467543125,0.162493079901,-0.318745553493,0.60833466053
1555358990797704405,20399,1555358990797704405,world,-2.89803886414,-0.814900875092,0.796955347061,-0.708442509174,0.162288933992,-0.31862860918,0.608479619026
1555358990807164202,20400,1555358990807164202,world,-2.89803028107,-0.814885377884,0.797046422958,-0.708448112011,0.162265121937,-0.318415403366,0.608590900898
1555358990807233446,20401,1555358990807233446,world,-2.89803218842,-0.814892053604,0.797066688538,-0.708382070065,0.162374556065,-0.318628430367,0.608527243137
1555358990817665778,20402,1555358990817665778,world,-2.89803218842,-0.814832210541,0.796996831894,-0.708450675011,0.162087723613,-0.318263143301,0.60871475935
1555358990826989893,20403,1555358990826989893,world,-2.89796733856,-0.814889907837,0.796859502792,-0.708266556263,0.16213478148,-0.318712979555,0.608681321144
1555358990837441797,20404,1555358990837441797,world,-2.89804840088,-0.814877271652,0.796946287155,-0.708343923092,0.162026464939,-0.318344473839,0.608812868595
1555358990846701064,20405,1555358990846701064,world,-2.89981460571,-0.815772533417,0.797617435455,-0.699998855591,0.155435234308,-0.330181628466,0.613858044147
1555358990857088163,20406,1555358990857088163,world,-2.89919281006,-0.815320253372,0.797431230545,-0.704562902451,0.155318692327,-0.323837816715,0.612042844296
1555358990867546898,20407,1555358990867546898,world,-2.89818954468,-0.814936637878,0.797014713287,-0.708147227764,0.161130279303,-0.318668067455,0.609110236168
1555358990876970501,20408,1555358990876970501,world,-2.89782524109,-0.814891576767,0.796814918518,-0.709342837334,0.163453713059,-0.317315012217,0.607804954052
1555358990877015423,20409,1555358990877015423,world,-2.89773654938,-0.814869880676,0.796834230423,-0.709616243839,0.163877248764,-0.31684872508,0.60761487484
1555358990887468554,20410,1555358990887468554,world,-2.89780712128,-0.814871549606,0.796883583069,-0.709475636482,0.163652285933,-0.316806554794,0.607861876488
1555358990896797441,20411,1555358990896797441,world,-2.89961910248,-0.815745353699,0.797550439835,-0.700829446316,0.156755939126,-0.328405112028,0.613527238369
1555358990907258335,20412,1555358990907258335,world,-2.89903831482,-0.815282344818,0.797339677811,-0.705194234848,0.156294211745,-0.322786808014,0.611622393131
1555358990917601039,20413,1555358990917601039,world,-2.8980846405,-0.814918518066,0.796948432922,-0.708669126034,0.161617740989,-0.318190425634,0.608623564243
1555358990917642240,20414,1555358990917642240,world,-2.89774227142,-0.814802408218,0.796835660934,-0.709739387035,0.163405150175,-0.316826581955,0.607609927654
1555358990926914058,20415,1555358990926914058,world,-2.89766407013,-0.814770698547,0.796807765961,-0.709950149059,0.163800850511,-0.316488146782,0.607433378696
1555358990937227696,20416,1555358990937227696,world,-2.89766120911,-0.814830541611,0.796861171722,-0.709770917892,0.163494691253,-0.316172391176,0.607889652252
1555358990937272242,20417,1555358990937272242,world,-2.89776992798,-0.814823389053,0.796918869019,-0.709378123283,0.163321986794,-0.316820770502,0.60805696249
1555358990957086570,20418,1555358990957086570,world,-2.89785766602,-0.814824581146,0.796946048737,-0.709090054035,0.16313816607,-0.317239016294,0.608224332333
1555358990967435701,20419,1555358990967435701,world,-2.89790916443,-0.814863443375,0.796938896179,-0.708868265152,0.16293926537,-0.317768901587,0.608259558678
1555358990967473511,20420,1555358990967473511,world,-2.89794921875,-0.814853668213,0.796904563904,-0.708745479584,0.162523925304,-0.317896872759,0.608446717262
1555358990976723507,20421,1555358990976723507,world,-2.89797782898,-0.814889192581,0.796943426132,-0.708582997322,0.16241838038,-0.318228274584,0.608490824699
1555358990987174179,20422,1555358990987174179,world,-2.89797019958,-0.814918994904,0.796969413757,-0.708535850048,0.162531256676,-0.318267732859,0.608495116234
1555358990987214787,20423,1555358990987214787,world,-2.89801216125,-0.814951181412,0.797003507614,-0.70850455761,0.162458464503,-0.318389266729,0.60848736763
1555358991006825725,20424,1555358991006825725,world,-2.89801120758,-0.814942836761,0.796967029572,-0.708508908749,0.162402272224,-0.318327456713,0.608529627323
1555358991006867034,20425,1555358991006867034,world,-2.89802455902,-0.814960956573,0.79692029953,-0.708462893963,0.162408709526,-0.318418741226,0.608533680439
1555358991017281256,20426,1555358991017281256,world,-2.898021698,-0.814954519272,0.796933889389,-0.70845156908,0.162368863821,-0.318424165249,0.608554720879
1555358991027735320,20427,1555358991027735320,world,-2.89802837372,-0.814932823181,0.796956300735,-0.70843321085,0.162299230695,-0.318397074938,0.608608841896
1555358991037079385,20428,1555358991037079385,world,-2.89989185333,-0.815696954727,0.797557115555,-0.700109064579,0.15660007298,-0.332410037518,0.612231373787
1555358991047368256,20429,1555358991047368256,world,-2.89855861664,-0.815131902695,0.797195196152,-0.706159949303,0.16058292985,-0.322142183781,0.609734117985
1555358991047406791,20430,1555358991047406791,world,-2.8998298645,-0.815704584122,0.797570466995,-0.70035469532,0.15685364604,-0.332518845797,0.61182641983
1555358991066944845,20431,1555358991066944845,world,-2.89833545685,-0.815015792847,0.797052145004,-0.707103252411,0.161390244961,-0.32047149539,0.609308004379
1555358991066984732,20432,1555358991066984732,world,-2.89774990082,-0.814803361893,0.796864271164,-0.709606349468,0.16314470768,-0.316406667233,0.608053803444
1555358991097367122,20433,1555358991097367122,world,-2.89761734009,-0.814778089523,0.796806097031,-0.710254609585,0.163526296616,-0.315481871367,0.607674777508
1555358991097408082,20434,1555358991097408082,world,-2.8976020813,-0.814832448959,0.796878099442,-0.710195422173,0.163105517626,-0.315127015114,0.608041226864
1555358991097481942,20436,1555358991097481942,world,-2.89828872681,-0.815057516098,0.797082901001,-0.707175552845,0.161379590631,-0.320537090302,0.609192490578
1555358991106730325,20437,1555358991106730325,world,-2.89781475067,-0.814820051193,0.796875953674,-0.709284543991,0.162877440453,-0.316866636276,0.608261406422
1555358991127341593,20438,1555358991127341593,world,-2.89770793915,-0.814785242081,0.796821832657,-0.709832549095,0.163313865662,-0.315918087959,0.607998430729
1555358991127382265,20439,1555358991127382265,world,-2.89769649506,-0.814857959747,0.796875715256,-0.70978808403,0.162780016661,-0.315458238125,0.608432173729
1555358991136725084,20440,1555358991136725084,world,-2.89962768555,-0.815603494644,0.797498941422,-0.701186835766,0.157000645995,-0.330616205931,0.61186671257
1555358991136766140,20441,1555358991136766140,world,-2.89838027954,-0.81507229805,0.797133922577,-0.706979513168,0.161180824041,-0.320928603411,0.609266400337
1555358991157614801,20442,1555358991157614801,world,-2.89782524109,-0.814940452576,0.796910762787,-0.709203839302,0.162516653538,-0.316795676947,0.60848903656
1555358991157656243,20443,1555358991157656243,world,-2.89772891998,-0.814869880676,0.796822786331,-0.709750592709,0.163468524814,-0.316198557615,0.60790681839
1555358991167083224,20444,1555358991167083224,world,-2.89768695831,-0.814868688583,0.796822547913,-0.709761619568,0.163123324513,-0.315607100725,0.608293831348
1555358991177457333,20445,1555358991177457333,world,-2.89838981628,-0.815007686615,0.797076940536,-0.707794487476,0.158231735229,-0.318983286619,0.610114097595
1555358991186740032,20446,1555358991186740032,world,-2.89798545837,-0.81492638588,0.796994447708,-0.708846032619,0.161259293556,-0.31711858511,0.609071850777
1555358991197191308,20447,1555358991197191308,world,-2.89788341522,-0.814890623093,0.79695558548,-0.709055900574,0.162803307176,-0.317355841398,0.608292758465
1555358991207592869,20448,1555358991207592869,world,-2.89788627625,-0.814830303192,0.79692196846,-0.709054291248,0.163006559014,-0.31724640727,0.608297228813
1555358991207631321,20449,1555358991207631321,world,-2.8979177475,-0.814842700958,0.79686999321,-0.708879470825,0.163010910153,-0.317761272192,0.608231186867
1555358991217069742,20450,1555358991217069742,world,-2.89790534973,-0.8148624897,0.796874761581,-0.708735942841,0.16294169426,-0.317996054888,0.608294188976
1555358991227362159,20451,1555358991227362159,world,-2.89978313446,-0.81564617157,0.797549724579,-0.700350701809,0.156871721148,-0.332282066345,0.611954927444
1555358991237694436,20452,1555358991237694436,world,-2.89911651611,-0.815314769745,0.797427415848,-0.704642295837,0.155570536852,-0.323819577694,0.61189699173
1555358991247098273,20453,1555358991247098273,world,-2.89814567566,-0.814959049225,0.797063350677,-0.708243668079,0.16106928885,-0.318477541208,0.609113812447
1555358991247139593,20454,1555358991247139593,world,-2.89778137207,-0.814798355103,0.796841144562,-0.709417164326,0.163219153881,-0.316601425409,0.608153283596
1555358991266805846,20455,1555358991266805846,world,-2.89769458771,-0.814770698547,0.796746253967,-0.709669113159,0.163810580969,-0.316219866276,0.607898831367
1555358991277085486,20456,1555358991277085486,world,-2.89775657654,-0.814845323563,0.796844005585,-0.709529459476,0.163760557771,-0.316734999418,0.607807040215
1555358991277133768,20457,1555358991277133768,world,-2.89961338043,-0.815759658813,0.797584533691,-0.700854361057,0.156794190407,-0.328911364079,0.613217771053
1555358991307150241,20458,1555358991307150241,world,-2.89901638031,-0.815271615982,0.797406435013,-0.704998552799,0.155947253108,-0.322949886322,0.611850380898
1555358991307191193,20459,1555358991307191193,world,-2.89808559418,-0.814862251282,0.796974420547,-0.708584785461,0.161347210407,-0.317725688219,0.609036147594
1555358991307234563,20460,1555358991307234563,world,-2.89774131775,-0.814809083939,0.796751976013,-0.709701478481,0.16350209713,-0.316522777081,0.607786297798
1555358991307257135,20461,1555358991307257135,world,-2.89766693115,-0.814831733704,0.796778678894,-0.709920942783,0.164098858833,-0.316628456116,0.607313930988
1555358991317695477,20462,1555358991317695477,world,-2.89959812164,-0.815579414368,0.797539234161,-0.701373577118,0.157716602087,-0.330584675074,0.611485362053
1555358991327107843,20463,1555358991327107843,world,-2.89895153046,-0.815260410309,0.797390699387,-0.705406308174,0.15629824996,-0.32238343358,0.611589610577
1555358991346717866,20464,1555358991346717866,world,-2.89800453186,-0.814897298813,0.796959877014,-0.708824574947,0.161643117666,-0.317297190428,0.608902096748
1555358991346759117,20465,1555358991346759117,world,-2.89765930176,-0.814740657806,0.796764135361,-0.709906637669,0.163573235273,-0.315861523151,0.607871472836
1555358991346813464,20466,1555358991346813464,world,-2.89761829376,-0.814784765244,0.796754598618,-0.710001826286,0.164113223553,-0.315930306911,0.607578992844
1555358991367598793,20467,1555358991367598793,world,-2.89762783051,-0.814858436584,0.796868562698,-0.709767520428,0.163508504629,-0.315937548876,0.608012020588
1555358991387181173,20468,1555358991387181173,world,-2.89842414856,-0.814973592758,0.797203779221,-0.707855343819,0.158369675279,-0.31881248951,0.610097169876
1555358991387224925,20469,1555358991387224925,world,-2.89980506897,-0.815792322159,0.797640323639,-0.70023137331,0.155304655433,-0.329672783613,0.613899350166
1555358991387278439,20470,1555358991387278439,world,-2.89838600159,-0.8151512146,0.797088861465,-0.706621646881,0.161358058453,-0.321025818586,0.609583377838
1555358991426818392,20471,1555358991426818392,world,-2.89782905579,-0.814846992493,0.796842575073,-0.709099709988,0.163317069411,-0.317487895489,0.608034968376
1555358991437276885,20472,1555358991437276885,world,-2.89769172668,-0.814756393433,0.796785354614,-0.709777534008,0.163828983903,-0.316252976656,0.607749998569
1555358991437370912,20475,1555358991437370912,world,-2.89965343475,-0.81563615799,0.797503232956,-0.700845003128,0.157390236855,-0.331619232893,0.611615359783
1555358991437418963,20476,1555358991437418963,world,-2.89838695526,-0.815056324005,0.797027111053,-0.70671325922,0.161390379071,-0.321434020996,0.609253406525
1555358991447815958,20477,1555358991447815958,world,-2.89789295197,-0.814874172211,0.796824216843,-0.708939433098,0.163072049618,-0.317816674709,0.608116030693
1555358991447865424,20478,1555358991447865424,world,-2.89773273468,-0.8148458004,0.796907901764,-0.709652125835,0.162960425019,-0.316131204367,0.608193039894
1555358991467470938,20479,1555358991467470938,world,-2.89959526062,-0.815562963486,0.797580480576,-0.701319634914,0.157320663333,-0.330027163029,0.611950337887
1555358991467520915,20480,1555358991467520915,world,-2.8982925415,-0.81508398056,0.797137975693,-0.70713365078,0.161007553339,-0.319983184338,0.609630584717
1555358991476824802,20481,1555358991476824802,world,-2.89783859253,-0.814848661423,0.796876430511,-0.70936614275,0.162802428007,-0.316839516163,0.608200550079
1555358991487288737,20482,1555358991487288737,world,-2.89771556854,-0.814773321152,0.796776771545,-0.709962248802,0.163265764713,-0.315968036652,0.607833981514
1555358991497748296,20483,1555358991497748296,world,-2.8976688385,-0.814832448959,0.796808242798,-0.709917902946,0.163220405579,-0.315638542175,0.608069002628
1555358991497792551,20484,1555358991497792551,world,-2.897772789,-0.81479883194,0.796943187714,-0.709610581398,0.163097247481,-0.316228061914,0.608154535294
1555358991507133639,20485,1555358991507133639,world,-2.89780712128,-0.814892053604,0.796970367432,-0.709340929985,0.162579864264,-0.316600859165,0.608413636684
1555358991517536928,20486,1555358991517536928,world,-2.89789295197,-0.814850091934,0.796916484833,-0.709027588367,0.162512019277,-0.317447036505,0.608356177807
1555358991526946337,20487,1555358991526946337,world,-2.89795684814,-0.814869642258,0.796916007996,-0.708805978298,0.162530839443,-0.317903935909,0.608370780945
1555358991537375571,20488,1555358991537375571,world,-2.89793968201,-0.814955472946,0.796894788742,-0.70871758461,0.162148356438,-0.317855626345,0.608600974083
1555358991537443724,20489,1555358991537443724,world,-2.89798545837,-0.814899206161,0.796949386597,-0.708619832993,0.162210971117,-0.318060010672,0.60859131813
1555358991546773358,20490,1555358991546773358,world,-2.89985466003,-0.8156478405,0.797582864761,-0.700235664845,0.156465023756,-0.332058340311,0.612311959267
1555358991557182503,20491,1555358991557182503,world,-2.89851856232,-0.815190076828,0.79712843895,-0.7062510252,0.160471558571,-0.321580648422,0.609954297543
1555358991567627417,20492,1555358991567627417,world,-2.898021698,-0.814922809601,0.796961069107,-0.708551287651,0.162327542901,-0.317949324846,0.608697772026
1555358991577039931,20493,1555358991577039931,world,-2.89785385132,-0.814813375473,0.796890258789,-0.709365904331,0.162883728743,-0.31662234664,0.608292102814
1555358991587490249,20494,1555358991587490249,world,-2.89781188965,-0.81480383873,0.796823740005,-0.709455549717,0.163009285927,-0.316557794809,0.608187377453
1555358991587533896,20495,1555358991587533896,world,-2.89783191681,-0.814789533615,0.796907901764,-0.709313869476,0.162902787328,-0.316838175058,0.608235239983
1555358991596964703,20496,1555358991596964703,world,-2.89973068237,-0.815601348877,0.797538995743,-0.700766444206,0.156955838203,-0.331553816795,0.611852288246
1555358991607425431,20497,1555358991607425431,world,-2.89908981323,-0.815230369568,0.79735994339,-0.70502436161,0.156051069498,-0.323790639639,0.611349582672
1555358991616697149,20498,1555358991616697149,world,-2.89810180664,-0.814917325974,0.797029256821,-0.708555161953,0.161361187696,-0.318259209394,0.608788251877
1555358991626975308,20499,1555358991626975308,world,-2.89772891998,-0.814779996872,0.796832799911,-0.709447026253,0.162909850478,-0.316373020411,0.608320236206
1555358991637330413,20500,1555358991637330413,world,-2.89767360687,-0.814810037613,0.796809911728,-0.709757626057,0.163642466068,-0.316121935844,0.607891619205
1555358991647710418,20501,1555358991647710418,world,-2.89767456055,-0.814881324768,0.796905517578,-0.709666848183,0.163206920028,-0.31598880887,0.608183860779
1555358991657054733,20502,1555358991657054733,world,-2.89779853821,-0.814864635468,0.796943187714,-0.70937615633,0.163314908743,-0.316810548306,0.608066558838
1555358991657096805,20503,1555358991657096805,world,-2.89783573151,-0.814879179001,0.796950101852,-0.709111213684,0.163056269288,-0.317234396935,0.6082239151
1555358991667490274,20504,1555358991667490274,world,-2.89784526825,-0.814928531647,0.796883583069,-0.708995044231,0.162639945745,-0.317049980164,0.608566939831
1555358991697509105,20505,1555358991697509105,world,-2.8979473114,-0.814893484116,0.79688501358,-0.708714783192,0.162574365735,-0.317744910717,0.608548402786
1555358991706957232,20506,1555358991706957232,world,-2.89792346954,-0.814964771271,0.796964645386,-0.708560407162,0.162176817656,-0.317621320486,0.608898639679
1555358991707022665,20507,1555358991707022665,world,-2.89799785614,-0.814953804016,0.797026395798,-0.708477556705,0.162386700511,-0.318250060081,0.60861068964
1555358991707066033,20509,1555358991707066033,world,-2.89802360535,-0.8149330616,0.796950340271,-0.708466231823,0.162209808826,-0.318281322718,0.608654797077
1555358991717450669,20510,1555358991717450669,world,-2.8980512619,-0.814859390259,0.796907424927,-0.708443820477,0.16217315197,-0.31809425354,0.608788311481
1555358991737013609,20511,1555358991737013609,world,-2.89805603027,-0.814885377884,0.796926259995,-0.708420574665,0.162348240614,-0.318429768085,0.608593344688
1555358991737052156,20512,1555358991737052156,world,-2.89988422394,-0.815674066544,0.797596693039,-0.700056254864,0.156209856272,-0.33237862587,0.612408518791
1555358991737109793,20513,1555358991737109793,world,-2.89847564697,-0.815210580826,0.797211170197,-0.706189393997,0.160469338298,-0.322119325399,0.609742045403
1555358991756698502,20514,1555358991756698502,world,-2.89797306061,-0.814909696579,0.796994686127,-0.708637356758,0.162265077233,-0.318018704653,0.608578085899
1555358991767065028,20515,1555358991767065028,world,-2.89780712128,-0.81481385231,0.796834945679,-0.709344089031,0.163119986653,-0.316861540079,0.608129680157
1555358991767102445,20516,1555358991767102445,world,-2.8978061676,-0.8148021698,0.796809434891,-0.709454953671,0.163020297885,-0.316519737244,0.608204960823
1555358991777484529,20517,1555358991777484529,world,-2.89967536926,-0.815608263016,0.797502756119,-0.700970947742,0.157108128071,-0.3313331604,0.611698508263
1555358991797141586,20518,1555358991797141586,world,-2.89903736115,-0.815277338028,0.797429561615,-0.705133199692,0.155642792583,-0.322726368904,0.611890554428
1555358991797212527,20519,1555358991797212527,world,-2.89804553986,-0.814948320389,0.797064304352,-0.708616614342,0.161229357123,-0.317874073982,0.608952879906
1555358991807557224,20520,1555358991807557224,world,-2.89771175385,-0.814816951752,0.79683303833,-0.709744513035,0.163125112653,-0.316205859184,0.608002185822
1555358991807632461,20521,1555358991807632461,world,-2.89764022827,-0.814804553986,0.796732902527,-0.709912478924,0.163837611675,-0.316064655781,0.60768789053
1555358991827136930,20522,1555358991827136930,world,-2.8976984024,-0.814829349518,0.796822547913,-0.709686517715,0.16363863647,-0.31629306078,0.60788667202
1555358991837418853,20523,1555358991837418853,world,-2.89956760406,-0.815752029419,0.797563552856,-0.701013982296,0.15671660006,-0.32869836688,0.613169372082
1555358991837454812,20524,1555358991837454812,world,-2.8983039856,-0.815170526505,0.79717373848,-0.706827282906,0.160980835557,-0.320124745369,0.609918475151
1555358991846739325,20525,1555358991846739325,world,-2.89785194397,-0.814902544022,0.796935081482,-0.709021091461,0.162880852818,-0.317192286253,0.608397901058
1555358991846777830,20526,1555358991846777830,world,-2.89772224426,-0.8148021698,0.796775341034,-0.709643006325,0.163493007421,-0.316509991884,0.607863664627
1555358991857099963,20527,1555358991857099963,world,-2.89773845673,-0.814802646637,0.79679942131,-0.709700405598,0.163433566689,-0.316678136587,0.607725083828
1555358991877692654,20528,1555358991877692654,world,-2.89964199066,-0.815595388412,0.797506809235,-0.701141774654,0.157508805394,-0.330811858177,0.611681878567
1555358991886979168,20529,1555358991886979168,world,-2.89833545685,-0.815094947815,0.797145605087,-0.706963539124,0.160983160138,-0.320549637079,0.609536707401
1555358991887036022,20530,1555358991887036022,world,-2.89967823029,-0.815640211105,0.797508716583,-0.700479149818,0.156873419881,-0.331955999136,0.611984491348
1555358991897412157,20531,1555358991897412157,world,-2.89822673798,-0.814989328384,0.797035455704,-0.707391679287,0.161792382598,-0.320296913385,0.608958184719
1555358991897465304,20532,1555358991897465304,world,-2.89771842957,-0.814784765244,0.796798706055,-0.709900975227,0.16332834959,-0.316053390503,0.607844412327
1555358991917028406,20533,1555358991917028406,world,-2.89757919312,-0.814724206924,0.796807765961,-0.71046423912,0.163704395294,-0.31505343318,0.607604265213
1555358991917083055,20534,1555358991917083055,world,-2.89943504333,-0.815634012222,0.797487735748,-0.70196646452,0.156995207071,-0.327079981565,0.612873911858
1555358991927447373,20535,1555358991927447373,world,-2.89817810059,-0.815089225769,0.797080039978,-0.707646608353,0.161156594753,-0.318722456694,0.609656393528
1555358991936780810,20536,1555358991936780810,world,-2.89775943756,-0.814864397049,0.796902894974,-0.709672272205,0.163025543094,-0.316165149212,0.608134567738
1555358991957594334,20537,1555358991957594334,world,-2.89766120911,-0.814753770828,0.79681968689,-0.710192143917,0.163593709469,-0.315615147352,0.607660591602
1555358991957635196,20538,1555358991957635196,world,-2.89768886566,-0.814781665802,0.796796560287,-0.709949731827,0.163505762815,-0.316012710333,0.607760965824
1555358991957682491,20539,1555358991957682491,world,-2.89772415161,-0.814871549606,0.796879768372,-0.709568560123,0.16281786561,-0.316042423248,0.608375012875
1555358991967022224,20540,1555358991967022224,world,-2.89962482452,-0.815728664398,0.797588348389,-0.700910449028,0.156199365854,-0.328914910555,0.613303661346
1555358991986745106,20541,1555358991986745106,world,-2.89839839935,-0.815103292465,0.797117948532,-0.706825196743,0.160819977522,-0.32080334425,0.609606683254
1555358991986785627,20542,1555358991986785627,world,-2.89793395996,-0.814834594727,0.796898365021,-0.709040343761,0.16256788373,-0.317367553711,0.608367860317
1555358991997252859,20543,1555358991997252859,world,-2.89776325226,-0.814795017242,0.796804666519,-0.70963126421,0.163427487016,-0.316824048758,0.607731461525
1555358991997333872,20544,1555358991997333872,world,-2.89960479736,-0.815531730652,0.797478914261,-0.70140093565,0.157429486513,-0.330605596304,0.611516654491
1555358992016940465,20545,1555358992016940465,world,-2.89831161499,-0.815024852753,0.797124624252,-0.707166492939,0.161374285817,-0.320902854204,0.609011769295
1555358992016992092,20546,1555358992016992092,world,-2.89782619476,-0.814819812775,0.79692864418,-0.70937371254,0.162946999073,-0.316973090172,0.608083367348
1555358992027379257,20547,1555358992027379257,world,-2.89769554138,-0.814782381058,0.796811342239,-0.709974944592,0.163325086236,-0.315925627947,0.607825219631
1555358992037665698,20548,1555358992037665698,world,-2.89773845673,-0.814774036407,0.796802282333,-0.709903120995,0.1631308496,-0.315909445286,0.60796970129
1555358992047126597,20549,1555358992047126597,world,-2.89782619476,-0.814792156219,0.796929836273,-0.709646344185,0.162687584758,-0.316214799881,0.608229339123
1555358992057579282,20550,1555358992057579282,world,-2.89782333374,-0.814895391464,0.796988487244,-0.70933008194,0.162267819047,-0.316404700279,0.608611643314
1555358992057620302,20551,1555358992057620302,world,-2.89790058136,-0.814893245697,0.796962738037,-0.709034800529,0.162444621325,-0.317339301109,0.608421802521
1555358992067061097,20552,1555358992067061097,world,-2.89793300629,-0.814846515656,0.79686832428,-0.708848953247,0.162614911795,-0.317614525557,0.608449339867
1555358992077521036,20553,1555358992077521036,world,-2.89797782898,-0.814910173416,0.796887397766,-0.708769023418,0.162483841181,-0.318134278059,0.608305990696
1555358992097485333,20554,1555358992097485333,world,-2.89797973633,-0.81498003006,0.796980619431,-0.708618164062,0.162034422159,-0.31784376502,0.608753442764
1555358992106768765,20555,1555358992106768765,world,-2.89797496796,-0.815006017685,0.797030925751,-0.708564639091,0.161989673972,-0.317750304937,0.608876228333
1555358992117180038,20556,1555358992117180038,world,-2.89801120758,-0.814957380295,0.797029495239,-0.708464801311,0.162328481674,-0.318311363459,0.60860902071
1555358992117218655,20557,1555358992117218655,world,-2.89801597595,-0.814918041229,0.79695558548,-0.708446621895,0.162392839789,-0.318447679281,0.608541667461
1555358992117271979,20558,1555358992117271979,world,-2.89802360535,-0.814948320389,0.796846866608,-0.708411633968,0.162581384182,-0.318613886833,0.608445227146
1555358992127604048,20559,1555358992127604048,world,-2.89802265167,-0.814895868301,0.796936273575,-0.708450675011,0.162282690406,-0.318367213011,0.608608424664
1555358992147341095,20560,1555358992147341095,world,-2.8997964859,-0.815794706345,0.797597885132,-0.700034677982,0.155935928226,-0.330160290003,0.61370152235
1555358992157804472,20561,1555358992157804472,world,-2.89917182922,-0.815377950668,0.797420978546,-0.704455673695,0.155103057623,-0.323135018349,0.612591981888
1555358992157846743,20562,1555358992157846743,world,-2.89818477631,-0.814961433411,0.797105312347,-0.708103120327,0.160830467939,-0.318551838398,0.609301447868
1555358992157892117,20563,1555358992157892117,world,-2.89780521393,-0.814824104309,0.796833276749,-0.709385514259,0.163109272718,-0.317008435726,0.608007609844
1555358992167246451,20564,1555358992167246451,world,-2.8976984024,-0.81480884552,0.796745300293,-0.709677040577,0.163850665092,-0.316961348057,0.60749232769
1555358992177578353,20565,1555358992177578353,world,-2.89774513245,-0.814768314362,0.796843290329,-0.709506571293,0.163682565093,-0.316868543625,0.60778516531
1555358992207571042,20566,1555358992207571042,world,-2.89962482452,-0.815703392029,0.797569036484,-0.700906276703,0.156694099307,-0.328758597374,0.613266050816
1555358992207657676,20569,1555358992207657676,world,-2.89775276184,-0.814778089523,0.796689033508,-0.709668457508,0.163555160165,-0.316478580236,0.6078338027
1555358992217089901,20570,1555358992217089901,world,-2.89768886566,-0.814737319946,0.796721458435,-0.709912121296,0.16393250227,-0.3162099123,0.60758715868
1555358992227429031,20571,1555358992227429031,world,-2.89953327179,-0.815686941147,0.797480821609,-0.701336979866,0.157275617123,-0.328724086285,0.612642884254
1555358992237830361,20572,1555358992237830361,world,-2.89894199371,-0.815310001373,0.797423839569,-0.705287754536,0.156265944242,-0.322131037712,0.611867368221
1555358992247229349,20573,1555358992247229349,world,-2.89978599548,-0.815796375275,0.79768371582,-0.700361251831,0.155340597034,-0.329499870539,0.613834917545
1555358992257683708,20574,1555358992257683708,world,-2.89813804626,-0.814985275269,0.796888589859,-0.707623183727,0.161943182349,-0.319500982761,0.609067320824
1555358992267137652,20575,1555358992267137652,world,-2.89757919312,-0.814755916595,0.796671390533,-0.710124433041,0.164310231805,-0.316306829453,0.607186436653
1555358992267179113,20576,1555358992267179113,world,-2.89743423462,-0.814728021622,0.796774625778,-0.710775196552,0.164393618703,-0.314921796322,0.607122421265
1555358992286873950,20577,1555358992286873950,world,-2.89931774139,-0.815604925156,0.797502756119,-0.702241182327,0.157783418894,-0.327573627234,0.612092554569
1555358992286912236,20578,1555358992286912236,world,-2.89880752563,-0.81521654129,0.797378540039,-0.706029772758,0.15657825768,-0.321020931005,0.611515164375
1555358992286966470,20579,1555358992286966470,world,-2.89790725708,-0.814824819565,0.796892166138,-0.709300875664,0.162116736174,-0.317025452852,0.608362793922
1555358992297333984,20580,1555358992297333984,world,-2.89760303497,-0.814712047577,0.796689987183,-0.710249602795,0.164152011275,-0.315940231085,0.607273697853
1555358992307779552,20581,1555358992307779552,world,-2.89754772186,-0.814799070358,0.796743154526,-0.710181951523,0.164070442319,-0.315505027771,0.607601106167
1555358992327377758,20582,1555358992327377758,world,-2.89763832092,-0.814886331558,0.79687666893,-0.70986354351,0.163761869073,-0.316058188677,0.607768893242
1555358992337686786,20583,1555358992337686786,world,-2.89774131775,-0.814884185791,0.796934366226,-0.709502577782,0.163216367364,-0.316257536411,0.608233213425
1555358992337725386,20584,1555358992337725386,world,-2.89781188965,-0.814923048019,0.796918869019,-0.709242045879,0.162911370397,-0.316785335541,0.608344137669
1555358992347008111,20585,1555358992347008111,world,-2.89793682098,-0.814861059189,0.796858310699,-0.708973288536,0.162979006767,-0.317534506321,0.608248770237
1555358992357282719,20586,1555358992357282719,world,-2.89798736572,-0.81484246254,0.796875,-0.708851695061,0.162843674421,-0.317867159843,0.608253121376
1555358992357325763,20587,1555358992357325763,world,-2.89799880981,-0.814889669418,0.796937227249,-0.708677053452,0.16274446249,-0.318315982819,0.608248353004
1555358992367708924,20588,1555358992367708924,world,-2.89980125427,-0.815759897232,0.797612190247,-0.700256049633,0.155989229679,-0.329671531916,0.613698244095
1555358992377090493,20589,1555358992377090493,world,-2.89920043945,-0.815279722214,0.797407388687,-0.704656541348,0.155738562346,-0.323691487312,0.611905574799
1555358992387416792,20590,1555358992387416792,world,-2.89815425873,-0.81497168541,0.797037601471,-0.708224833012,0.160883262753,-0.318258553743,0.609299302101
1555358992407107244,20591,1555358992407107244,world,-2.89784812927,-0.814817428589,0.796845674515,-0.709423243999,0.162913247943,-0.316828340292,0.608109951019
1555358992407181233,20593,1555358992407181233,world,-2.89772224426,-0.814850568771,0.796889305115,-0.709479808807,0.163277417421,-0.316485852003,0.608124792576
1555358992426793278,20594,1555358992426793278,world,-2.89967727661,-0.815564393997,0.797530889511,-0.700972259045,0.157370761037,-0.330543637276,0.612056612968
1555358992426833686,20595,1555358992426833686,world,-2.898396492,-0.815034866333,0.797116756439,-0.706819713116,0.161482751369,-0.321198225021,0.609229803085
1555358992437147320,20596,1555358992437147320,world,-2.89791297913,-0.81480550766,0.796886205673,-0.70903557539,0.162830024958,-0.317323684692,0.608326137066
1555358992456736626,20597,1555358992456736626,world,-2.89776420593,-0.814770460129,0.796838283539,-0.709658682346,0.163330808282,-0.316478341818,0.607905566692
1555358992456801385,20599,1555358992456801385,world,-2.89828872681,-0.81507229805,0.797115564346,-0.707119762897,0.161329135299,-0.320071160793,0.609515547752
1555358992477504395,20600,1555358992477504395,world,-2.89782333374,-0.814793109894,0.796920061111,-0.709273278713,0.162989601493,-0.316879242659,0.608237981796
