%time,field.header.seq,field.header.stamp,field.header.frame_id,field.pose.position.x,field.pose.position.y,field.pose.position.z,field.pose.orientation.x,field.pose.orientation.y,field.pose.orientation.z,field.pose.orientation.w
1555359056797232345,21841,1555359056797232345,world,-2.90650177002,-0.818031311035,0.797075033188,-0.719649136066,0.0920057594776,-0.25948497653,0.637422800064
1555359056797285795,21842,1555359056797285795,world,-2.9064912796,-0.818107366562,0.797074079514,-0.719694018364,0.0924589782953,-0.259954214096,0.637115061283
1555359056817035990,21843,1555359056817035990,world,-2.90650558472,-0.818033695221,0.797053575516,-0.719650328159,0.0917883291841,-0.259234875441,0.63755440712
1555359056817077924,21844,1555359056817077924,world,-2.90646648407,-0.818072319031,0.796979665756,-0.719730317593,0.0925309881568,-0.259932488203,0.637072622776
1555359056827386273,21845,1555359056827386273,world,-2.90648365021,-0.818025112152,0.797053098679,-0.719740331173,0.0920832008123,-0.259358882904,0.637359917164
1555359056827431526,21846,1555359056827431526,world,-2.90597438812,-0.817779302597,0.796944856644,-0.721243917942,0.0970999598503,-0.256796091795,0.635951757431
1555359056836713570,21847,1555359056836713570,world,-2.90629482269,-0.818009853363,0.79705286026,-0.72029954195,0.0939670354128,-0.25877276063,0.63669103384
1555359056847146710,21848,1555359056847146710,world,-2.90643215179,-0.818043231964,0.797045230865,-0.71981304884,0.0923150405288,-0.259143531322,0.637331724167
1555359056857597084,21849,1555359056857597084,world,-2.90644550323,-0.818110704422,0.797014713287,-0.719700813293,0.092230848968,-0.259968787432,0.637134671211
1555359056867000133,21850,1555359056867000133,world,-2.90643596649,-0.818110227585,0.797053813934,-0.719673216343,0.0921660065651,-0.259865731001,0.637217283249
1555359056877384225,21851,1555359056877384225,world,-2.90646076202,-0.818062543869,0.797108650208,-0.719691455364,0.0920726507902,-0.25936126709,0.637415707111
1555359056887818452,21852,1555359056887818452,world,-2.90644168854,-0.818046808243,0.797065019608,-0.719718575478,0.0922451391816,-0.259500801563,0.637303292751
1555359056887860009,21853,1555359056887860009,world,-2.9064245224,-0.818033456802,0.797028779984,-0.719722509384,0.0924057066441,-0.259446144104,0.637297749519
1555359056907503211,21854,1555359056907503211,world,-2.90643692017,-0.818025350571,0.79700255394,-0.719733476639,0.0925109982491,-0.259625792503,0.63719689846
1555359056907553856,21855,1555359056907553856,world,-2.90645122528,-0.818009614944,0.797000169754,-0.719751656055,0.0924884155393,-0.25954207778,0.63721382618
1555359056917002198,21856,1555359056917002198,world,-2.9064540863,-0.818029642105,0.797070026398,-0.719755172729,0.0925181210041,-0.259435206652,0.63724899292
1555359056917044476,21857,1555359056917044476,world,-2.90642929077,-0.81804227829,0.797040700912,-0.719796001911,0.0928971841931,-0.259648174047,0.63706099987
1555359056927377777,21858,1555359056927377777,world,-2.90643596649,-0.818016767502,0.797049760818,-0.719848334789,0.0928365513682,-0.259567677975,0.637043476105
1555359056947104050,21859,1555359056947104050,world,-2.90640830994,-0.818032503128,0.796992540359,-0.719901204109,0.0927364081144,-0.259210824966,0.637143552303
1555359056947144676,21860,1555359056947144676,world,-2.9064245224,-0.818050384521,0.796980381012,-0.71993547678,0.0930485203862,-0.259639084339,0.636884987354
1555359056957582063,21861,1555359056957582063,world,-2.90642642975,-0.817993402481,0.797007799149,-0.71984744072,0.0926217138767,-0.259227275848,0.637214422226
1555359056966982773,21862,1555359056966982773,world,-2.90642738342,-0.818047761917,0.797035455704,-0.719907045364,0.0927577316761,-0.259364515543,0.637071371078
1555359056977285599,21863,1555359056977285599,world,-2.90644741058,-0.818011045456,0.79708981514,-0.71986156702,0.0926626697183,-0.259389817715,0.637126266956
1555359056987597365,21864,1555359056987597365,world,-2.90643978119,-0.817979812622,0.797049760818,-0.719806492329,0.0925398543477,-0.259347468615,0.637223541737
1555359056987637147,21865,1555359056987637147,world,-2.90643978119,-0.818004131317,0.796998977661,-0.719777584076,0.0925880372524,-0.259117871523,0.637342691422
1555359056997030906,21866,1555359056997030906,world,-2.90642547607,-0.817981719971,0.796989440918,-0.719759643078,0.0922512039542,-0.258800208569,0.637540817261
1555359057007438888,21867,1555359057007438888,world,-2.90641498566,-0.818034410477,0.797029972076,-0.7198112607,0.0927827730775,-0.259358465672,0.637178480625
1555359057047498082,21868,1555359057047498082,world,-2.90641403198,-0.817998170853,0.797111749649,-0.71980047226,0.092410326004,-0.259039670229,0.637374401093
1555359057047595372,21871,1555359057047595372,world,-2.90644073486,-0.817967653275,0.796972036362,-0.719794750214,0.0923202931881,-0.258921146393,0.637442111969
1555359057057018995,21872,1555359057057018995,world,-2.90638446808,-0.818056583405,0.796967506409,-0.719872772694,0.093107111752,-0.259804457426,0.63687980175
1555359057057069664,21873,1555359057057069664,world,-2.90643692017,-0.817994832993,0.797095537186,-0.719774723053,0.0925561785698,-0.259212374687,0.637312173843
1555359057067439582,21874,1555359057067439582,world,-2.90644359589,-0.818023443222,0.79710316658,-0.719858407974,0.0925575196743,-0.259253650904,0.637200593948
1555359057076651486,21875,1555359057076651486,world,-2.9064207077,-0.818020343781,0.797019720078,-0.719839096069,0.0928343832493,-0.259566187859,0.637054920197
1555359057087204007,21876,1555359057087204007,world,-2.90641403198,-0.818012714386,0.796957731247,-0.71979445219,0.092794649303,-0.259559243917,0.6371139884
1555359057087254778,21877,1555359057087254778,world,-2.90640544891,-0.818029403687,0.796954154968,-0.719898223877,0.092925131321,-0.259804040194,0.636877775192
1555359057097631213,21878,1555359057097631213,world,-2.90640163422,-0.818052053452,0.79701757431,-0.719913363457,0.0930086225271,-0.259546399117,0.636953532696
1555359057107038013,21879,1555359057107038013,world,-2.90644168854,-0.81801199913,0.797060012817,-0.719852209091,0.0923499464989,-0.259043961763,0.637322902679
1555359057117537388,21880,1555359057117537388,world,-2.9064655304,-0.817977428436,0.797081232071,-0.719872713089,0.0922117829323,-0.259012967348,0.637332439423
1555359057126911805,21881,1555359057126911805,world,-2.90643787384,-0.817999839783,0.797007322311,-0.719858467579,0.0925098136067,-0.259126991034,0.637258887291
1555359057137245788,21882,1555359057137245788,world,-2.90638828278,-0.818040370941,0.7970058918,-0.719827890396,0.0928385555744,-0.259402543306,0.637133598328
1555359057137304176,21883,1555359057137304176,world,-2.90638542175,-0.818041563034,0.796989440918,-0.719871819019,0.0928802862763,-0.259403556585,0.637077450752
1555359057147610169,21884,1555359057147610169,world,-2.90640449524,-0.818012475967,0.7970225811,-0.719791829586,0.0924900695682,-0.258957356215,0.637406051159
1555359057156873128,21885,1555359057156873128,world,-2.90641784668,-0.818000793457,0.797080755234,-0.719864606857,0.0925192832947,-0.259162336588,0.637236356735
1555359057167141493,21886,1555359057167141493,world,-2.90643024445,-0.818005561829,0.797060251236,-0.719791948795,0.0924694910645,-0.258999198675,0.637391924858
1555359057177572570,21887,1555359057177572570,world,-2.90641307831,-0.818024396896,0.796997308731,-0.719867169857,0.092784486711,-0.259339034557,0.637122869492
1555359057177647028,21888,1555359057177647028,world,-2.90640354156,-0.818002223969,0.796985149384,-0.719761908054,0.0923877432942,-0.25910359621,0.637395203114
1555359057197310237,21889,1555359057197310237,world,-2.90638828278,-0.818056821823,0.796974420547,-0.719773709774,0.0927887186408,-0.259620010853,0.637113511562
1555359057197352144,21890,1555359057197352144,world,-2.90641403198,-0.817993164062,0.797062158585,-0.719825208187,0.0923993214965,-0.259177774191,0.63729184866
1555359057207736538,21891,1555359057207736538,world,-2.90641212463,-0.818052053452,0.797059297562,-0.719953000546,0.0929556712508,-0.259633034468,0.636881291866
1555359057207775131,21892,1555359057207775131,world,-2.90639686584,-0.818037033081,0.796996593475,-0.719940721989,0.0930182412267,-0.259464919567,0.636954367161
1555359057237674260,21893,1555359057237674260,world,-2.90639305115,-0.818022251129,0.796979904175,-0.719896674156,0.0930231362581,-0.25979757309,0.636867940426
1555359057237716040,21894,1555359057237716040,world,-2.90640163422,-0.818011522293,0.796999454498,-0.719909131527,0.0926833674312,-0.259281337261,0.637113749981
1555359057237768926,21895,1555359057237768926,world,-2.90640926361,-0.818012952805,0.797033548355,-0.719873845577,0.0927714928985,-0.259253591299,0.637152135372
1555359057247099262,21896,1555359057247099262,world,-2.90641975403,-0.818016052246,0.797064304352,-0.71982383728,0.0926992297173,-0.259120225906,0.637273311615
1555359057257351549,21897,1555359057257351549,world,-2.90642356873,-0.818019390106,0.79705786705,-0.719866394997,0.0926060527563,-0.2592420578,0.637189090252
1555359057287057723,21898,1555359057287057723,world,-2.90642261505,-0.818028450012,0.79702091217,-0.719820857048,0.0927643030882,-0.259467750788,0.63712567091
1555359057287130465,21899,1555359057287130465,world,-2.90640544891,-0.817992687225,0.796999454498,-0.719907283783,0.0925645828247,-0.259267836809,0.637138605118
1555359057287157784,21900,1555359057287157784,world,-2.90640258789,-0.818014860153,0.797013044357,-0.719939649105,0.0927895233035,-0.25947996974,0.636982858181
1555359057297522279,21901,1555359057297522279,world,-2.90641593933,-0.817989587784,0.79705286026,-0.719840347767,0.092677988112,-0.259361803532,0.637159407139
1555359057306874730,21902,1555359057306874730,world,-2.90643024445,-0.818001031876,0.797081232071,-0.719851195812,0.0926526710391,-0.259344547987,0.637157857418
1555359057306938664,21903,1555359057306938664,world,-2.9064245224,-0.817983865738,0.797021865845,-0.719776153564,0.0924513339996,-0.259165436029,0.637344837189
1555359057336767765,21904,1555359057336767765,world,-2.90639781952,-0.818025827408,0.796968221664,-0.719829142094,0.0927226915956,-0.259411036968,0.637145578861
1555359057336893017,21905,1555359057336893017,world,-2.90641975403,-0.817999362946,0.79699420929,-0.719770789146,0.092538818717,-0.259245038033,0.637305676937
1555359057336930105,21907,1555359057336930105,world,-2.90643787384,-0.818055152893,0.797098875046,-0.719881653786,0.0926512628794,-0.259298801422,0.63714236021
1555359057347299540,21908,1555359057347299540,world,-2.90644359589,-0.818001031876,0.797034978867,-0.719894170761,0.0926697254181,-0.259434252977,0.637070417404
1555359057357629228,21909,1555359057357629228,world,-2.90640354156,-0.818055868149,0.796940803528,-0.71981048584,0.0931435823441,-0.259831190109,0.636933922768
1555359057366931865,21910,1555359057366931865,world,-2.90644168854,-0.817983627319,0.797021865845,-0.719887912273,0.0923920199275,-0.25903326273,0.63728094101
1555359057377320561,21911,1555359057377320561,world,-2.90643882751,-0.818034172058,0.797036170959,-0.719869434834,0.0927710011601,-0.259583085775,0.637022852898
1555359057387657377,21912,1555359057387657377,world,-2.90646648407,-0.81797003746,0.797100543976,-0.719786405563,0.0921930372715,-0.25901722908,0.637430906296
1555359057387727996,21913,1555359057387727996,world,-2.90641975403,-0.818000793457,0.797014713287,-0.719831287861,0.0925334468484,-0.259342104197,0.637198746204
1555359057397120865,21914,1555359057397120865,world,-2.90640258789,-0.817987918854,0.796964645386,-0.719775319099,0.0927499085665,-0.259394884109,0.637208878994
1555359057416987550,21915,1555359057416987550,world,-2.90642166138,-0.817986726761,0.79700922966,-0.719733297825,0.0925865545869,-0.259126842022,0.637389242649
1555359057417025663,21916,1555359057417025663,world,-2.90642547607,-0.818025112152,0.797020196915,-0.719712257385,0.0926057100296,-0.259164243937,0.637395143509
1555359057427491686,21917,1555359057427491686,world,-2.90642642975,-0.817984342575,0.797071456909,-0.719796955585,0.0924024656415,-0.259217351675,0.637307286263
1555359057436758024,21918,1555359057436758024,world,-2.90641021729,-0.818017244339,0.797031641006,-0.719808995724,0.0925388559699,-0.259250372648,0.637260377407
1555359057436798930,21919,1555359057436798930,world,-2.90638828278,-0.818026781082,0.797009944916,-0.719933927059,0.0929196104407,-0.25950846076,0.636958777905
1555359057447167327,21920,1555359057447167327,world,-2.90641307831,-0.818009614944,0.797008275986,-0.719867944717,0.0925723612309,-0.259059906006,0.637266397476
1555359057457558473,21921,1555359057457558473,world,-2.9064207077,-0.818050146103,0.796989440918,-0.719891548157,0.0928142368793,-0.259253650904,0.637125730515
1555359057466912693,21922,1555359057466912693,world,-2.90643310547,-0.817994356155,0.797048807144,-0.719801187515,0.0924178659916,-0.258796930313,0.637471079826
1555359057477329723,21923,1555359057477329723,world,-2.90641212463,-0.818031311035,0.797021627426,-0.719868123531,0.0929245278239,-0.259556382895,0.637012898922
1555359057487681368,21924,1555359057487681368,world,-2.90642738342,-0.817999601364,0.79701757431,-0.719814002514,0.0926406905055,-0.259214967489,0.637254416943
1555359057487747435,21925,1555359057487747435,world,-2.90641403198,-0.818041324615,0.796980857849,-0.719814062119,0.0928375422955,-0.259395003319,0.637152433395
1555359057497074644,21926,1555359057497074644,world,-2.90644836426,-0.817995786667,0.797034502029,-0.719914019108,0.092422105372,-0.25928157568,0.637146055698
1555359057547561478,21927,1555359057547561478,world,-2.90645599365,-0.81800031662,0.797040700912,-0.719848811626,0.0924989506602,-0.259244054556,0.637223899364
1555359057556994835,21928,1555359057556994835,world,-2.90668106079,-0.818052768707,0.797075033188,-0.72001105547,0.0927701964974,-0.257053107023,0.637888371944
1555359057557080425,21931,1555359057557080425,world,-2.90647602081,-0.817992925644,0.797019720078,-0.719916582108,0.0924890637398,-0.258906394243,0.6372859478
1555359057557146469,21932,1555359057557146469,world,-2.90664482117,-0.818014144897,0.797084569931,-0.720001161098,0.0927492305636,-0.25734692812,0.637784004211
1555359057557170078,21933,1555359057557170078,world,-2.906457901,-0.817972660065,0.797065973282,-0.719853520393,0.0926121324301,-0.259064435959,0.63727504015
1555359057567537813,21934,1555359057567537813,world,-2.90641212463,-0.817938327789,0.797054767609,-0.719733834267,0.0921584516764,-0.259173989296,0.637431561947
1555359057576876778,21935,1555359057576876778,world,-2.9063615799,-0.817970275879,0.797005176544,-0.719726324081,0.0925892293453,-0.259836554527,0.637107729912
1555359057587175783,21936,1555359057587175783,world,-2.90639209747,-0.817954540253,0.796992301941,-0.719723284245,0.0923731401563,-0.259628623724,0.637227416039
1555359057587246692,21937,1555359057587246692,world,-2.90641117096,-0.817946195602,0.797038078308,-0.719733536243,0.0921079292893,-0.259113639593,0.63746368885
1555359057606985677,21938,1555359057606985677,world,-2.9064245224,-0.81795835495,0.797075748444,-0.719832003117,0.0922037139535,-0.259071558714,0.637355685234
1555359057607053680,21939,1555359057607053680,world,-2.90642642975,-0.817942857742,0.797084331512,-0.719882845879,0.0923141092062,-0.259214758873,0.637224137783
1555359057617366917,21940,1555359057617366917,world,-2.90638446808,-0.818007707596,0.797009468079,-0.719826757908,0.0929413512349,-0.259715110064,0.636992514133
1555359057617435940,21941,1555359057617435940,world,-2.90639591217,-0.817996501923,0.796974897385,-0.719840109348,0.0929081514478,-0.259694635868,0.636990606785
1555359057637057650,21942,1555359057637057650,world,-2.90644359589,-0.817979335785,0.797033786774,-0.719820678234,0.0925504490733,-0.259307831526,0.637222230434
1555359057667038741,21943,1555359057667038741,world,-2.90644264221,-0.817976951599,0.797080755234,-0.719841480255,0.0926405787468,-0.259275823832,0.6371986866
1555359057667132217,21946,1555359057667132217,world,-2.90666866302,-0.818011522293,0.797008991241,-0.720027863979,0.0931073650718,-0.257577478886,0.637608528137
1555359057677440192,21947,1555359057677440192,world,-2.9065284729,-0.817919969559,0.797018051147,-0.719875574112,0.0923964679241,-0.258627176285,0.637459039688
1555359057696993675,21948,1555359057696993675,world,-2.90643310547,-0.817927837372,0.797042608261,-0.719888389111,0.0924746319652,-0.259287416935,0.637164831161
1555359057697035076,21949,1555359057697035076,world,-2.90641498566,-0.817953109741,0.797065496445,-0.719834268093,0.0924801751971,-0.259465992451,0.637152671814
1555359057717679362,21950,1555359057717679362,world,-2.90643978119,-0.817918539047,0.797068357468,-0.719791293144,0.0922246724367,-0.259290933609,0.637309491634
1555359057717775338,21953,1555359057717775338,world,-2.90638446808,-0.818059444427,0.797009706497,-0.719847202301,0.0928385257721,-0.259503036737,0.637070894241
1555359057727201372,21954,1555359057727201372,world,-2.90651893616,-0.818078279495,0.797141313553,-0.719666004181,0.0915050506592,-0.259342104197,0.637533903122
1555359057737634707,21955,1555359057737634707,world,-2.90577507019,-0.817963123322,0.796924829483,-0.721119999886,0.0981777906418,-0.258447051048,0.635257601738
1555359057746908556,21956,1555359057746908556,world,-2.90621376038,-0.818024396896,0.796963453293,-0.720220267773,0.0942104160786,-0.25917199254,0.636582374573
1555359057757257292,21957,1555359057757257292,world,-2.90634918213,-0.818080186844,0.79692363739,-0.719903290272,0.093030191958,-0.259594768286,0.636942028999
1555359057767598133,21958,1555359057767598133,world,-2.90642929077,-0.818069458008,0.797015428543,-0.719744086266,0.0922653451562,-0.259478479624,0.637280523777
1555359057767652385,21959,1555359057767652385,world,-2.90647125244,-0.818000078201,0.797119379044,-0.719749569893,0.0919537395239,-0.259343892336,0.637374222279
1555359057776972778,21960,1555359057776972778,world,-2.9064874649,-0.817963123322,0.797148704529,-0.71971231699,0.0920024812222,-0.259148329496,0.63748884201
1555359057787363765,21961,1555359057787363765,world,-2.90647792816,-0.817884922028,0.797062158585,-0.719676613808,0.0917583554983,-0.259138256311,0.637568295002
1555359057797752663,21962,1555359057797752663,world,-2.90643119812,-0.817913770676,0.796945571899,-0.719792246819,0.0925009027123,-0.259715139866,0.637095630169
1555359057807084941,21963,1555359057807084941,world,-2.9064207077,-0.817873239517,0.796994686127,-0.719835042953,0.0922288000584,-0.259305357933,0.637253642082
1555359057817428509,21964,1555359057817428509,world,-2.90642929077,-0.817908525467,0.797084569931,-0.71986758709,0.0923051387072,-0.259085893631,0.637294948101
1555359057817473004,21965,1555359057817473004,world,-2.90641975403,-0.817913532257,0.797118663788,-0.7198523283,0.0922686606646,-0.258965402842,0.637366473675
1555359057826732792,21966,1555359057826732792,world,-2.90639305115,-0.817977905273,0.797072887421,-0.719815552235,0.0926400497556,-0.259222120047,0.637249827385
1555359057837076534,21967,1555359057837076534,world,-2.90639019012,-0.81801366806,0.796991825104,-0.719799101353,0.0926318541169,-0.259479135275,0.637164950371
1555359057847447137,21968,1555359057847447137,world,-2.90636634827,-0.818064451218,0.79697561264,-0.719855666161,0.0928921550512,-0.259646296501,0.636995017529
1555359057856729619,21969,1555359057856729619,world,-2.90640354156,-0.818070650101,0.797054290771,-0.719874620438,0.0927121043205,-0.259281903505,0.63714838028
1555359057867075259,21970,1555359057867075259,world,-2.90641498566,-0.8180539608,0.797122716904,-0.71979445219,0.0923650190234,-0.259136289358,0.637348592281
1555359057867128622,21971,1555359057867128622,world,-2.90641689301,-0.818073034286,0.797129154205,-0.719842433929,0.0923969447613,-0.259186655283,0.637269258499
1555359057887747468,21972,1555359057887747468,world,-2.90638828278,-0.818078279495,0.797008514404,-0.71982383728,0.0927536189556,-0.259531617165,0.637098073959
1555359057887807775,21973,1555359057887807775,world,-2.90640163422,-0.818069934845,0.796974658966,-0.719891786575,0.0930143296719,-0.259701609612,0.636913776398
1555359057907408983,21974,1555359057907408983,world,-2.90643310547,-0.818044662476,0.797008514404,-0.719776153564,0.092564612627,-0.259176403284,0.637323856354
1555359057907479506,21975,1555359057907479506,world,-2.90644741058,-0.818012952805,0.797086000443,-0.719759464264,0.092335164547,-0.258992701769,0.637450695038
1555359057947541251,21976,1555359057947541251,world,-2.90646362305,-0.817987680435,0.797107458115,-0.719845592976,0.0923829749227,-0.259135037661,0.637288630009
1555359057947611381,21977,1555359057947611381,world,-2.90643978119,-0.817997217178,0.797051906586,-0.71979278326,0.0925414785743,-0.259352773428,0.637236773968
1555359057947663517,21979,1555359057947663517,world,-2.90641880035,-0.817981243134,0.797010421753,-0.719840466976,0.0926189348102,-0.259356826544,0.637170016766
1555359057947684435,21980,1555359057947684435,world,-2.90642929077,-0.8179666996,0.797075271606,-0.719830393791,0.0922843962908,-0.259025096893,0.637364804745
1555359057957126606,21981,1555359057957126606,world,-2.90643787384,-0.817956447601,0.797075510025,-0.719788551331,0.092343121767,-0.25889351964,0.637456893921
1555359057967589951,21982,1555359057967589951,world,-2.90640544891,-0.818013191223,0.797038555145,-0.719895064831,0.0927037522197,-0.259348452091,0.637099266052
1555359058006992660,21983,1555359058006992660,world,-2.90640640259,-0.818033456802,0.797009706497,-0.719852626324,0.0928783640265,-0.25949332118,0.637062966824
1555359058007064847,21984,1555359058007064847,world,-2.90640926361,-0.818015575409,0.797028303146,-0.719871103764,0.0926667526364,-0.259275257587,0.637161552906
1555359058007117684,21986,1555359058007117684,world,-2.90641117096,-0.818002223969,0.797035694122,-0.719835579395,0.0925805345178,-0.259230077267,0.637232601643
1555359058027728028,21987,1555359058027728028,world,-2.90641307831,-0.818035364151,0.797082185745,-0.719835460186,0.0926186665893,-0.259212464094,0.637234389782
1555359058027781084,21988,1555359058027781084,world,-2.90574741364,-0.817912817001,0.79687666893,-0.721209168434,0.0984293967485,-0.258362799883,0.635151684284
1555359058027818740,21990,1555359058027818740,world,-2.90572452545,-0.81788110733,0.796795368195,-0.721311926842,0.0985421538353,-0.258312910795,0.635037779808
1555359058047647678,21991,1555359058047647678,world,-2.90630435944,-0.818004369736,0.797013521194,-0.720087170601,0.093630336225,-0.259081065655,0.63685542345
1555359058047721911,21992,1555359058047721911,world,-2.90648841858,-0.818041086197,0.797108411789,-0.719658613205,0.0918691456318,-0.259572535753,0.637396097183
1555359058057114298,21993,1555359058057114298,world,-2.9065284729,-0.818079471588,0.797099113464,-0.719504415989,0.0916560590267,-0.259814321995,0.63750231266
1555359058067567179,21994,1555359058067567179,world,-2.90652656555,-0.818040370941,0.797035217285,-0.719512939453,0.0914027616382,-0.259769886732,0.637547135353
1555359058076922397,21995,1555359058076922397,world,-2.90672016144,-0.818120241165,0.797053337097,-0.719793736935,0.0922092348337,-0.25792491436,0.637863099575
1555359058087644974,21996,1555359058087644974,world,-2.90654087067,-0.818061351776,0.797079801559,-0.719683587551,0.0919176489115,-0.258643627167,0.637738406658
1555359058087716713,21997,1555359058087716713,world,-2.90648555756,-0.818055391312,0.797114372253,-0.719672203064,0.0919887050986,-0.25924256444,0.637497782707
1555359058097101179,21998,1555359058097101179,world,-2.90643692017,-0.818032026291,0.797085762024,-0.719745516777,0.0921982005239,-0.259439170361,0.637304723263
1555359058107533194,21999,1555359058107533194,world,-2.9063949585,-0.818080425262,0.7969789505,-0.719712972641,0.0925159454346,-0.259649395943,0.637209773064
1555359058116989473,22000,1555359058116989473,world,-2.90643405914,-0.818027257919,0.796988010406,-0.719756782055,0.0922503694892,-0.25930839777,0.637337446213
1555359058127464680,22001,1555359058127464680,world,-2.90577507019,-0.817924261093,0.79683804512,-0.721189081669,0.0981807261705,-0.258374512196,0.635208249092
1555359058136720074,22002,1555359058136720074,world,-2.90626811981,-0.818009614944,0.79705786705,-0.72019726038,0.093836709857,-0.258798629045,0.636815369129
1555359058147041435,22003,1555359058147041435,world,-2.90644550323,-0.818044662476,0.797064065933,-0.719792246819,0.0922533422709,-0.259118318558,0.637374341488
1555359058167742524,22004,1555359058167742524,world,-2.90650272369,-0.818039417267,0.797049045563,-0.71969628334,0.0919307991862,-0.259446412325,0.637395977974
1555359058167782743,22005,1555359058167782743,world,-2.90582370758,-0.817907810211,0.796766042709,-0.721132040024,0.0977593883872,-0.258357644081,0.635344862938
1555359058167830841,22006,1555359058167830841,world,-2.90565109253,-0.817850828171,0.796773195267,-0.721470952034,0.0995967537165,-0.258264303207,0.634712338448
1555359058177210076,22007,1555359058177210076,world,-2.9056520462,-0.817836761475,0.796851873398,-0.721437811852,0.0995464473963,-0.2582654953,0.634757399559
1555359058187537653,22008,1555359058187537653,world,-2.90633201599,-0.818021774292,0.79704618454,-0.719955205917,0.093158185482,-0.259198993444,0.63702583313
1555359058196955693,22009,1555359058196955693,world,-2.90658569336,-0.818035840988,0.797105550766,-0.719407200813,0.0909338369966,-0.259685635567,0.637767732143
1555359058197028709,22010,1555359058197028709,world,-2.90664100647,-0.818046569824,0.7970662117,-0.719331502914,0.0905640944839,-0.259962975979,0.637792766094
1555359058207319748,22011,1555359058207319748,world,-2.90598869324,-0.817867517471,0.796866178513,-0.720799803734,0.0963031128049,-0.258257776499,0.63598459959
1555359058217715220,22012,1555359058217715220,world,-2.90640449524,-0.817997932434,0.797070741653,-0.719785630703,0.092831723392,-0.259266346693,0.637237727642
1555359058217756384,22013,1555359058217756384,world,-2.90659999847,-0.817967653275,0.797149658203,-0.719486951828,0.0911141335964,-0.259353011847,0.637787461281
1555359058227137577,22014,1555359058227137577,world,-2.90659236908,-0.818014621735,0.797086715698,-0.719443917274,0.0909341946244,-0.25939938426,0.637842714787
1555359058237595971,22015,1555359058237595971,world,-2.90657997131,-0.818012952805,0.797068595886,-0.719494104385,0.0909907519817,-0.259245604277,0.637840628624
1555359058246941611,22016,1555359058246941611,world,-2.90657138824,-0.81800532341,0.797074317932,-0.719557762146,0.091442130506,-0.259415328503,0.637635231018
1555359058267628125,22017,1555359058267628125,world,-2.9065284729,-0.818005561829,0.797078609467,-0.719680130482,0.0917113125324,-0.259307146072,0.63750243187
1555359058267680876,22018,1555359058267680876,world,-2.90649032593,-0.818041563034,0.797057390213,-0.719781577587,0.092090472579,-0.259417653084,0.63728839159
1555359058276976986,22019,1555359058276976986,world,-2.90648651123,-0.818010091782,0.797047615051,-0.719716727734,0.0922098681331,-0.259254664183,0.637410700321
1555359058287315042,22020,1555359058287315042,world,-2.90648269653,-0.818034172058,0.79704284668,-0.719751954079,0.0921245366335,-0.259166747332,0.637418925762
1555359058287375087,22021,1555359058287375087,world,-2.90643501282,-0.818063020706,0.797045230865,-0.719791352749,0.0923892483115,-0.259233653545,0.637308835983
1555359058297809455,22022,1555359058297809455,world,-2.90642642975,-0.818072795868,0.797064065933,-0.719802737236,0.0926175564528,-0.259376883507,0.63720458746
1555359058307275695,22023,1555359058307275695,world,-2.90643310547,-0.818041086197,0.797038316727,-0.719838202,0.0924816206098,-0.259095847607,0.637298643589
1555359058317792119,22024,1555359058317792119,world,-2.90641498566,-0.818045139313,0.797014474869,-0.719798028469,0.0927893146873,-0.259308904409,0.637212693691
1555359058317833182,22025,1555359058317833182,world,-2.90643405914,-0.818006277084,0.797044277191,-0.719802260399,0.0926691740751,-0.259436488152,0.637173354626
1555359058357233047,22026,1555359058357233047,world,-2.90577030182,-0.817848443985,0.79682636261,-0.72122579813,0.0983117893338,-0.258272618055,0.635187625885
1555359058357275908,22027,1555359058357275908,world,-2.90620517731,-0.817999362946,0.796966552734,-0.720209658146,0.0944784730673,-0.259291559458,0.636506021023
1555359058357323519,22028,1555359058357323519,world,-2.90645694733,-0.817934751511,0.797053098679,-0.719755530357,0.0919104963541,-0.258738040924,0.637619912624
1555359058357346232,22029,1555359058357346232,world,-2.90648651123,-0.818011045456,0.797034978867,-0.719665884972,0.092010512948,-0.259235262871,0.637504637241
1555359058367773925,22030,1555359058367773925,world,-2.90650367737,-0.818003416061,0.797078371048,-0.719684362411,0.0918694958091,-0.25934702158,0.63745868206
1555359058377204970,22031,1555359058377204970,world,-2.9064912796,-0.818008422852,0.797053575516,-0.719665110111,0.0920446589589,-0.259454458952,0.637411296368
1555359058387551922,22032,1555359058387551922,world,-2.90647220612,-0.818013906479,0.797042131424,-0.719698011875,0.0920795276761,-0.259305328131,0.637429893017
1555359058387601683,22033,1555359058387601683,world,-2.90647315979,-0.81801867485,0.797073602676,-0.719763338566,0.0919970646501,-0.259048551321,0.637472331524
1555359058396925669,22034,1555359058396925669,world,-2.90647315979,-0.818016767502,0.797061681747,-0.719819486141,0.0920728966594,-0.259093850851,0.637379705906
1555359058407236078,22035,1555359058407236078,world,-2.90579891205,-0.817910194397,0.796868085861,-0.721190452576,0.0982589200139,-0.258473753929,0.635154128075
1555359058417585466,22036,1555359058417585466,world,-2.9064950943,-0.818078756332,0.797034263611,-0.720463693142,0.0944904908538,-0.257001459599,0.637145221233
1555359058417631466,22037,1555359058417631466,world,-2.90585041046,-0.817896366119,0.796840429306,-0.721294045448,0.0984513014555,-0.25768879056,0.635325729847
1555359058437360572,22038,1555359058437360572,world,-2.90633678436,-0.81799697876,0.79701924324,-0.720064222813,0.0933612138033,-0.258883118629,0.63700145483
1555359058447751167,22039,1555359058447751167,world,-2.9064874649,-0.818053483963,0.797074317932,-0.719629466534,0.0917403250933,-0.259704738855,0.637393653393
1555359058447791119,22040,1555359058447791119,world,-2.90654087067,-0.81805229187,0.797110557556,-0.719425320625,0.0913566797972,-0.259704530239,0.637679159641
1555359058457165955,22041,1555359058457165955,world,-2.90652275085,-0.817999124527,0.79705953598,-0.719527482986,0.091121070087,-0.259211301804,0.637798428535
1555359058467568090,22042,1555359058467568090,world,-2.90649795532,-0.818011522293,0.797000169754,-0.719589293003,0.0916185677052,-0.259572505951,0.637510418892
1555359058467615531,22043,1555359058467615531,world,-2.90649700165,-0.817942857742,0.7970495224,-0.719615161419,0.0915009230375,-0.259083271027,0.637697160244
1555359058476934885,22044,1555359058476934885,world,-2.90646457672,-0.817993164062,0.797104120255,-0.719692349434,0.0920238047838,-0.259154677391,0.637505590916
1555359058497668073,22045,1555359058497668073,world,-2.90645694733,-0.817971229553,0.797082424164,-0.719712615013,0.0920539274812,-0.259361088276,0.637394607067
1555359058497705338,22046,1555359058497705338,world,-2.90641784668,-0.81799697876,0.797001361847,-0.719790399075,0.0926026031375,-0.25968080759,0.637096881866
1555359058507088492,22047,1555359058507088492,world,-2.90641117096,-0.817990064621,0.796936273575,-0.71975839138,0.0925274342299,-0.259511709213,0.63721293211
1555359058517482694,22048,1555359058517482694,world,-2.9064540863,-0.817962646484,0.797013759613,-0.719830155373,0.092218324542,-0.259120106697,0.637335956097
1555359058517524462,22049,1555359058517524462,world,-2.90577793121,-0.817866802216,0.796890258789,-0.721259355545,0.0984180867672,-0.258417397738,0.635074317455
1555359058526769638,22050,1555359058526769638,world,-2.90558815002,-0.817792415619,0.796842098236,-0.721594929695,0.0998433604836,-0.257785886526,0.634727120399
1555359058537090288,22051,1555359058537090288,world,-2.90625953674,-0.817950963974,0.796981573105,-0.720131576061,0.0939888358116,-0.258965522051,0.636799395084
1555359058556670145,22052,1555359058556670145,world,-2.90582466125,-0.817860841751,0.796762704849,-0.721127450466,0.0976779684424,-0.258100658655,0.635467112064
1555359058556715953,22053,1555359058556715953,world,-2.9063949585,-0.818049430847,0.796965122223,-0.719926297665,0.0931296870112,-0.259586602449,0.636904835701
1555359058567032032,22054,1555359058567032032,world,-2.90661811829,-0.818032026291,0.797119617462,-0.71945220232,0.090965628624,-0.259594380856,0.637749671936
1555359058577425952,22055,1555359058577425952,world,-2.90663814545,-0.818062782288,0.797133684158,-0.71942538023,0.0909285992384,-0.259486138821,0.637829244137
1555359058586714636,22056,1555359058586714636,world,-2.90660953522,-0.818033218384,0.79711151123,-0.719412386417,0.090922601521,-0.259246021509,0.637942373753
1555359058586753006,22057,1555359058586753006,world,-2.90678405762,-0.818096876144,0.797095298767,-0.71978366375,0.0919402614236,-0.257622182369,0.638035476208
1555359058607520682,22058,1555359058607520682,world,-2.90658855438,-0.818007230759,0.797041893005,-0.719740748405,0.0919892936945,-0.259008914232,0.637515127659
1555359058607558887,22059,1555359058607558887,world,-2.90648078918,-0.818024396896,0.797053337097,-0.719594061375,0.0923246145248,-0.259829252958,0.637298583984
1555359058616876930,22060,1555359058616876930,world,-2.90644836426,-0.817967891693,0.797034025192,-0.719599545002,0.0920165479183,-0.259543031454,0.637453556061
1555359058616915398,22061,1555359058616915398,world,-2.90645599365,-0.817964553833,0.797076940536,-0.719677567482,0.0921651795506,-0.259514629841,0.63735550642
1555359058637650542,22062,1555359058637650542,world,-2.90644741058,-0.817989587784,0.797041654587,-0.719748973846,0.0923767387867,-0.259676814079,0.637178063393
1555359058646986062,22063,1555359058646986062,world,-2.90644454956,-0.817983865738,0.796978235245,-0.719691693783,0.0923960730433,-0.25933393836,0.637379705906
1555359058647033491,22064,1555359058647033491,world,-2.90644264221,-0.817988872528,0.79700088501,-0.719726026058,0.0923620685935,-0.259292900562,0.637362480164
1555359058657394039,22065,1555359058657394039,world,-2.90644741058,-0.817987680435,0.797031641006,-0.719799995422,0.0924030840397,-0.25928273797,0.637277126312
1555359058666674941,22066,1555359058666674941,world,-2.90647506714,-0.817979812622,0.797090530396,-0.719747841358,0.0921754315495,-0.259062439203,0.637458622456
1555359058687386230,22067,1555359058687386230,world,-2.90579891205,-0.817855834961,0.796898603439,-0.721230447292,0.0982149243355,-0.258057534695,0.635284721851
1555359058687453922,22069,1555359058687453922,world,-2.90642547607,-0.818053483963,0.796995162964,-0.719817459583,0.0927612558007,-0.259570091963,0.637088418007
1555359058696710904,22070,1555359058696710904,world,-2.90650844574,-0.818052768707,0.797032356262,-0.719707250595,0.091974966228,-0.259500682354,0.637355208397
1555359058707115669,22071,1555359058707115669,world,-2.90651321411,-0.818045377731,0.797108888626,-0.719679951668,0.0918450132012,-0.259543001652,0.6373873353
1555359058717389397,22072,1555359058717389397,world,-2.90650558472,-0.818016529083,0.797103404999,-0.719737887383,0.0920147970319,-0.259607821703,0.637270987034
1555359058717427214,22073,1555359058717427214,world,-2.90647602081,-0.818030595779,0.797021389008,-0.719747066498,0.0922923013568,-0.259602814913,0.637222647667
1555359058736946249,22074,1555359058736946249,world,-2.9058008194,-0.817828655243,0.796792268753,-0.721207141876,0.0980941727757,-0.25806620717,0.635326445103
1555359058736982319,22075,1555359058736982319,world,-2.90626239777,-0.817968606949,0.796965837479,-0.720183551311,0.0940451323986,-0.258990198374,0.636722385883
1555359058747306816,22076,1555359058747306816,world,-2.90647411346,-0.817956924438,0.797061681747,-0.71973824501,0.0920796394348,-0.259180575609,0.637435317039
1555359058767118283,22077,1555359058767118283,world,-2.90654754639,-0.817998170853,0.797123193741,-0.719573974609,0.0916227921844,-0.25916570425,0.637692451477
1555359058767159798,22078,1555359058767159798,world,-2.90655994415,-0.81800198555,0.797097682953,-0.719617486,0.0915087535977,-0.259290039539,0.637609302998
1555359058767207787,22079,1555359058767207787,world,-2.90652275085,-0.818000555038,0.797029495239,-0.719689905643,0.0918799936771,-0.259525537491,0.63737821579
1555359058777646069,22080,1555359058777646069,world,-2.90648555756,-0.817975282669,0.79700255394,-0.719691693783,0.0917983800173,-0.259001016617,0.637601435184
1555359058787056119,22081,1555359058787056119,world,-2.90644741058,-0.818061113358,0.79699754715,-0.719730257988,0.0923299565911,-0.259398758411,0.637319266796
1555359058797389944,22082,1555359058797389944,world,-2.90643501282,-0.818037033081,0.797062635422,-0.71973490715,0.0925576388836,-0.259489178658,0.637244105339
1555359058807678999,22083,1555359058807678999,world,-2.90643692017,-0.818053722382,0.797100067139,-0.71975427866,0.0927952006459,-0.259490936995,0.637187123299
1555359058817112982,22084,1555359058817112982,world,-2.90643024445,-0.818045139313,0.797055482864,-0.719774246216,0.0925246477127,-0.259219914675,0.637314081192
1555359058827501833,22085,1555359058827501833,world,-2.9064207077,-0.817988157272,0.796957731247,-0.719840943813,0.0926269814372,-0.259480893612,0.637117624283
1555359058836757863,22086,1555359058836757863,world,-2.90642166138,-0.818023204803,0.796952962875,-0.719821631908,0.0927451476455,-0.25942915678,0.637143373489
1555359058836812388,22087,1555359058836812388,world,-2.90641784668,-0.818011283875,0.797046422958,-0.719890475273,0.0924945026636,-0.259282469749,0.637161672115
1555359058847242728,22088,1555359058847242728,world,-2.90642166138,-0.818041086197,0.79711151123,-0.719785392284,0.0926929339767,-0.259270638227,0.63725656271
1555359058857562675,22089,1555359058857562675,world,-2.90644454956,-0.817961215973,0.797138214111,-0.719830870628,0.0923785418272,-0.259044766426,0.637342631817
1555359058866903533,22090,1555359058866903533,world,-2.90640163422,-0.818016767502,0.796996831894,-0.719727039337,0.0926766991615,-0.259486109018,0.637237071991
1555359058877205864,22091,1555359058877205864,world,-2.90641880035,-0.817939758301,0.796917438507,-0.719713330269,0.0924296528101,-0.259121179581,0.637436807156
1555359058887555822,22092,1555359058887555822,world,-2.90643882751,-0.817980051041,0.796964883804,-0.719775915146,0.0926838517189,-0.259417772293,0.63720870018
1555359058887598151,22093,1555359058887598151,world,-2.90646934509,-0.817974805832,0.797074556351,-0.719854533672,0.0922810360789,-0.258945077658,0.637370526791
1555359058897025787,22094,1555359058897025787,world,-2.90644741058,-0.818021535873,0.797116518021,-0.719892263412,0.0923768877983,-0.258976101875,0.637301445007
1555359058907468036,22095,1555359058907468036,world,-2.90645027161,-0.817975282669,0.797085523605,-0.719847381115,0.0924980267882,-0.259177535772,0.637252748013
1555359058927048924,22096,1555359058927048924,world,-2.90645503998,-0.817979097366,0.79696393013,-0.719835698605,0.0926254913211,-0.259187161922,0.637243449688
1555359058927094627,22097,1555359058927094627,world,-2.90641880035,-0.818000555038,0.796941757202,-0.719842433929,0.0925754904747,-0.259329676628,0.637185096741
1555359058937529948,22098,1555359058937529948,world,-2.90645503998,-0.818002939224,0.796997785568,-0.719806015491,0.0925761237741,-0.259539395571,0.63714081049
1555359058937591020,22099,1555359058937591020,world,-2.90644168854,-0.81803560257,0.797089576721,-0.719766438007,0.0927430465817,-0.259515553713,0.637170851231
1555359058946865573,22100,1555359058946865573,world,-2.90643596649,-0.818025350571,0.797116518021,-0.719879925251,0.0926086381078,-0.259117156267,0.637224256992
1555359058957261781,22101,1555359058957261781,world,-2.90640640259,-0.818046808243,0.797028303146,-0.71982973814,0.0929755493999,-0.259786218405,0.636955201626
1555359058967650242,22102,1555359058967650242,world,-2.90641307831,-0.818025350571,0.796940088272,-0.719763100147,0.0927201583982,-0.25945776701,0.637201368809
1555359058967689533,22103,1555359058967689533,world,-2.9063911438,-0.818023920059,0.796946048737,-0.719814836979,0.0928044989705,-0.259591281414,0.637076437473
1555359058977085385,22104,1555359058977085385,world,-2.9064283371,-0.817991495132,0.797055959702,-0.719860613346,0.0924867764115,-0.259195774794,0.637231945992
1555359058996751099,22105,1555359058996751099,world,-2.90643119812,-0.818016767502,0.797113656998,-0.719888150692,0.0925549790263,-0.259277045727,0.637157678604
1555359058996792611,22106,1555359058996792611,world,-2.90645122528,-0.81797504425,0.797135829926,-0.719868779182,0.0921192914248,-0.258644968271,0.63749974966
1555359059007238426,22107,1555359059007238426,world,-2.9064245224,-0.818006038666,0.796995401382,-0.719812452793,0.0924865975976,-0.259252130985,0.637263357639
1555359059017694597,22108,1555359059017694597,world,-2.90643310547,-0.817977905273,0.796942949295,-0.719754874706,0.0924462303519,-0.25921985507,0.637347400188
1555359059026951471,22109,1555359059026951471,world,-2.90642261505,-0.817987680435,0.797019720078,-0.719744026661,0.0925832167268,-0.259179770947,0.637356102467
1555359059026980171,22110,1555359059026980171,world,-2.90644550323,-0.818012952805,0.797101974487,-0.719810247421,0.0924334228039,-0.259024292231,0.637366294861
1555359059037176535,22111,1555359059037176535,world,-2.90648269653,-0.817983627319,0.79714846611,-0.719824552536,0.0921032726765,-0.258797436953,0.637490034103
1555359059047472595,22112,1555359059047472595,world,-2.90643310547,-0.818006038666,0.797016143799,-0.719903767109,0.0926385298371,-0.259437143803,0.637062847614
1555359059066994693,22113,1555359059066994693,world,-2.90641212463,-0.818051338196,0.796948432922,-0.719765484333,0.092846788466,-0.259529054165,0.637151300907
1555359059077381063,22114,1555359059077381063,world,-2.90640926361,-0.818028926849,0.796998977661,-0.719843149185,0.0924242138863,-0.259093075991,0.637302398682
1555359059077420298,22115,1555359059077420298,world,-2.90645313263,-0.818020820618,0.797083377838,-0.719772875309,0.0923963263631,-0.259011119604,0.637419104576
1555359059077466116,22116,1555359059077466116,world,-2.90647697449,-0.81797504425,0.797128915787,-0.719809472561,0.0918683931231,-0.258694350719,0.637582778931
1555359059097381115,22117,1555359059097381115,world,-2.90644550323,-0.81801867485,0.797029972076,-0.719831049442,0.092491723597,-0.259284317493,0.637228548527
1555359059097427562,22118,1555359059097427562,world,-2.90644359589,-0.81801199913,0.796978235245,-0.719837188721,0.092599183321,-0.259437829256,0.637143611908
1555359059107745911,22119,1555359059107745911,world,-2.90641784668,-0.818025350571,0.796995162964,-0.719829499722,0.0928502306342,-0.259541481733,0.637073457241
1555359059117133819,22120,1555359059117133819,world,-2.9063873291,-0.81807923317,0.797032594681,-0.719936668873,0.0931012406945,-0.259668320417,0.636864066124
1555359059117171607,22121,1555359059117171607,world,-2.90644931793,-0.817976951599,0.797086238861,-0.719837665558,0.0922252833843,-0.258755594492,0.637474536896
1555359059127536996,22122,1555359059127536996,world,-2.90641593933,-0.818038463593,0.797038555145,-0.719756186008,0.0926242247224,-0.259293377399,0.63729006052
1555359059136972268,22123,1555359059136972268,world,-2.90641021729,-0.818009138107,0.797015190125,-0.719780921936,0.0927019417286,-0.259404808283,0.637205600739
1555359059147436473,22124,1555359059147436473,world,-2.90639400482,-0.818068504333,0.796975374222,-0.719838261604,0.0931309312582,-0.259766578674,0.636930882931
1555359059156701519,22125,1555359059156701519,world,-2.90642261505,-0.817971229553,0.797031879425,-0.719876050949,0.0925245583057,-0.259065896273,0.637261867523
1555359059167059533,22126,1555359059167059533,world,-2.90643882751,-0.817996025085,0.797035217285,-0.719894886017,0.0925876498222,-0.25925552845,0.637154340744
1555359059177497054,22127,1555359059177497054,world,-2.90646648407,-0.81797003746,0.797077894211,-0.719842374325,0.0920636281371,-0.258684247732,0.63752168417
1555359059177547776,22128,1555359059177547776,world,-2.90648174286,-0.817976713181,0.797039031982,-0.719823777676,0.0922357365489,-0.258982867002,0.637396514416
1555359059186863758,22129,1555359059186863758,world,-2.90576553345,-0.817868947983,0.796765565872,-0.721356570721,0.0984402149916,-0.258293509483,0.635010778904
1555359059197235570,22130,1555359059197235570,world,-2.90624332428,-0.817994594574,0.796960353851,-0.720234632492,0.0944058969617,-0.259283155203,0.636491894722
1555359059207675646,22131,1555359059207675646,world,-2.90645503998,-0.818031787872,0.797039747238,-0.719835519791,0.092479467392,-0.259347915649,0.637199282646
1555359059217126024,22132,1555359059217126024,world,-2.90673923492,-0.818104743958,0.797109365463,-0.719891250134,0.0922436267138,-0.257426023483,0.637949645519
1555359059217167169,22133,1555359059217167169,world,-2.90661525726,-0.818049430847,0.797106981277,-0.719709813595,0.0916904062033,-0.258443713188,0.637822568417
1555359059227624569,22134,1555359059227624569,world,-2.9065246582,-0.818019390106,0.797032356262,-0.719634175301,0.0917277187109,-0.259207636118,0.637592375278
1555359059236979850,22135,1555359059236979850,world,-2.90647125244,-0.81800198555,0.797016382217,-0.719596743584,0.0916475504637,-0.259196281433,0.63765078783
1555359059247305692,22136,1555359059247305692,world,-2.9064245224,-0.818018198013,0.797030448914,-0.71969628334,0.0920693576336,-0.259476661682,0.637363553047
1555359059257591294,22137,1555359059257591294,world,-2.9064207077,-0.817996025085,0.797060012817,-0.719707429409,0.0921476706862,-0.259257763624,0.637428820133
1555359059287409417,22138,1555359059287409417,world,-2.90640449524,-0.818009853363,0.797085285187,-0.719797372818,0.0923018455505,-0.259272813797,0.637298703194
1555359059287446992,22139,1555359059287446992,world,-2.90639305115,-0.818023204803,0.796993494034,-0.719753205776,0.0925601348281,-0.259559571743,0.637194395065
1555359059287493657,22140,1555359059287493657,world,-2.90636920929,-0.818035840988,0.796975374222,-0.719805121422,0.0928586870432,-0.259952068329,0.636932313442
1555359059287516051,22141,1555359059287516051,world,-2.90640449524,-0.818020582199,0.797018766403,-0.719861268997,0.0925290286541,-0.259359627962,0.63715839386
1555359059296770725,22142,1555359059296770725,world,-2.90643405914,-0.818004369736,0.797077894211,-0.719882309437,0.0925210788846,-0.259409606457,0.637115299702
1555359059307123282,22143,1555359059307123282,world,-2.90641212463,-0.818006277084,0.797088623047,-0.719926059246,0.0927295610309,-0.259551107883,0.636977910995
1555359059317563231,22144,1555359059317563231,world,-2.90643024445,-0.818023681641,0.797031641006,-0.719911813736,0.092525601387,-0.259352713823,0.637104511261
1555359059317604006,22145,1555359059317604006,world,-2.90641880035,-0.817998170853,0.796952486038,-0.719833314419,0.092596553266,-0.259337037802,0.637189328671
1555359059327006865,22146,1555359059327006865,world,-2.90640640259,-0.818009138107,0.796939134598,-0.719807684422,0.0928773656487,-0.259650290012,0.637049734592
1555359059337396591,22147,1555359059337396591,world,-2.906457901,-0.818005800247,0.797055482864,-0.719855844975,0.0926504507661,-0.259244501591,0.637193739414
1555359059357076344,22148,1555359059357076344,world,-2.90583515167,-0.817785263062,0.7969622612,-0.721206665039,0.0983194112778,-0.257848054171,0.635380625725
1555359059357117063,22149,1555359059357117063,world,-2.90626811981,-0.81797170639,0.797026872635,-0.720231354237,0.0945605784655,-0.259210854769,0.636501967907
1555359059376721130,22150,1555359059376721130,world,-2.90646743774,-0.817964315414,0.796983003616,-0.719869792461,0.0925486907363,-0.259375870228,0.637139320374
1555359059376759183,22151,1555359059376759183,world,-2.90650081635,-0.818015098572,0.796958684921,-0.719706654549,0.0922823995352,-0.259896397591,0.637150108814
1555359059397540078,22152,1555359059397540078,world,-2.90653038025,-0.818001270294,0.797049999237,-0.71968716383,0.09181984514,-0.259481996298,0.637407720089
1555359059397610836,22154,1555359059397610836,world,-2.90647029877,-0.818028926849,0.797134160995,-0.719673454762,0.0919359102845,-0.259299129248,0.637480914593
1555359059406955240,22155,1555359059406955240,world,-2.90645217896,-0.818034648895,0.797010660172,-0.719767689705,0.0920130088925,-0.259226024151,0.637393176556
1555359059417410857,22156,1555359059417410857,world,-2.90641593933,-0.818048000336,0.796925067902,-0.719813585281,0.0925200283527,-0.259639382362,0.63709962368
1555359059437140069,22157,1555359059437140069,world,-2.90641307831,-0.818033218384,0.796978235245,-0.71978610754,0.0925874635577,-0.259582817554,0.637143850327
1555359059447478099,22158,1555359059447478099,world,-2.90645885468,-0.818010568619,0.797089576721,-0.719784736633,0.0921821296215,-0.259002000093,0.637440443039
1555359059447519006,22159,1555359059447519006,world,-2.90643024445,-0.818032026291,0.79710817337,-0.719791531563,0.0924767106771,-0.259003281593,0.637389600277
1555359059447578061,22160,1555359059447578061,world,-2.90646362305,-0.81799530983,0.797076702118,-0.719833016396,0.0921927243471,-0.258921295404,0.637417256832
1555359059457025096,22161,1555359059457025096,world,-2.90639877319,-0.818021297455,0.796967029572,-0.719809710979,0.0927210971713,-0.259500801563,0.637131214142
1555359059467483907,22162,1555359059467483907,world,-2.90640354156,-0.818045854568,0.796933174133,-0.719837069511,0.0929652899504,-0.259692102671,0.636986672878
1555359059467524402,22163,1555359059467524402,world,-2.90645980835,-0.817988634109,0.797024965286,-0.719748198986,0.0923505052924,-0.259034574032,0.637444019318
1555359059487381003,22164,1555359059487381003,world,-2.90644264221,-0.818027019501,0.797104597092,-0.719878256321,0.0923181250691,-0.258990377188,0.637319922447
1555359059507108137,22165,1555359059507108137,world,-2.90642929077,-0.818032979965,0.797100543976,-0.71987247467,0.0925345420837,-0.259294420481,0.637171506882
1555359059507147680,22166,1555359059507147680,world,-2.90643405914,-0.818015813828,0.797015666962,-0.719850718975,0.0925398394465,-0.25951012969,0.637107551098
1555359059507201785,22167,1555359059507201785,world,-2.90640544891,-0.818019866943,0.796971082687,-0.71988517046,0.0925901904702,-0.25931674242,0.637139856815
1555359059517593768,22168,1555359059517593768,world,-2.90641784668,-0.818002223969,0.796968221664,-0.719762563705,0.092393040657,-0.259041935205,0.637418746948
1555359059526934931,22169,1555359059526934931,world,-2.90643024445,-0.817989110947,0.797043323517,-0.719739496708,0.0923381522298,-0.258841842413,0.637534022331
1555359059526980353,22170,1555359059526980353,world,-2.90641784668,-0.817986965179,0.797086715698,-0.719751954079,0.0925235599279,-0.259147644043,0.637368857861
1555359059537447060,22171,1555359059537447060,world,-2.9066400528,-0.818094491959,0.797119617462,-0.720091104507,0.0931837558746,-0.257376432419,0.637607216835
1555359059546725490,22172,1555359059546725490,world,-2.90647125244,-0.818046092987,0.797034502029,-0.719945907593,0.0927684307098,-0.258593350649,0.637339353561
1555359059557174617,22173,1555359059557174617,world,-2.90638542175,-0.818048715591,0.796967506409,-0.719858407974,0.0927591323853,-0.259381085634,0.637119293213
1555359059567625240,22174,1555359059567625240,world,-2.90638828278,-0.81799697876,0.796980381012,-0.719761312008,0.0923902615905,-0.259446203709,0.637256145477
1555359059567669140,22175,1555359059567669140,world,-2.90637969971,-0.818034648895,0.797033548355,-0.719812691212,0.0923934653401,-0.259540766478,0.637159228325
1555359059587445119,22176,1555359059587445119,world,-2.9064245224,-0.81800866127,0.797114133835,-0.719798088074,0.092209726572,-0.259198099375,0.637341737747
1555359059587485567,22177,1555359059587485567,world,-2.90643787384,-0.817991018295,0.797087430954,-0.719805538654,0.0922438278794,-0.259085744619,0.637374043465
1555359059596826994,22178,1555359059596826994,world,-2.90640640259,-0.818022251129,0.796983718872,-0.719766497612,0.0926020890474,-0.259368777275,0.637251079082
1555359059607229430,22179,1555359059607229430,world,-2.90593242645,-0.818433761597,0.79690694809,-0.719219863415,0.0976522415876,-0.265238165855,0.634693264961
1555359059617661648,22180,1555359059617661648,world,-2.90627765656,-0.818184614182,0.797015190125,-0.719629526138,0.0943822711706,-0.261164844036,0.636410593987
1555359059627061165,22181,1555359059627061165,world,-2.90644454956,-0.81801867485,0.797105073929,-0.719807088375,0.0925106927752,-0.259010404348,0.637364327908
1555359059637520678,22182,1555359059637520678,world,-2.90648841858,-0.817985057831,0.797076463699,-0.719955503941,0.091976441443,-0.258530586958,0.637468636036
1555359059637560864,22183,1555359059637560864,world,-2.9064874649,-0.817921638489,0.796989917755,-0.719918727875,0.0915460884571,-0.258182704449,0.637713074684
1555359059646908808,22184,1555359059646908808,world,-2.90647315979,-0.817947387695,0.796957969666,-0.719903588295,0.0918363705277,-0.258235394955,0.637667119503
1555359059657251128,22185,1555359059657251128,world,-2.90582275391,-0.817806720734,0.79684472084,-0.721213877201,0.0976996272802,-0.257185041904,0.635736703873
1555359059667601123,22186,1555359059667601123,world,-2.90626239777,-0.817967891693,0.797058820724,-0.720201432705,0.0939804837108,-0.258664309978,0.636844098568
1555359059676939497,22187,1555359059676939497,world,-2.90666675568,-0.818083047867,0.797087192535,-0.72008317709,0.0929151028395,-0.257243961096,0.63770878315
1555359059687294788,22188,1555359059687294788,world,-2.90654563904,-0.818023681641,0.796996116638,-0.71969461441,0.0920647084713,-0.25868716836,0.63768696785
1555359059697576136,22189,1555359059697576136,world,-2.90651512146,-0.818015813828,0.796988964081,-0.719593524933,0.0918934941292,-0.259477883577,0.637504577637
1555359059697612277,22190,1555359059697612277,world,-2.90649795532,-0.817952156067,0.797046422958,-0.719633102417,0.0915890261531,-0.259443938732,0.637517571449
1555359059706963938,22191,1555359059706963938,world,-2.90645313263,-0.818003892899,0.797104597092,-0.719666719437,0.0920780226588,-0.259611994028,0.637340664864
1555359059727759183,22192,1555359059727759183,world,-2.90667152405,-0.818041563034,0.797104358673,-0.719913780689,0.0924930945039,-0.257503479719,0.637856662273
1555359059737144537,22193,1555359059737144537,world,-2.90674304962,-0.818042755127,0.797072172165,-0.72005802393,0.0927584767342,-0.257020711899,0.637850046158
1555359059737184880,22194,1555359059737184880,world,-2.90645503998,-0.818068265915,0.796998739243,-0.71986913681,0.0931009352207,-0.259323239326,0.637080907822
1555359059737227043,22195,1555359059737227043,world,-2.90575122833,-0.817847967148,0.796775102615,-0.721300840378,0.0982877835631,-0.25856667757,0.634986579418
1555359059747635124,22196,1555359059747635124,world,-2.9061870575,-0.817986011505,0.796968460083,-0.720204651356,0.0941830724478,-0.259632468224,0.636416375637
1555359059757080862,22197,1555359059757080862,world,-2.90575313568,-0.817870378494,0.796936035156,-0.721141636372,0.0979490503669,-0.258376508951,0.635296940804
1555359059767415062,22198,1555359059767415062,world,-2.90628814697,-0.818019151688,0.797062635422,-0.720061540604,0.0933007597923,-0.259526968002,0.636751294136
1555359059767453722,22199,1555359059767453722,world,-2.9064874649,-0.818054199219,0.79705452919,-0.719612300396,0.091514095664,-0.259797722101,0.637407720089
1555359059787159340,22200,1555359059787159340,world,-2.90653038025,-0.818098545074,0.797018527985,-0.719469308853,0.0911855623126,-0.259622186422,0.637687563896
1555359059787198625,22201,1555359059787198625,world,-2.90673828125,-0.818147182465,0.797054052353,-0.719747066498,0.0919927284122,-0.257894486189,0.637959241867
1555359059797632321,22202,1555359059797632321,world,-2.90661239624,-0.818039655685,0.797123432159,-0.719654858112,0.0916797593236,-0.258994311094,0.637662708759
1555359059806981148,22203,1555359059806981148,world,-2.9065246582,-0.817976951599,0.797111272812,-0.71968626976,0.0915121361613,-0.259215533733,0.637561321259
1555359059817380588,22204,1555359059817380588,world,-2.90584373474,-0.81777882576,0.796879768372,-0.72103703022,0.0975926890969,-0.258531332016,0.635407686234
1555359059827819711,22205,1555359059827819711,world,-2.9062795639,-0.817863941193,0.796943902969,-0.720084607601,0.0937601029873,-0.259407550097,0.636706411839
1555359059827857474,22206,1555359059827857474,world,-2.90643978119,-0.817905664444,0.796974897385,-0.719712436199,0.0921117514372,-0.259514093399,0.637324154377
1555359059837236582,22207,1555359059837236582,world,-2.90649986267,-0.817960262299,0.797032594681,-0.719566643238,0.0917078629136,-0.259707659483,0.63746792078
1555359059847691105,22208,1555359059847691105,world,-2.90651512146,-0.817967891693,0.797094583511,-0.719610333443,0.0916851535439,-0.259527504444,0.637495338917
1555359059857091070,22209,1555359059857091070,world,-2.90648174286,-0.818000078201,0.797084331512,-0.719719707966,0.0919441580772,-0.259318202734,0.637419700623
1555359059867484763,22210,1555359059867484763,world,-2.9064283371,-0.818041801453,0.797002077103,-0.719632387161,0.0921326875687,-0.259504824877,0.63741505146
1555359059887102250,22211,1555359059887102250,world,-2.90638923645,-0.818099975586,0.796967983246,-0.719733119011,0.0929182544351,-0.260153710842,0.636922776699
1555359059887142988,22212,1555359059887142988,world,-2.90642738342,-0.818042755127,0.797022819519,-0.719772040844,0.0922768637538,-0.259284943342,0.637326061726
1555359059887199051,22213,1555359059887199051,world,-2.9064655304,-0.818082809448,0.797078609467,-0.719807207584,0.0922248736024,-0.259227007627,0.637317538261
1555359059897636389,22214,1555359059897636389,world,-2.90646076202,-0.818046331406,0.797087669373,-0.719754099846,0.0919717699289,-0.258874207735,0.637557446957
1555359059906928246,22215,1555359059906928246,world,-2.9064617157,-0.818037986755,0.797028064728,-0.719776272774,0.0921707302332,-0.259007483721,0.63744944334
1555359059917278074,22216,1555359059917278074,world,-2.90641975403,-0.818075656891,0.796971321106,-0.719826221466,0.0928644239902,-0.259634494781,0.637037277222
1555359059917322930,22217,1555359059917322930,world,-2.90645503998,-0.817989826202,0.797025680542,-0.719817996025,0.0923952311277,-0.259164333344,0.637306153774
1555359059927654554,22218,1555359059927654554,world,-2.90646266937,-0.817997455597,0.797025680542,-0.719791531563,0.092678591609,-0.259362459183,0.637214124203
1555359059936995547,22219,1555359059936995547,world,-2.90645313263,-0.817949771881,0.797071933746,-0.719818651676,0.0923661366105,-0.259011566639,0.637371599674
1555359059957574875,22220,1555359059957574875,world,-2.90644645691,-0.817936658859,0.797024726868,-0.719821035862,0.0924695804715,-0.259481757879,0.637162804604
1555359059957651929,22221,1555359059957651929,world,-2.90646362305,-0.817902088165,0.796991586685,-0.719851851463,0.0921010226011,-0.258924722672,0.637407720089
1555359059966929278,22222,1555359059966929278,world,-2.90641593933,-0.81796836853,0.79697728157,-0.719769895077,0.0926286503673,-0.259373992682,0.637241303921
1555359059966967346,22223,1555359059966967346,world,-2.90640449524,-0.817985057831,0.796985626221,-0.719796478748,0.0928351357579,-0.259549081326,0.637109816074
1555359059996977633,22224,1555359059996977633,world,-2.90645980835,-0.817951440811,0.797087907791,-0.719766438007,0.0921500995755,-0.258967339993,0.637479841709
1555359059997018845,22225,1555359059997018845,world,-2.90643692017,-0.817985296249,0.797075033188,-0.719852864742,0.0923388525844,-0.259119838476,0.637293040752
1555359059997076476,22226,1555359059997076476,world,-2.90641021729,-0.818013191223,0.797028541565,-0.719833433628,0.092362858355,-0.259059607983,0.637335836887
1555359060007479510,22227,1555359060007479510,world,-2.90637683868,-0.818016290665,0.796990156174,-0.71984654665,0.0926012769341,-0.259128034115,0.637258589268
