%time,field.header.seq,field.header.stamp,field.header.frame_id,field.pose.position.x,field.pose.position.y,field.pose.position.z,field.pose.orientation.x,field.pose.orientation.y,field.pose.orientation.z,field.pose.orientation.w
1555356665216983485,2569,1555356665216983485,world,-2.8945274353,-0.81446480751,0.797384500504,-0.697083055973,0.190964505076,-0.351605892181,0.59496307373
1555356665227306854,2570,1555356665227306854,world,-2.89451599121,-0.814506053925,0.797339916229,-0.696943223476,0.190956234932,-0.351640045643,0.595109462738
1555356665237700963,2571,1555356665237700963,world,-2.89378070831,-0.814343214035,0.796967029572,-0.69929933548,0.195508420467,-0.348453402519,0.592736959457
1555356665247063202,2572,1555356665247063202,world,-2.8935213089,-0.814293384552,0.796857833862,-0.700151503086,0.197086334229,-0.347426444292,0.591810703278
1555356665257360406,2573,1555356665257360406,world,-2.8941822052,-0.814455032349,0.797220230103,-0.698045313358,0.192995160818,-0.350278526545,0.593961775303
1555356665257387332,2574,1555356665257387332,world,-2.89440536499,-0.814476490021,0.797377824783,-0.697370767593,0.191555470228,-0.351225942373,0.59466034174
1555356665267743065,2575,1555356665267743065,world,-2.8937702179,-0.814341783524,0.79705286026,-0.699432194233,0.195757746696,-0.348761826754,0.592316508293
1555356665277085073,2576,1555356665277085073,world,-2.89353466034,-0.814297437668,0.796854734421,-0.700047194958,0.197299912572,-0.347610235214,0.591754853725
1555356665287404301,2577,1555356665287404301,world,-2.89349651337,-0.814299106598,0.796851396561,-0.700226664543,0.19743733108,-0.347349613905,0.591649770737
1555356665297730565,2578,1555356665297730565,world,-2.89354801178,-0.814267158508,0.796935319901,-0.700063765049,0.197073638439,-0.347570449114,0.591834068298
1555356665306987669,2579,1555356665306987669,world,-2.89430046082,-0.81445646286,0.797283649445,-0.69778573513,0.192386314273,-0.350758016109,0.594181358814
1555356665307019078,2580,1555356665307019078,world,-2.89382839203,-0.814316034317,0.797079086304,-0.6992841959,0.195288524032,-0.348557770252,0.592766046524
1555356665317441521,2581,1555356665317441521,world,-2.89367771149,-0.814291954041,0.796964645386,-0.699776947498,0.19629535079,-0.348080933094,0.59213167429
1555356665326684550,2582,1555356665326684550,world,-2.89364242554,-0.81428360939,0.796890974045,-0.699978530407,0.196548491716,-0.347851991653,0.591944098473
1555356665337366670,2583,1555356665337366670,world,-2.89363479614,-0.814291000366,0.796941995621,-0.699977040291,0.196583226323,-0.347913205624,0.591898202896
1555356665347674715,2584,1555356665347674715,world,-2.894323349,-0.814440965652,0.797290563583,-0.69761711359,0.192021563649,-0.35126760602,0.594196259975
1555356665347690100,2585,1555356665347690100,world,-2.89455795288,-0.814490795135,0.79737830162,-0.696825563908,0.19076089561,-0.352216094732,0.5949690938
1555356665356922154,2586,1555356665356922154,world,-2.893907547,-0.814360618591,0.797092199326,-0.69891756773,0.194938018918,-0.349309414625,0.592871248722
1555356665367241199,2587,1555356665367241199,world,-2.89366817474,-0.814289093018,0.796989917755,-0.699746489525,0.196305245161,-0.348241060972,0.59207034111
1555356665377588666,2588,1555356665377588666,world,-2.89356899261,-0.814315795898,0.796951532364,-0.699984490871,0.19686691463,-0.347911924124,0.591795861721
1555356665397180524,2589,1555356665397180524,world,-2.89355945587,-0.81429028511,0.796916484833,-0.700002193451,0.196790352464,-0.347605347633,0.591980516911
1555356665397203569,2590,1555356665397203569,world,-2.89357471466,-0.81432056427,0.796961307526,-0.699781060219,0.196568086743,-0.348301231861,0.591906785965
1555356665397233221,2591,1555356665397233221,world,-2.89365768433,-0.814324378967,0.797001600266,-0.699608922005,0.196421653032,-0.348177403212,0.592231750488
1555356665407581539,2592,1555356665407581539,world,-2.89369773865,-0.814353942871,0.797002315521,-0.699544847012,0.196256875992,-0.348348468542,0.592261433601
1555356665416924180,2593,1555356665416924180,world,-2.89369392395,-0.814337968826,0.796963691711,-0.699577152729,0.196107849479,-0.348258048296,0.592325866222
1555356665437465810,2594,1555356665437465810,world,-2.89372444153,-0.814306497574,0.796947240829,-0.699603438377,0.195924893022,-0.34809833765,0.592449188232
1555356665437498674,2595,1555356665437498674,world,-2.89377212524,-0.81428694725,0.797000169754,-0.699563205242,0.195769757032,-0.348246306181,0.592460930347
1555356665446660985,2596,1555356665446660985,world,-2.89378261566,-0.814292430878,0.797005176544,-0.699526369572,0.195723772049,-0.348340898752,0.592464089394
1555356665456953950,2597,1555356665456953950,world,-2.89379882812,-0.814302444458,0.797001838684,-0.699417889118,0.195608377457,-0.34850075841,0.592536330223
1555356665456986733,2598,1555356665456986733,world,-2.89376544952,-0.814298629761,0.797007799149,-0.699390590191,0.195780545473,-0.348530501127,0.592494189739
1555356665467386290,2599,1555356665467386290,world,-2.89376735687,-0.814304351807,0.796986818314,-0.699440300465,0.195726588368,-0.348475366831,0.592485785484
1555356665476699854,2600,1555356665476699854,world,-2.89374732971,-0.814305067062,0.796995401382,-0.699498593807,0.195647567511,-0.348255485296,0.592572391033
1555356665486995354,2601,1555356665486995354,world,-2.89447593689,-0.814469099045,0.7973549366,-0.697229266167,0.191323563457,-0.351259052753,0.594881355762
1555356665497434530,2602,1555356665497434530,world,-2.89396953583,-0.814385890961,0.797098875046,-0.69879591465,0.194601133466,-0.349402844906,0.593070209026
1555356665497476729,2603,1555356665497476729,world,-2.89372825623,-0.814346313477,0.797016143799,-0.699463248253,0.195933789015,-0.348446071148,0.592407405376
1555356665506750999,2604,1555356665506750999,world,-2.89365673065,-0.814325332642,0.796948432922,-0.699699103832,0.19638466835,-0.348010152578,0.592235743999
1555356665517161198,2605,1555356665517161198,world,-2.89363670349,-0.814340829849,0.796968221664,-0.699631810188,0.19625864923,-0.348514616489,0.592060387135
1555356665527548616,2606,1555356665527548616,world,-2.89435386658,-0.814478635788,0.797342538834,-0.697352588177,0.191774994135,-0.351043432951,0.594718635082
1555356665536873036,2607,1555356665536873036,world,-2.89388656616,-0.814409732819,0.797081232071,-0.698981285095,0.194834798574,-0.349066853523,0.592973053455
1555356665547196210,2608,1555356665547196210,world,-2.89368438721,-0.814341545105,0.796982765198,-0.699640095234,0.196051284671,-0.348288804293,0.592252194881
1555356665557468871,2609,1555356665557468871,world,-2.89364624023,-0.814337968826,0.796965122223,-0.699798643589,0.196372523904,-0.34819689393,0.592012286186
1555356665557535717,2610,1555356665557535717,world,-2.89434719086,-0.814477682114,0.797286272049,-0.697544455528,0.192068383098,-0.350979506969,0.594436645508
1555356665566974859,2611,1555356665566974859,world,-2.89388179779,-0.814373493195,0.797082424164,-0.699091553688,0.194995447993,-0.349142491817,0.592745542526
1555356665587681964,2612,1555356665587681964,world,-2.89369487762,-0.814316511154,0.796991109848,-0.699656546116,0.196219235659,-0.348289191723,0.592176735401
1555356665587718567,2613,1555356665587718567,world,-2.89363956451,-0.814316034317,0.796938896179,-0.699830412865,0.196590870619,-0.347980558872,0.592029571533
1555356665587762509,2614,1555356665587762509,world,-2.89364910126,-0.814310312271,0.796958208084,-0.699806392193,0.19654121995,-0.347905278206,0.592118620872
1555356665597080359,2615,1555356665597080359,world,-2.8936958313,-0.8143222332,0.79699754715,-0.699633300304,0.196322128177,-0.348240226507,0.592199027538
1555356665607364195,2616,1555356665607364195,world,-2.89372253418,-0.814296245575,0.7970058918,-0.69962978363,0.196078807116,-0.348192840815,0.592311561108
1555356665617715364,2617,1555356665617715364,world,-2.89373207092,-0.814300775528,0.796990871429,-0.699580132961,0.195989742875,-0.348397225142,0.592279553413
1555356665627061241,2618,1555356665627061241,world,-2.89443397522,-0.814470767975,0.797268390656,-0.697331786156,0.191759705544,-0.351297199726,0.594598054886
1555356665637415708,2619,1555356665637415708,world,-2.89460754395,-0.814530134201,0.797390460968,-0.696674883366,0.190599292517,-0.352257102728,0.595173120499
1555356665646705237,2620,1555356665646705237,world,-2.89458179474,-0.814534187317,0.797394514084,-0.696615576744,0.190465793014,-0.352336555719,0.595238089561
1555356665646749015,2621,1555356665646749015,world,-2.89382743835,-0.814368963242,0.797065258026,-0.699128985405,0.195158660412,-0.34880644083,0.592845678329
1555356665657113272,2622,1555356665657113272,world,-2.89355373383,-0.814291000366,0.796932935715,-0.700030565262,0.19684304297,-0.347556352615,0.591958343983
1555356665667519151,2623,1555356665667519151,world,-2.89418029785,-0.814464092255,0.797183513641,-0.698018372059,0.193001762033,-0.350224405527,0.594023346901
1555356665676859199,2624,1555356665676859199,world,-2.89443016052,-0.814483642578,0.797306537628,-0.697365999222,0.19144923985,-0.351050585508,0.59480369091
1555356665687184634,2625,1555356665687184634,world,-2.8937625885,-0.814366579056,0.797040939331,-0.699379444122,0.195596799254,-0.348583698273,0.592536687851
1555356665697508325,2626,1555356665697508325,world,-2.89350605011,-0.814292430878,0.79692697525,-0.699977517128,0.197049468756,-0.348095148802,0.591635704041
1555356665697554319,2627,1555356665697554319,world,-2.89349365234,-0.814250230789,0.796887397766,-0.700246393681,0.197203069925,-0.347315847874,0.591724336147
1555356665706867693,2628,1555356665706867693,world,-2.89424228668,-0.81441617012,0.797212839127,-0.697910606861,0.192758560181,-0.350387245417,0.594132781029
1555356665717341618,2629,1555356665717341618,world,-2.89381122589,-0.814338207245,0.797012329102,-0.699386119843,0.195611014962,-0.348580360413,0.592526197433
1555356665727743443,2630,1555356665727743443,world,-2.89433860779,-0.814448833466,0.797255754471,-0.697691738605,0.192329868674,-0.350873738527,0.594241678715
1555356665737078759,2631,1555356665737078759,world,-2.89380741119,-0.814319610596,0.797034740448,-0.699363529682,0.195482999086,-0.348681598902,0.592535316944
1555356665747436276,2632,1555356665747436276,world,-2.89361667633,-0.814283847809,0.796939373016,-0.699975788593,0.196583434939,-0.347888857126,0.591914117336
1555356665756697685,2633,1555356665756697685,world,-2.89357566833,-0.814269304276,0.796915531158,-0.700050055981,0.196817740798,-0.347503632307,0.591974675655
1555356665767156685,2634,1555356665767156685,world,-2.89358997345,-0.814283132553,0.796948194504,-0.699913978577,0.196801811457,-0.347766071558,0.591986656189
1555356665777504218,2635,1555356665777504218,world,-2.89429187775,-0.814489126205,0.797262430191,-0.697655498981,0.192391306162,-0.351072221994,0.594147086143
1555356665777550677,2636,1555356665777550677,world,-2.89457416534,-0.814483880997,0.797406196594,-0.696882665157,0.190700158477,-0.351696282625,0.595229208469
1555356665786766322,2637,1555356665786766322,world,-2.89388751984,-0.814353227615,0.797022342682,-0.699119925499,0.194917321205,-0.349082767963,0.592772960663
1555356665797191505,2638,1555356665797191505,world,-2.89363479614,-0.814297676086,0.796898365021,-0.699882626534,0.196576088667,-0.34807497263,0.591917276382
1555356665797246371,2639,1555356665797246371,world,-2.89430522919,-0.81444478035,0.797231912613,-0.697814047337,0.19273018837,-0.350642353296,0.594104886055
1555356665807653201,2640,1555356665807653201,world,-2.8944940567,-0.814477205276,0.797329187393,-0.697105765343,0.191342025995,-0.351526767015,0.594862103462
1555356665817118385,2641,1555356665817118385,world,-2.89448547363,-0.814495563507,0.797337293625,-0.6970667243,0.191388815641,-0.351647675037,0.594821214676
1555356665827498294,2642,1555356665827498294,world,-2.89379787445,-0.814287185669,0.796996831894,-0.699537754059,0.19561176002,-0.348121643066,0.592616558075
1555356665836755864,2643,1555356665836755864,world,-2.89353847504,-0.814249515533,0.796885728836,-0.700230360031,0.197220757604,-0.347420960665,0.591675817966
1555356665847158020,2644,1555356665847158020,world,-2.89417648315,-0.814411878586,0.797207832336,-0.698125422001,0.193271249533,-0.350268274546,0.593783915043
1555356665857554709,2645,1555356665857554709,world,-2.89438533783,-0.814478397369,0.79728603363,-0.697534799576,0.191725715995,-0.351289153099,0.594375610352
1555356665857609301,2646,1555356665857609301,world,-2.89374446869,-0.814306259155,0.7970058918,-0.699484467506,0.195703834295,-0.348407328129,0.592481076717
1555356665867043997,2647,1555356665867043997,world,-2.89356040955,-0.814272403717,0.796870470047,-0.700260281563,0.197072505951,-0.347206175327,0.591815829277
1555356665877519450,2648,1555356665877519450,world,-2.89352989197,-0.814287424088,0.796895503998,-0.700258255005,0.197349444032,-0.347406029701,0.591608583927
1555356665886926470,2649,1555356665886926470,world,-2.89421844482,-0.814437627792,0.797209262848,-0.697969079018,0.192775562406,-0.350785195827,0.593823671341
1555356665897269587,2650,1555356665897269587,world,-2.89381313324,-0.814324140549,0.797032117844,-0.699364840984,0.195668384433,-0.348599046469,0.592521309853
1555356665897319792,2651,1555356665897319792,world,-2.89360046387,-0.814285516739,0.796939373016,-0.699772834778,0.196632727981,-0.348182916641,0.591964781284
1555356665927338673,2652,1555356665927338673,world,-2.89363002777,-0.814243555069,0.796894311905,-0.699932515621,0.196792557836,-0.347772210836,0.591964185238
1555356665937681271,2653,1555356665937681271,world,-2.89366817474,-0.814263343811,0.796932220459,-0.699978411198,0.196597084403,-0.347749382257,0.591988503933
1555356665937755439,2655,1555356665937755439,world,-2.8939332962,-0.814309835434,0.79705452919,-0.699043691158,0.194938361645,-0.349348038435,0.592699587345
1555356665947040852,2656,1555356665947040852,world,-2.89367580414,-0.814249515533,0.796947717667,-0.699707210064,0.1961004287,-0.348244279623,0.59218275547
1555356665967571602,2657,1555356665967571602,world,-2.89432907104,-0.814464330673,0.797247409821,-0.697552263737,0.192338973284,-0.351143151522,0.594243168831
1555356665967617099,2658,1555356665967617099,world,-2.8945350647,-0.814484834671,0.797364234924,-0.69699048996,0.190844133496,-0.352036207914,0.594855666161
1555356665967663707,2659,1555356665967663707,world,-2.89383411407,-0.81435084343,0.797060966492,-0.699174106121,0.195093765855,-0.348871916533,0.592775166035
1555356665987350459,2660,1555356665987350459,world,-2.8935918808,-0.814319849014,0.79692363739,-0.69984972477,0.196913942695,-0.347869932652,0.591964304447
1555356665987396421,2661,1555356665987396421,world,-2.89354515076,-0.814299583435,0.796916484833,-0.700132966042,0.197113767266,-0.34754627943,0.591753065586
1555356665997774610,2662,1555356665997774610,world,-2.89424991608,-0.81446814537,0.797289848328,-0.697871506214,0.192671582103,-0.35068538785,0.5940310359
1555356665997819628,2663,1555356665997819628,world,-2.89446544647,-0.814531803131,0.797394752502,-0.697041809559,0.190974146128,-0.351894974709,0.594837427139
1555356666007155904,2664,1555356666007155904,world,-2.89449596405,-0.814527511597,0.797341346741,-0.696897089481,0.191261932254,-0.35182094574,0.594958305359
1555356666017536001,2665,1555356666017536001,world,-2.89376068115,-0.814308166504,0.796903610229,-0.69943600893,0.195714384317,-0.348463565111,0.592501699924
1555356666026934078,2666,1555356666026934078,world,-2.89351081848,-0.814254045486,0.796808004379,-0.700251460075,0.197163164616,-0.347612679005,0.591557323933
1555356666037368379,2667,1555356666037368379,world,-2.89420127869,-0.814388513565,0.797233343124,-0.698040664196,0.192997440696,-0.350345343351,0.593927025795
1555356666046701649,2668,1555356666046701649,world,-2.89446735382,-0.814434051514,0.797382593155,-0.697277665138,0.191633820534,-0.351254880428,0.594727039337
1555356666046756821,2669,1555356666046756821,world,-2.89450073242,-0.814394235611,0.797365427017,-0.697210907936,0.19121953845,-0.351404219866,0.59485065937
1555356666067587199,2670,1555356666067587199,world,-2.89371299744,-0.814291715622,0.796896934509,-0.699508726597,0.196006402373,-0.348332673311,0.592396438122
1555356666067624442,2671,1555356666067624442,world,-2.89348602295,-0.814190387726,0.796813249588,-0.700251877308,0.197458222508,-0.347217619419,0.591690540314
1555356666076999742,2672,1555356666076999742,world,-2.89417743683,-0.814353942871,0.797188520432,-0.698149383068,0.193304896355,-0.350248426199,0.593756556511
1555356666087724095,2673,1555356666087724095,world,-2.89439105988,-0.814442873001,0.797377586365,-0.697399139404,0.19177429378,-0.351203918457,0.594569444656
1555356666097179898,2674,1555356666097179898,world,-2.89443778992,-0.814464330673,0.797381401062,-0.697281301022,0.191507160664,-0.351498216391,0.59461992979
1555356666107467114,2675,1555356666107467114,world,-2.89366340637,-0.814327716827,0.796974182129,-0.699559092522,0.196124911308,-0.348290503025,0.592322409153
1555356666107505426,2676,1555356666107505426,world,-2.89340019226,-0.814273357391,0.796840667725,-0.700342774391,0.197581365705,-0.347137540579,0.591588616371
1555356666116768496,2677,1555356666116768496,world,-2.89337825775,-0.814296483994,0.796857833862,-0.700392782688,0.197655722499,-0.347213566303,0.591459929943
1555356666127110980,2678,1555356666127110980,world,-2.89412212372,-0.814436435699,0.79726600647,-0.698018848896,0.193047076464,-0.350362926722,0.593926250935
1555356666137514357,2679,1555356666137514357,world,-2.89438343048,-0.814453363419,0.797377347946,-0.697193205357,0.191321387887,-0.351229310036,0.594941854477
1555356666146987359,2680,1555356666146987359,world,-2.89372348785,-0.81433057785,0.7970495224,-0.699358582497,0.19554618001,-0.348563373089,0.592590153217
1555356666157383487,2681,1555356666157383487,world,-2.8934879303,-0.814280748367,0.796916007996,-0.700093567371,0.197079136968,-0.347722917795,0.591707408428
1555356666167712976,2682,1555356666167712976,world,-2.89348220825,-0.814255714417,0.796859264374,-0.700262844563,0.197247907519,-0.347485721111,0.591590046883
1555356666167750992,2683,1555356666167750992,world,-2.89351940155,-0.814234733582,0.796900510788,-0.70016348362,0.196954384446,-0.347502052784,0.59179598093
1555356666177136265,2684,1555356666177136265,world,-2.8942937851,-0.814391851425,0.797271251678,-0.697743356228,0.192171692848,-0.350561350584,0.594416558743
1555356666187478738,2685,1555356666187478738,world,-2.89455986023,-0.81446814537,0.79737663269,-0.696973979473,0.190800353885,-0.351867139339,0.594989061356
1555356666187547471,2686,1555356666187547471,world,-2.89455890656,-0.814508676529,0.797354698181,-0.696823894978,0.190864086151,-0.352053642273,0.595034122467
1555356666207271264,2687,1555356666207271264,world,-2.89382743835,-0.814383745193,0.796985387802,-0.699294507504,0.195644915104,-0.348647326231,0.592583537102
1555356666207320183,2688,1555356666207320183,world,-2.89354705811,-0.814283370972,0.796887874603,-0.700097203255,0.197181001306,-0.347528040409,0.591783583164
1555356666217695659,2689,1555356666217695659,world,-2.89421653748,-0.814394950867,0.797233343124,-0.698056936264,0.192873254418,-0.350327968597,0.593958616257
1555356666227080133,2690,1555356666227080133,world,-2.89447021484,-0.814420700073,0.797379016876,-0.697274923325,0.191352561116,-0.350972622633,0.594987511635
1555356666237413898,2691,1555356666237413898,world,-2.89442539215,-0.814460992813,0.797350883484,-0.69717246294,0.191551461816,-0.351516127586,0.594722747803
1555356666246734416,2692,1555356666246734416,world,-2.89370155334,-0.814287185669,0.796984910965,-0.699532449245,0.195956796408,-0.34842428565,0.592330753803
1555356666257129432,2693,1555356666257129432,world,-2.8934545517,-0.814193964005,0.796883106232,-0.700315177441,0.197501823306,-0.347367525101,0.591512799263
1555356666257207748,2694,1555356666257207748,world,-2.89406394958,-0.81437087059,0.797201871872,-0.698079049587,0.193578898907,-0.350490182638,0.59360730648
1555356666267654336,2695,1555356666267654336,world,-2.89361953735,-0.814254283905,0.797022342682,-0.69963234663,0.196174740791,-0.348390311003,0.592160582542
1555356666277102289,2696,1555356666277102289,world,-2.89349460602,-0.814268350601,0.796945095062,-0.700093209743,0.197206228971,-0.347838521004,0.591597437859
1555356666287551478,2697,1555356666287551478,world,-2.89347743988,-0.814255237579,0.796929359436,-0.700152814388,0.197108536959,-0.347617030144,0.591689705849
1555356666297002413,2698,1555356666297002413,world,-2.89354228973,-0.814264535904,0.79694890976,-0.70005851984,0.196845144033,-0.3475664258,0.591918587685
1555356666307339839,2699,1555356666307339839,world,-2.8935956955,-0.814274311066,0.796985387802,-0.699906527996,0.196516543627,-0.347728848457,0.592112183571
1555356666307379653,2700,1555356666307379653,world,-2.89364814758,-0.814327716827,0.796981096268,-0.699686586857,0.196165770292,-0.34833329916,0.592133104801
1555356666317719710,2701,1555356666317719710,world,-2.89373207092,-0.814324617386,0.797022819519,-0.699590802193,0.196139812469,-0.348320066929,0.592262804508
1555356666337521441,2702,1555356666337521441,world,-2.89378261566,-0.814344644547,0.797033309937,-0.699561476707,0.195980668068,-0.348282158375,0.592372179031
1555356666337562074,2703,1555356666337562074,world,-2.89379024506,-0.814351320267,0.796989202499,-0.699487864971,0.195832282305,-0.348272055387,0.592514097691
1555356666337608171,2704,1555356666337608171,world,-2.89379024506,-0.814338207245,0.796992540359,-0.699471712112,0.195862755179,-0.348393917084,0.592451632023
1555356666347048182,2705,1555356666347048182,world,-2.89449214935,-0.81449508667,0.797328472137,-0.697230935097,0.19143794477,-0.351272523403,0.594834625721
1555356666357500391,2706,1555356666357500391,world,-2.89468288422,-0.814527988434,0.797438383102,-0.696605980396,0.190225675702,-0.352200001478,0.595407128334
1555356666366721148,2707,1555356666366721148,world,-2.89393043518,-0.814397096634,0.797075510025,-0.698900222778,0.194696754217,-0.349344849586,0.592950105667
1555356666377169824,2708,1555356666377169824,world,-2.89364051819,-0.814314603806,0.796954154968,-0.699750185013,0.196394875646,-0.348113298416,0.592111349106
1555356666387478438,2709,1555356666387478438,world,-2.89352798462,-0.814269065857,0.796928167343,-0.700011491776,0.196838349104,-0.347766786814,0.591858863831
1555356666387517393,2710,1555356666387517393,world,-2.89354038239,-0.814301967621,0.796964406967,-0.699868917465,0.196989685297,-0.348114609718,0.591772556305
1555356666407143631,2711,1555356666407143631,world,-2.89427185059,-0.814424037933,0.797337532043,-0.697481572628,0.192187547684,-0.350760549307,0.594601094723
1555356666407181252,2712,1555356666407181252,world,-2.89378738403,-0.814321279526,0.797121286392,-0.698990225792,0.195087373257,-0.348951995373,0.592947006226
1555356666427056551,2713,1555356666427056551,world,-2.89361763,-0.814284324646,0.79695892334,-0.699782133102,0.19635631144,-0.347913265228,0.592203855515
1555356666437517249,2714,1555356666437517249,world,-2.89357376099,-0.814282178879,0.796912193298,-0.699822962284,0.196604624391,-0.347964078188,0.59204351902
1555356666437557727,2715,1555356666437557727,world,-2.89361190796,-0.814291715622,0.796920537949,-0.699743270874,0.196726188064,-0.348104715347,0.592014610767
1555356666446999244,2716,1555356666446999244,world,-2.89434337616,-0.814452409744,0.797301530838,-0.697488903999,0.191875293851,-0.351410329342,0.59430962801
1555356666447040774,2717,1555356666447040774,world,-2.89458847046,-0.81451177597,0.797403812408,-0.696737468243,0.190491333604,-0.352004081011,0.595284044743
1555356666467765577,2718,1555356666467765577,world,-2.89457321167,-0.814546346664,0.797328472137,-0.696736037731,0.190728262067,-0.352237969637,0.595071554184
1555356666477120716,2719,1555356666477120716,world,-2.89386367798,-0.814376115799,0.797006845474,-0.699221491814,0.195411652327,-0.348919212818,0.592586815357
1555356666477168922,2720,1555356666477168922,world,-2.89427661896,-0.814459562302,0.797168731689,-0.69787222147,0.192608579993,-0.350754052401,0.594010055065
1555356666487444601,2721,1555356666487444601,world,-2.89441871643,-0.814549922943,0.79728269577,-0.697429895401,0.191854983568,-0.351173043251,0.594525635242
1555356666487485892,2722,1555356666487485892,world,-2.89448928833,-0.81449007988,0.797368526459,-0.697218716145,0.191292375326,-0.350999116898,0.595057189465
1555356666496769843,2723,1555356666496769843,world,-2.89442253113,-0.814493179321,0.797317266464,-0.697455823421,0.191752403975,-0.350992649794,0.594634890556
1555356666507061132,2724,1555356666507061132,world,-2.89430904388,-0.814503192902,0.797239303589,-0.697609961033,0.192324906588,-0.350991278887,0.594269871712
1555356666517398030,2725,1555356666517398030,world,-2.89422607422,-0.814508914948,0.79719042778,-0.69772785902,0.192823588848,-0.350951761007,0.593993127346
1555356666527738981,2726,1555356666527738981,world,-2.89354610443,-0.814289569855,0.796915054321,-0.700005292892,0.19704644382,-0.347701191902,0.591835618019
1555356666537074650,2727,1555356666537074650,world,-2.89403247833,-0.814391374588,0.797163963318,-0.698523163795,0.193926811218,-0.349793255329,0.593382358551
1555356666547394723,2728,1555356666547394723,world,-2.89424610138,-0.814383506775,0.797291517258,-0.697949230671,0.192420348525,-0.350521475077,0.594117820263
1555356666556720702,2729,1555356666556720702,world,-2.89360809326,-0.814237356186,0.796974420547,-0.699958741665,0.196572393179,-0.347827762365,0.591973662376
1555356666577524978,2730,1555356666577524978,world,-2.89340400696,-0.814215421677,0.796813011169,-0.700500309467,0.197905898094,-0.347045838833,0.591347455978
1555356666577566331,2731,1555356666577566331,world,-2.89339160919,-0.814184188843,0.796776771545,-0.700581669807,0.197770863771,-0.346793502569,0.591444373131
1555356666577623203,2732,1555356666577623203,world,-2.89419555664,-0.814378499985,0.797186374664,-0.698108315468,0.19316187501,-0.350041329861,0.593973457813
1555356666587016646,2733,1555356666587016646,world,-2.89447975159,-0.814459323883,0.797384738922,-0.697149217129,0.191308796406,-0.351345032454,0.594929158688
1555356666587056832,2734,1555356666587056832,world,-2.89451122284,-0.814492225647,0.797382593155,-0.697021067142,0.191220700741,-0.351604938507,0.59495395422
1555356666597478415,2735,1555356666597478415,world,-2.89376926422,-0.814339399338,0.796957731247,-0.699406385422,0.195781350136,-0.348395228386,0.592554807663
1555356666606755107,2736,1555356666606755107,world,-2.89348983765,-0.814296483994,0.796748161316,-0.700213193893,0.197369351983,-0.347856551409,0.591390430927
1555356666627434002,2737,1555356666627434002,world,-2.89412212372,-0.814460515976,0.797125101089,-0.698148727417,0.193271711469,-0.350916147232,0.593373775482
1555356666627507057,2738,1555356666627507057,world,-2.89442443848,-0.814482450485,0.797333478928,-0.697456419468,0.191599190235,-0.351218491793,0.594550013542
1555356666647014278,2739,1555356666647014278,world,-2.89450073242,-0.814477443695,0.797397375107,-0.697214007378,0.191296547651,-0.351300507784,0.594883561134
1555356666647073360,2740,1555356666647073360,world,-2.89372825623,-0.814316511154,0.796988487244,-0.699552714825,0.196143046021,-0.348216384649,0.592367529869
1555356666647122977,2741,1555356666647122977,world,-2.89347934723,-0.814313173294,0.796818494797,-0.700271904469,0.197646975517,-0.347311645746,0.591548442841
1555356666696933618,2742,1555356666696933618,world,-2.89342975616,-0.814261674881,0.796878099442,-0.70040845871,0.197795346379,-0.34715488553,0.59142935276
1555356666696971848,2743,1555356666696971848,world,-2.89416503906,-0.814462423325,0.797245502472,-0.69809627533,0.193282425404,-0.35057580471,0.593632936478
1555356666697025720,2744,1555356666697025720,world,-2.89441585541,-0.814482450485,0.79737830162,-0.697171330452,0.191677138209,-0.351481586695,0.59470397234
1555356666697075422,2746,1555356666697075422,world,-2.89356040955,-0.814286470413,0.796889305115,-0.699985027313,0.196969032288,-0.347550392151,0.59197384119
1555356666697099660,2747,1555356666697099660,world,-2.89352703094,-0.814249277115,0.796892166138,-0.700215697289,0.197227656841,-0.347431838512,0.59168446064
1555356666727127441,2748,1555356666727127441,world,-2.89426231384,-0.814424514771,0.797231435776,-0.697926998138,0.192671462893,-0.350624203682,0.594002068043
1555356666727205079,2749,1555356666727205079,world,-2.89452552795,-0.814435005188,0.797362804413,-0.697149932384,0.191014200449,-0.351284682751,0.595058679581
1555356666727244112,2750,1555356666727244112,world,-2.89387607574,-0.8143222332,0.797071933746,-0.699179053307,0.195193693042,-0.348713338375,0.592829704285
1555356666757252714,2751,1555356666757252714,world,-2.89362621307,-0.814279794693,0.796887636185,-0.700043082237,0.19661526382,-0.347530901432,0.592034161091
1555356666757326336,2753,1555356666757326336,world,-2.89355278015,-0.814299821854,0.79691195488,-0.70009636879,0.196921885014,-0.348187327385,0.591483414173
1555356666767675503,2754,1555356666767675503,world,-2.89428901672,-0.814480543137,0.797286987305,-0.697712481022,0.192548796535,-0.351094990969,0.594015657902
1555356666767729326,2755,1555356666767729326,world,-2.89387989044,-0.814321994781,0.797101259232,-0.699155271053,0.195200026035,-0.348745316267,0.592836976051
1555356666777138096,2756,1555356666777138096,world,-2.89368915558,-0.814285755157,0.796974658966,-0.699772119522,0.196206465364,-0.347927689552,0.592257022858
1555356666787361951,2757,1555356666787361951,world,-2.89363193512,-0.8143222332,0.796912431717,-0.699818491936,0.196632713079,-0.348013579845,0.592010259628
1555356666797725670,2758,1555356666797725670,world,-2.89433097839,-0.814450740814,0.797263145447,-0.697588503361,0.192234963179,-0.351004391909,0.594316363335
1555356666797776564,2759,1555356666797776564,world,-2.8945646286,-0.814476728439,0.797433853149,-0.696847259998,0.190494716167,-0.351751089096,0.595304071903
1555356666807028913,2760,1555356666807028913,world,-2.89386177063,-0.814319133759,0.79708981514,-0.699143052101,0.194907903671,-0.348665416241,0.592994391918
1555356666817298109,2761,1555356666817298109,world,-2.89358711243,-0.814290046692,0.796922922134,-0.699935019016,0.196628913283,-0.347743302584,0.59203261137
1555356666827694407,2762,1555356666827694407,world,-2.89351940155,-0.814285039902,0.796874284744,-0.700120985508,0.197044089437,-0.347916036844,0.591573178768
1555356666837018491,2763,1555356666837018491,world,-2.89427280426,-0.814424991608,0.797258377075,-0.697845339775,0.192494735122,-0.350817263126,0.59404116869
1555356666847409012,2764,1555356666847409012,world,-2.89381027222,-0.814294338226,0.797079324722,-0.699312388897,0.195460647345,-0.348760217428,0.592556893826
1555356666847451781,2765,1555356666847451781,world,-2.89364242554,-0.814280033112,0.796959877014,-0.699778318405,0.196435317397,-0.348143339157,0.592047035694
1555356666856708954,2766,1555356666856708954,world,-2.89430236816,-0.814420700073,0.797230243683,-0.697554767132,0.19239795208,-0.350826114416,0.594408452511
1555356666877465291,2767,1555356666877465291,world,-2.89385986328,-0.814341068268,0.797023296356,-0.699191749096,0.195393383503,-0.348816841841,0.592688202858
1555356666877539121,2768,1555356666877539121,world,-2.89437198639,-0.814454317093,0.797296047211,-0.697610259056,0.192057415843,-0.351026594639,0.594335079193
1555356666886930548,2769,1555356666886930548,world,-2.89379787445,-0.814356803894,0.79702091217,-0.699347734451,0.195474281907,-0.348815202713,0.592478275299
1555356666897334442,2770,1555356666897334442,world,-2.89363002777,-0.814310789108,0.796933174133,-0.699919641018,0.196725457907,-0.347879499197,0.591938853264
1555356666897374136,2771,1555356666897374136,world,-2.89357185364,-0.81428694725,0.796913385391,-0.700120806694,0.196970254183,-0.347472518682,0.591858386993
1555356666907756029,2772,1555356666907756029,world,-2.89430522919,-0.81448340416,0.797261953354,-0.697789311409,0.192687153816,-0.350686848164,0.594121754169
1555356666917195915,2773,1555356666917195915,world,-2.89455795288,-0.814481258392,0.79743885994,-0.697052717209,0.190634921193,-0.351500242949,0.595166742802
1555356666927643270,2774,1555356666927643270,world,-2.89384746552,-0.814358711243,0.797036170959,-0.699214756489,0.195149332285,-0.348839432001,0.592728078365
1555356666936989344,2775,1555356666936989344,world,-2.89359283447,-0.81427192688,0.796831130981,-0.699991583824,0.196900710464,-0.34748083353,0.592029631138
1555356666947344180,2776,1555356666947344180,world,-2.89352607727,-0.814276456833,0.796856641769,-0.700130045414,0.197169601917,-0.347556263208,0.591732025146
1555356666947379650,2777,1555356666947379650,world,-2.89427185059,-0.814426422119,0.797245025635,-0.697797358036,0.192758500576,-0.350571542978,0.594157099724
1555356666957708974,2778,1555356666957708974,world,-2.89454078674,-0.814435482025,0.797430753708,-0.697061955929,0.190956428647,-0.351445883512,0.59508484602
1555356666967118971,2779,1555356666967118971,world,-2.89384365082,-0.81431388855,0.797105312347,-0.699280917645,0.195173799992,-0.348740190268,0.592700302601
1555356666977516249,2780,1555356666977516249,world,-2.89356803894,-0.814230442047,0.796857833862,-0.700189054012,0.196697220206,-0.347480267286,0.591864049435
1555356666986876623,2781,1555356666986876623,world,-2.89352321625,-0.814292430878,0.796810865402,-0.700183033943,0.197276473045,-0.347577393055,0.591621279716
1555356667016871318,2782,1555356667016871318,world,-2.89351940155,-0.814329624176,0.796877145767,-0.699980556965,0.19709302485,-0.347725063562,0.591835200787
1555356667016954649,2785,1555356667016954649,world,-2.89388847351,-0.814400911331,0.797056674957,-0.69900983572,0.195046558976,-0.348914593458,0.592959225178
1555356667027330826,2786,1555356667027330826,world,-2.89361381531,-0.814330339432,0.796864032745,-0.699886202812,0.196671262383,-0.347669422626,0.592119693756
1555356667037775250,2787,1555356667037775250,world,-2.8935918808,-0.814299583435,0.796824455261,-0.70017105341,0.196984827518,-0.347368508577,0.591855227947
1555356667047224791,2788,1555356667047224791,world,-2.89429187775,-0.814430952072,0.797248125076,-0.697930514812,0.192407637835,-0.350683778524,0.594048142433
1555356667047278843,2789,1555356667047278843,world,-2.89451503754,-0.814442634583,0.797435998917,-0.697130918503,0.190772682428,-0.351989835501,0.594741404057
1555356667057708412,2790,1555356667057708412,world,-2.89455032349,-0.814452171326,0.797409772873,-0.696924448013,0.190847173333,-0.351925343275,0.594997763634
1555356667067112249,2791,1555356667067112249,world,-2.89378833771,-0.814259529114,0.796937227249,-0.699430882931,0.19579218328,-0.348624795675,0.592387318611
1555356667077529742,2792,1555356667077529742,world,-2.89348888397,-0.814230203629,0.796754598618,-0.700206100941,0.197384223342,-0.347879469395,0.591380476952
1555356667087158150,2793,1555356667087158150,world,-2.8934879303,-0.814208030701,0.796815872192,-0.700300753117,0.197610735893,-0.347494393587,0.591419219971
1555356667097535889,2794,1555356667097535889,world,-2.89426040649,-0.814384698868,0.797305583954,-0.697882175446,0.192733332515,-0.350595355034,0.594051599503
1555356667127583245,2795,1555356667127583245,world,-2.89452362061,-0.814444541931,0.79744720459,-0.697081983089,0.191183954477,-0.351446449757,0.594988107681
1555356667127668215,2798,1555356667127668215,world,-2.89348697662,-0.814315080643,0.796809673309,-0.700194358826,0.197293013334,-0.347887545824,0.591419994831
1555356667137060776,2799,1555356667137060776,world,-2.89427185059,-0.814450979233,0.79728603363,-0.697859227657,0.192572742701,-0.350568145514,0.594146549702
1555356667137101448,2800,1555356667137101448,world,-2.89448833466,-0.814496278763,0.797425746918,-0.69707930088,0.191016077995,-0.351563364267,0.594976007938
1555356667156769833,2801,1555356667156769833,world,-2.89451980591,-0.814517974854,0.797405719757,-0.697035968304,0.19097276032,-0.351652085781,0.594988286495
1555356667156819046,2802,1555356667156819046,world,-2.89379787445,-0.81430888176,0.796994924545,-0.699379861355,0.19552513957,-0.348270624876,0.59274405241
1555356667167217598,2803,1555356667167217598,world,-2.89353847504,-0.814290523529,0.796821117401,-0.700143396854,0.197216436267,-0.347269713879,0.591868758202
1555356667177618847,2804,1555356667177618847,world,-2.89419651031,-0.814403057098,0.797144412994,-0.698083400726,0.193030670285,-0.349942445755,0.594103574753
1555356667187020649,2805,1555356667187020649,world,-2.8944234848,-0.814467668533,0.797335147858,-0.69726318121,0.19169677794,-0.351231634617,0.594737529755
1555356667197422193,2806,1555356667197422193,world,-2.89448738098,-0.814470529556,0.797402620316,-0.696986317635,0.191383808851,-0.351356774569,0.595088839531
1555356667206767337,2807,1555356667206767337,world,-2.89376068115,-0.814286231995,0.7970058918,-0.699427843094,0.195925757289,-0.348201990128,0.592595398426
1555356667206822396,2808,1555356667206822396,world,-2.89347076416,-0.814233779907,0.796753644943,-0.70037406683,0.197630003095,-0.346931219101,0.591656386852
1555356667217251511,2809,1555356667217251511,world,-2.89342975616,-0.814243555069,0.796751976013,-0.700526595116,0.197816103697,-0.347063630819,0.591335833073
1555356667227602225,2810,1555356667227602225,world,-2.89421844482,-0.814395189285,0.797223091125,-0.697985112667,0.192838534713,-0.350405782461,0.59400832653
1555356667236941042,2811,1555356667236941042,world,-2.89449596405,-0.814445018768,0.797446250916,-0.697247862816,0.191063195467,-0.351398140192,0.594861149788
1555356667247322774,2812,1555356667247322774,world,-2.89451313019,-0.814461231232,0.797400951385,-0.697025835514,0.191005751491,-0.35161280632,0.595012903214
1555356667247392183,2813,1555356667247392183,world,-2.89377117157,-0.814298391342,0.796917438507,-0.699471414089,0.195760399103,-0.348558157682,0.592389047146
1555356667257719236,2814,1555356667257719236,world,-2.89350891113,-0.814227581024,0.796766281128,-0.700231313705,0.197511136532,-0.347237467766,0.591685414314
1555356667267125441,2815,1555356667267125441,world,-2.89418888092,-0.814408540726,0.797145605087,-0.698040246964,0.193270161748,-0.350281476974,0.593876540661
1555356667277575393,2816,1555356667277575393,world,-2.89444637299,-0.814444065094,0.797394275665,-0.697384119034,0.191491991282,-0.351299852133,0.594621479511
1555356667297202869,2817,1555356667297202869,world,-2.89446640015,-0.814490795135,0.797415018082,-0.697118401527,0.191560715437,-0.351611167192,0.594726920128
1555356667297270437,2818,1555356667297270437,world,-2.89371681213,-0.814332723618,0.796954393387,-0.699549496174,0.19606898725,-0.348295837641,0.592349231243
1555356667297321001,2819,1555356667297321001,world,-2.89341831207,-0.814274311066,0.796736240387,-0.700393676758,0.19761697948,-0.347576409578,0.591258764267
1555356667307693592,2820,1555356667307693592,world,-2.89345169067,-0.814283370972,0.796794176102,-0.700382769108,0.197806149721,-0.347203075886,0.591427743435
1555356667317137390,2821,1555356667317137390,world,-2.8942193985,-0.814389467239,0.797289848328,-0.69805842638,0.192552119493,-0.350342065096,0.594052612782
1555356667327581987,2822,1555356667327581987,world,-2.89449310303,-0.814446687698,0.797450065613,-0.697299599648,0.191120952368,-0.351378113031,0.59479367733
1555356667336997558,2823,1555356667336997558,world,-2.89378833771,-0.81433224678,0.797065258026,-0.699306488037,0.19543492794,-0.34906566143,0.592392444611
1555356667347465256,2824,1555356667347465256,world,-2.89355373383,-0.814256668091,0.796841621399,-0.700147032738,0.19711484015,-0.34778958559,0.59159308672
1555356667367050072,2825,1555356667367050072,world,-2.89348125458,-0.814294815063,0.796781539917,-0.700226128101,0.197410687804,-0.347964704037,0.591297745705
1555356667367116972,2827,1555356667367116972,world,-2.89456939697,-0.814423322678,0.797488927841,-0.69699460268,0.190822392702,-0.35145843029,0.595199346542
1555356667377486559,2828,1555356667377486559,world,-2.89459228516,-0.81445479393,0.797443389893,-0.696800172329,0.190668746829,-0.351550042629,0.595422267914
1555356667386711690,2829,1555356667386711690,world,-2.89378166199,-0.814338684082,0.796966791153,-0.699329197407,0.195810526609,-0.34857109189,0.59253269434
1555356667397099436,2830,1555356667397099436,world,-2.89352893829,-0.814273118973,0.796784877777,-0.700243711472,0.197435498238,-0.34731900692,0.591648221016
1555356667407492243,2831,1555356667407492243,world,-2.89350223541,-0.814272165298,0.796831846237,-0.700307905674,0.197743758559,-0.347354710102,0.591448247433
1555356667407530045,2832,1555356667407530045,world,-2.89427185059,-0.814408302307,0.797275304794,-0.697927474976,0.192796692252,-0.350317358971,0.594141721725
1555356667416905653,2833,1555356667416905653,world,-2.89455890656,-0.814467668533,0.797442674637,-0.697068452835,0.190940305591,-0.351523965597,0.595036387444
1555356667437527879,2834,1555356667437527879,world,-2.8945646286,-0.814465761185,0.797396421432,-0.696938753128,0.190852075815,-0.351546168327,0.595203459263
1555356667437568144,2835,1555356667437568144,world,-2.89380073547,-0.814321994781,0.796908378601,-0.699457585812,0.195872455835,-0.348511070013,0.592396199703
1555356667446947506,2836,1555356667446947506,world,-2.89352035522,-0.814249753952,0.796734333038,-0.700291216373,0.197413817048,-0.347236216068,0.591647803783
1555356667457335475,2837,1555356667457335475,world,-2.8935174942,-0.814267635345,0.796860933304,-0.700319647789,0.197348430753,-0.347311228514,0.591591954231
1555356667467731538,2838,1555356667467731538,world,-2.89423847198,-0.814431667328,0.79730463028,-0.69797205925,0.192705735564,-0.350747942924,0.59386497736
1555356667467768968,2839,1555356667467768968,world,-2.89448738098,-0.814453125,0.797430276871,-0.697068572044,0.190979912877,-0.351700007915,0.594919502735
1555356667477152822,2840,1555356667477152822,world,-2.89381122589,-0.814344406128,0.796945333481,-0.699320018291,0.19553476572,-0.348695129156,0.592561841011
1555356667487548180,2841,1555356667487548180,world,-2.89352703094,-0.814309597015,0.796749591827,-0.700114607811,0.197096958756,-0.347961366177,0.591536343098
1555356667487586043,2842,1555356667487586043,world,-2.89354419708,-0.81426858902,0.796836614609,-0.700099885464,0.197345793247,-0.34766933322,0.591642618179
1555356667507229634,2843,1555356667507229634,world,-2.89431858063,-0.814419269562,0.797325849533,-0.697795510292,0.192584037781,-0.350577533245,0.59421235323
1555356667507299038,2844,1555356667507299038,world,-2.89456558228,-0.814445972443,0.797513246536,-0.69706761837,0.190849676728,-0.351554781199,0.595048248768
1555356667517624996,2845,1555356667517624996,world,-2.89385509491,-0.81430888176,0.797083616257,-0.699155449867,0.195110112429,-0.348818600178,0.592823326588
1555356667526961653,2846,1555356667526961653,world,-2.89361476898,-0.814290761948,0.796817541122,-0.700059950352,0.196928828955,-0.347714960575,0.591801762581
1555356667537304219,2847,1555356667537304219,world,-2.89352035522,-0.814292192459,0.796762704849,-0.700170993805,0.197077259421,-0.347676903009,0.591643333435
1555356667547694962,2848,1555356667547694962,world,-2.89429092407,-0.814445257187,0.797209739685,-0.697804808617,0.192646041512,-0.350539028645,0.594203948975
1555356667547737746,2849,1555356667547737746,world,-2.89451980591,-0.814455747604,0.797423601151,-0.69708698988,0.190989390016,-0.351961195469,0.594740331173
1555356667557180417,2850,1555356667557180417,world,-2.89453315735,-0.814496994019,0.797417879105,-0.696940124035,0.191011726856,-0.352065384388,0.594843626022
1555356667567634846,2851,1555356667567634846,world,-2.89381122589,-0.8143055439,0.796979665756,-0.69948142767,0.195617824793,-0.348157137632,0.59266012907
1555356667577088016,2852,1555356667577088016,world,-2.89357471466,-0.814287424088,0.796796798706,-0.700190722942,0.197280347347,-0.347144573927,0.591865003109
1555356667587499062,2853,1555356667587499062,world,-2.8934803009,-0.814253091812,0.796848297119,-0.700338184834,0.197427287698,-0.347470670938,0.591449975967
1555356667587540661,2854,1555356667587540661,world,-2.89427471161,-0.81439948082,0.797281742096,-0.698002099991,0.192638978362,-0.350310444832,0.594109296799
1555356667596936207,2855,1555356667596936207,world,-2.89454078674,-0.814435720444,0.797417163849,-0.697159469128,0.191010445356,-0.351252138615,0.595067739487
1555356667617650957,2856,1555356667617650957,world,-2.89382362366,-0.814314126968,0.797029495239,-0.699229836464,0.195544630289,-0.348721206188,0.592649519444
1555356667617691890,2857,1555356667617691890,world,-2.89358901978,-0.814271450043,0.796846151352,-0.700039207935,0.196978881955,-0.347550541162,0.591906249523
1555356667627071045,2858,1555356667627071045,world,-2.89353752136,-0.814250469208,0.796863079071,-0.700126826763,0.19721531868,-0.34738907218,0.591818749905
1555356667637428179,2859,1555356667637428179,world,-2.89424705505,-0.814439058304,0.797206878662,-0.697820842266,0.192860081792,-0.350664585829,0.594041705132
1555356667646821386,2860,1555356667646821386,world,-2.89450454712,-0.814459323883,0.797392845154,-0.697018742561,0.190840065479,-0.351579099894,0.595094323158
1555356667657276303,2861,1555356667657276303,world,-2.89384841919,-0.814328432083,0.797132015228,-0.699149489403,0.19519226253,-0.349050939083,0.592666387558
1555356667657317024,2862,1555356667657317024,world,-2.89357852936,-0.814278841019,0.796947479248,-0.700029909611,0.196769759059,-0.347789824009,0.591846346855
1555356667667747221,2863,1555356667667747221,world,-2.89348697662,-0.81426692009,0.796806573868,-0.700137078762,0.197206407785,-0.34784257412,0.591543078423
1555356667677182293,2864,1555356667677182293,world,-2.89350605011,-0.814272642136,0.796813011169,-0.700071930885,0.196992367506,-0.347928613424,0.591640949249
1555356667687643323,2865,1555356667687643323,world,-2.89430236816,-0.814453840256,0.797272443771,-0.697670400143,0.192344903946,-0.350945562124,0.594219386578
1555356667687685396,2866,1555356667687685396,world,-2.89456558228,-0.81450510025,0.797433853149,-0.696910321712,0.190844893456,-0.351797521114,0.59509062767
1555356667707452772,2867,1555356667707452772,world,-2.8945646286,-0.814518690109,0.797391653061,-0.696879982948,0.190700680017,-0.352153450251,0.594961702824
1555356667707494004,2868,1555356667707494004,world,-2.89382266998,-0.814353704453,0.796966552734,-0.699309110641,0.19558377564,-0.348762989044,0.592518508434
1555356667716806546,2869,1555356667716806546,world,-2.89357566833,-0.814271211624,0.796802282333,-0.700127780437,0.197144895792,-0.347390532494,0.591840147972
1555356667727228485,2870,1555356667727228485,world,-2.89352035522,-0.814250230789,0.796871185303,-0.700270056725,0.197355002165,-0.347219318151,0.591702282429
1555356667737620935,2871,1555356667737620935,world,-2.89429092407,-0.814431667328,0.797294855118,-0.697831451893,0.192740261555,-0.35043540597,0.594203352928
1555356667747020236,2872,1555356667747020236,world,-2.89449214935,-0.814492464066,0.797416687012,-0.697065472603,0.191249921918,-0.351901561022,0.594717085361
1555356667747070661,2873,1555356667747070661,world,-2.89384269714,-0.8143491745,0.797036886215,-0.69925391674,0.195327073336,-0.348886787891,0.592595636845
1555356667766744850,2874,1555356667766744850,world,-2.89357757568,-0.814284324646,0.796832084656,-0.700027823448,0.196930989623,-0.347551077604,0.591935396194
1555356667766783574,2875,1555356667766783574,world,-2.89350986481,-0.814301490784,0.796781539917,-0.700084924698,0.197363168001,-0.347794920206,0.591580688953
1555356667777198746,2876,1555356667777198746,world,-2.89428043365,-0.814444541931,0.797264814377,-0.697711288929,0.1926471591,-0.350657850504,0.594243407249
1555356667787492704,2877,1555356667787492704,world,-2.89447116852,-0.814527988434,0.797416448593,-0.697008371353,0.19120529294,-0.352148383856,0.594652295113
1555356667796746030,2878,1555356667796746030,world,-2.8945274353,-0.814520835876,0.797418832779,-0.696971952915,0.191045194864,-0.351965427399,0.594854831696
1555356667807066478,2879,1555356667807066478,world,-2.89376544952,-0.814324617386,0.796974420547,-0.699430286884,0.195758372545,-0.348401337862,0.592530548573
1555356667807091975,2880,1555356667807091975,world,-2.89352703094,-0.814285993576,0.796812057495,-0.700251102448,0.197349920869,-0.347321629524,0.591666281223
1555356667817534492,2881,1555356667817534492,world,-2.89419269562,-0.814423322678,0.797190189362,-0.697993218899,0.193061649799,-0.350168675184,0.594066262245
1555356667826986077,2882,1555356667826986077,world,-2.89444732666,-0.81448841095,0.797392129898,-0.697210609913,0.191662400961,-0.351467758417,0.594670712948
1555356667837442522,2883,1555356667837442522,world,-2.89451026917,-0.814469575882,0.797417402267,-0.69710868597,0.191082447767,-0.351337969303,0.595053434372
1555356667846722116,2884,1555356667846722116,world,-2.89370536804,-0.814350128174,0.796988964081,-0.699506282806,0.195939943194,-0.348709344864,0.592199623585
1555356667846760066,2885,1555356667846760066,world,-2.8934841156,-0.814260721207,0.7968313694,-0.700279891491,0.197453483939,-0.347349643707,0.591581225395
1555356667857147166,2886,1555356667857147166,world,-2.89345836639,-0.814250230789,0.796792507172,-0.700546383858,0.197736829519,-0.347021669149,0.591363489628
1555356667867465910,2887,1555356667867465910,world,-2.89425086975,-0.814395189285,0.797225952148,-0.698019444942,0.192774683237,-0.349920123816,0.594274938107
1555356667876804510,2888,1555356667876804510,world,-2.89452552795,-0.814468860626,0.797375202179,-0.697168469429,0.19132617116,-0.351371079683,0.594885706902
1555356667887256206,2889,1555356667887256206,world,-2.89382648468,-0.814330339432,0.797045230865,-0.699285745621,0.195589497685,-0.348605632782,0.592636823654
1555356667897705517,2890,1555356667897705517,world,-2.89352703094,-0.814302682877,0.796810388565,-0.70007956028,0.197096854448,-0.347992032766,0.591559886932
1555356667907061024,2891,1555356667907061024,world,-2.89352798462,-0.814294815063,0.796791315079,-0.700175046921,0.197366431355,-0.347534328699,0.591625988483
1555356667907101645,2892,1555356667907101645,world,-2.89357089996,-0.814257860184,0.796932458878,-0.700138509274,0.196934789419,-0.347552776337,0.591802239418
1555356667917540976,2893,1555356667917540976,world,-2.8943157196,-0.814470291138,0.797294616699,-0.697762012482,0.19243247807,-0.350945591927,0.594083309174
1555356667926942680,2894,1555356667926942680,world,-2.89458370209,-0.81449842453,0.797449827194,-0.696844398975,0.190789073706,-0.351773142815,0.595200002193
1555356667937302688,2895,1555356667937302688,world,-2.89386558533,-0.81439781189,0.797038555145,-0.699032664299,0.195303440094,-0.349055707455,0.592764854431
1555356667947756467,2896,1555356667947756467,world,-2.89361095428,-0.814271688461,0.796865224838,-0.699951648712,0.196772366762,-0.347559481859,0.592073202133
1555356667947796807,2897,1555356667947796807,world,-2.8935251236,-0.814341306686,0.796818494797,-0.700034201145,0.197062090039,-0.347956568003,0.591645896435
1555356667957110361,2898,1555356667957110361,world,-2.8942899704,-0.814450263977,0.797290802002,-0.69760620594,0.192388281226,-0.350881278515,0.594318687916
1555356667967486975,2899,1555356667967486975,world,-2.89455890656,-0.814469337463,0.797419071198,-0.696971833706,0.190861180425,-0.351540267467,0.595165193081
1555356667976753892,2900,1555356667976753892,world,-2.89454650879,-0.814503908157,0.797352075577,-0.696920633316,0.191046267748,-0.351733535528,0.595051586628
1555356667987200506,2901,1555356667987200506,world,-2.89378452301,-0.814364910126,0.79695224762,-0.699344933033,0.195799723268,-0.348640948534,0.592476725578
1555356667997581213,2902,1555356667997581213,world,-2.89357089996,-0.814282417297,0.796849727631,-0.700189530849,0.197292029858,-0.347777217627,0.591490924358
1555356668007047001,2903,1555356668007047001,world,-2.89423084259,-0.814406394958,0.79719042778,-0.698093593121,0.193018242717,-0.350285857916,0.593893170357
1555356668007099011,2904,1555356668007099011,world,-2.8944568634,-0.814438343048,0.797381162643,-0.697226524353,0.19145680964,-0.351191490889,0.594881653786
1555356668017484494,2905,1555356668017484494,world,-2.89450073242,-0.814453125,0.797370672226,-0.69712293148,0.191286951303,-0.35137155652,0.594951272011
1555356668026767827,2906,1555356668026767827,world,-2.89372444153,-0.814285755157,0.796943902969,-0.699625372887,0.195999339223,-0.348015964031,0.592447042465
1555356668037212602,2907,1555356668037212602,world,-2.89348125458,-0.814305782318,0.796797275543,-0.700284183025,0.197588413954,-0.347167849541,0.591637790203
1555356668047666457,2908,1555356668047666457,world,-2.89416122437,-0.814424037933,0.797151088715,-0.697988033295,0.193365290761,-0.350268483162,0.593914687634
1555356668047708261,2909,1555356668047708261,world,-2.89442634583,-0.81446146965,0.797345638275,-0.697385370731,0.191614031792,-0.351085931063,0.594706892967
1555356668057050272,2910,1555356668057050272,world,-2.89446353912,-0.814486503601,0.797365427017,-0.697189450264,0.191408976912,-0.351397335529,0.594818890095
1555356668067398605,2911,1555356668067398605,world,-2.8943939209,-0.81450176239,0.79728102684,-0.697365641594,0.191708803177,-0.351576387882,0.594409704208
1555356668076680869,2912,1555356668076680869,world,-2.8936662674,-0.814313173294,0.796920061111,-0.699769616127,0.196498781443,-0.348087400198,0.592069149017
1555356668087350744,2913,1555356668087350744,world,-2.89345645905,-0.814258575439,0.796829223633,-0.700507760048,0.197861984372,-0.347046226263,0.591353058815
1555356668097742365,2914,1555356668097742365,world,-2.8941411972,-0.814405679703,0.797190904617,-0.69823628664,0.19349899888,-0.349879533052,0.593808591366
1555356668097786189,2915,1555356668097786189,world,-2.89442443848,-0.81441450119,0.797384262085,-0.697287082672,0.191607818007,-0.350823283195,0.594979047775
1555356668117490538,2916,1555356668117490538,world,-2.89376831055,-0.814305067062,0.797031402588,-0.699445962906,0.19586609304,-0.348379731178,0.592489302158
1555356668117542141,2917,1555356668117542141,world,-2.89351940155,-0.81428861618,0.796875,-0.700223922729,0.197249785066,-0.347448974848,0.591657221317
1555356668126984025,2918,1555356668126984025,world,-2.89349937439,-0.814314126968,0.796826601028,-0.700323224068,0.197544232011,-0.347603499889,0.591350674629
1555356668137441231,2919,1555356668137441231,world,-2.89427280426,-0.814404249191,0.79722571373,-0.697955012321,0.192573800683,-0.350343644619,0.594166278839
1555356668157143808,2920,1555356668157143808,world,-2.89448928833,-0.814460515976,0.79737496376,-0.697175502777,0.190917238593,-0.351642221212,0.594848513603
1555356668157183808,2921,1555356668157183808,world,-2.89381790161,-0.81435084343,0.797046422958,-0.69926738739,0.195462480187,-0.348809599876,0.592580258846
1555356668157238667,2922,1555356668157238667,world,-2.89360809326,-0.814319372177,0.796909570694,-0.699921905994,0.197033435106,-0.347935736179,0.591800570488
1555356668167629437,2923,1555356668167629437,world,-2.89357852936,-0.814291477203,0.796885490417,-0.700163245201,0.197158873081,-0.347567975521,0.59168946743
1555356668177025265,2924,1555356668177025265,world,-2.89354801178,-0.814304828644,0.796890735626,-0.700053989887,0.197033584118,-0.347907692194,0.591660737991
1555356668187431011,2925,1555356668187431011,world,-2.89432144165,-0.814435243607,0.797277450562,-0.697589159012,0.192272439599,-0.350859880447,0.594388723373
1555356668187469959,2926,1555356668187469959,world,-2.89387607574,-0.814330816269,0.797104597092,-0.699138343334,0.195136785507,-0.348950952291,0.592756569386
1555356668207059222,2927,1555356668207059222,world,-2.89369487762,-0.814317703247,0.796998023987,-0.699646532536,0.196328490973,-0.348211348057,0.592198193073
1555356668207109087,2928,1555356668207109087,world,-2.89363384247,-0.814298391342,0.796928405762,-0.69985896349,0.19658331573,-0.347964078188,0.592008054256
1555356668217494208,2929,1555356668217494208,world,-2.89365386963,-0.814314126968,0.796892166138,-0.69976913929,0.196627408266,-0.348099648952,0.592019796371
1555356668226828734,2930,1555356668226828734,world,-2.89436340332,-0.814461946487,0.797265291214,-0.697423279285,0.191995620728,-0.351090073586,0.594536960125
1555356668237278958,2931,1555356668237278958,world,-2.89457988739,-0.814551830292,0.79737329483,-0.696639657021,0.190920606256,-0.352129369974,0.595186829567
1555356668247731902,2932,1555356668247731902,world,-2.8946352005,-0.814476251602,0.797437906265,-0.696708500385,0.190086051822,-0.351722240448,0.595613956451
1555356668247776012,2933,1555356668247776012,world,-2.89385509491,-0.814330816269,0.797044992447,-0.699143350124,0.195282399654,-0.34878346324,0.592801392078
1555356668267642539,2934,1555356668267642539,world,-2.89355659485,-0.814293384552,0.796829223633,-0.70010894537,0.197083339095,-0.347728013992,0.591684699059
1555356668267683441,2935,1555356668267683441,world,-2.89349842072,-0.814251184464,0.796848535538,-0.700384795666,0.197445139289,-0.347375750542,0.591444611549
1555356668277101200,2936,1555356668277101200,world,-2.89424133301,-0.814443349838,0.797220230103,-0.697928667068,0.192985877395,-0.350741028786,0.593828976154
1555356668287557084,2937,1555356668287557084,world,-2.89449119568,-0.814485788345,0.79735660553,-0.697051823139,0.191158667207,-0.351436287165,0.595037639141
1555356668287598889,2938,1555356668287598889,world,-2.89384174347,-0.814341306686,0.797034502029,-0.699111402035,0.195412695408,-0.348739951849,0.592821717262
1555356668307276674,2939,1555356668307276674,world,-2.89359951019,-0.814262390137,0.796902418137,-0.700057148933,0.196941241622,-0.347619026899,0.591857433319
1555356668317669858,2940,1555356668317669858,world,-2.89355278015,-0.814288139343,0.79686331749,-0.700150132179,0.19722443819,-0.347507536411,0.591718554497
1555356668317714753,2941,1555356668317714753,world,-2.89427089691,-0.814431428909,0.797236680984,-0.697876393795,0.192502886057,-0.350785464048,0.594020903111
1555356668327083215,2942,1555356668327083215,world,-2.89451789856,-0.814494848251,0.797370433807,-0.697072505951,0.191098958254,-0.35208389163,0.59464943409
1555356668337425832,2943,1555356668337425832,world,-2.89384746552,-0.814338207245,0.797076463699,-0.699223637581,0.195405706763,-0.34896761179,0.592557668686
1555356668346704722,2944,1555356668346704722,world,-2.89361858368,-0.814319372177,0.796902656555,-0.699991643429,0.196846112609,-0.347634643316,0.591957271099
1555356668357056112,2945,1555356668357056112,world,-2.89355182648,-0.81428194046,0.796864271164,-0.700129985809,0.197196170688,-0.34742847085,0.591798305511
1555356668357104642,2946,1555356668357104642,world,-2.89427661896,-0.814471721649,0.797223329544,-0.69777983427,0.192713528872,-0.350671857595,0.594132959843
1555356668367533979,2947,1555356668367533979,world,-2.89452838898,-0.814469814301,0.797370433807,-0.697026193142,0.19094158709,-0.351325720549,0.595202624798
1555356668376928039,2948,1555356668376928039,world,-2.89383792877,-0.814349651337,0.797082901001,-0.699210882187,0.195292547345,-0.3488727808,0.592665851116
1555356668387323126,2949,1555356668387323126,world,-2.89358997345,-0.814298868179,0.796926259995,-0.699967384338,0.196839600801,-0.347988963127,0.591779947281
1555356668387376523,2950,1555356668387376523,world,-2.89356613159,-0.814260005951,0.79688668251,-0.700192451477,0.197135195136,-0.347701579332,0.591584205627
1555356668397749800,2951,1555356668397749800,world,-2.89428138733,-0.814453363419,0.797189950943,-0.697754204273,0.192914292216,-0.350717455149,0.594071090221
1555356668417315500,2952,1555356668417315500,world,-2.89455509186,-0.814453363419,0.797368049622,-0.696979343891,0.190973907709,-0.351395845413,0.595205545425
1555356668417360560,2953,1555356668417360560,world,-2.89387702942,-0.814325332642,0.797098875046,-0.699106633663,0.195270419121,-0.348975509405,0.592735648155
