%time,field.header.seq,field.header.stamp,field.header.frame_id,field.pose.position.x,field.pose.position.y,field.pose.position.z,field.pose.orientation.x,field.pose.orientation.y,field.pose.orientation.z,field.pose.orientation.w
1555359781237644556,24691,1555359781237644556,world,-2.90788841248,-0.818380117416,0.797301054001,0.720024526119,-0.0841989889741,0.25602388382,-0.639474093914
1555359781257305135,24692,1555359781257305135,world,-2.90813732147,-0.818127393723,0.797254085541,0.720020890236,-0.0814717337489,0.251167595387,-0.641753137112
1555359781257346877,24693,1555359781257346877,world,-2.90822410583,-0.818069458008,0.797368049622,0.720176160336,-0.0802922695875,0.249424099922,-0.642407298088
1555359781257398533,24694,1555359781257398533,world,-2.9078874588,-0.818444252014,0.797407150269,0.720266222954,-0.0839128419757,0.255149006844,-0.639589011669
1555359781267631636,24695,1555359781267631636,world,-2.90812969208,-0.818154096603,0.79734992981,0.720098793507,-0.0813902691007,0.25108987093,-0.641706526279
1555359781287369523,24696,1555359781287369523,world,-2.90787124634,-0.81843829155,0.797302484512,0.719954609871,-0.0842635035515,0.255999863148,-0.639553844929
1555359781287417230,24697,1555359781287417230,world,-2.90813922882,-0.818126440048,0.797268629074,0.719971239567,-0.0814091637731,0.251319110394,-0.641757547855
1555359781307045869,24698,1555359781307045869,world,-2.90787792206,-0.818427085876,0.797360658646,0.720149040222,-0.0842927545309,0.255726248026,-0.639440536499
1555359781307124938,24699,1555359781307124938,world,-2.9081325531,-0.818141937256,0.797418117523,0.720239341259,-0.0814087688923,0.251199454069,-0.641503572464
1555359781317476600,24700,1555359781317476600,world,-2.90789413452,-0.818401098251,0.797384738922,0.720303475857,-0.0842016115785,0.255675077438,-0.639299035072
1555359781337166891,24701,1555359781337166891,world,-2.90814113617,-0.818082094193,0.797267198563,0.720077633858,-0.0813480839133,0.250882685184,-0.641816556454
1555359781337208629,24702,1555359781337208629,world,-2.9078950882,-0.818394422531,0.797270298004,0.719987034798,-0.0841967090964,0.255857169628,-0.639583289623
1555359781347463160,24703,1555359781347463160,world,-2.90813446045,-0.818111896515,0.797318220139,0.720128178596,-0.0815331861377,0.251331835985,-0.641560733318
1555359781347499525,24704,1555359781347499525,world,-2.9079208374,-0.81839632988,0.797405958176,0.720328211784,-0.0841559767723,0.255506455898,-0.639344513416
1555359781356858294,24705,1555359781356858294,world,-2.90814113617,-0.818112134933,0.797401189804,0.720197021961,-0.0813982412219,0.250835418701,-0.64169472456
1555359781367139079,24706,1555359781367139079,world,-2.90790557861,-0.818383932114,0.797342538834,0.720140755177,-0.08419264853,0.255616754293,-0.639506757259
1555359781367178259,24707,1555359781367178259,world,-2.90813922882,-0.818135738373,0.79723405838,0.720002174377,-0.081659629941,0.251580476761,-0.641588568687
1555359781377443630,24708,1555359781377443630,world,-2.90789794922,-0.818419933319,0.797290802002,0.720066130161,-0.0841654092073,0.255738526583,-0.639545917511
1555359781386724253,24709,1555359781386724253,world,-2.90815544128,-0.818145751953,0.797369241714,0.720132470131,-0.0813121795654,0.251019269228,-0.641706287861
1555359781397116832,24710,1555359781397116832,world,-2.90791702271,-0.818419933319,0.797421455383,0.720187425613,-0.0840172544122,0.255573302507,-0.639494776726
1555359781407524435,24711,1555359781407524435,world,-2.90815544128,-0.818139791489,0.797377824783,0.720126330853,-0.0814203619957,0.251079678535,-0.641675770283
1555359781407565918,24712,1555359781407565918,world,-2.90787982941,-0.818415880203,0.797286748886,0.719965815544,-0.0842050015926,0.25577428937,-0.63963919878
1555359781416966375,24713,1555359781416966375,world,-2.90813064575,-0.818148374557,0.797235250473,0.719978511333,-0.0815019607544,0.251385182142,-0.641711711884
1555359781427366606,24714,1555359781427366606,world,-2.90788650513,-0.818411827087,0.79732966423,0.72016620636,-0.084171898663,0.255496442318,-0.639529109001
1555359781437758654,24715,1555359781437758654,world,-2.90828132629,-0.81814789772,0.79744553566,0.720615744591,-0.0818743109703,0.24982470274,-0.641558468342
1555359781457483887,24716,1555359781457483887,world,-2.90792655945,-0.818414926529,0.797406435013,0.720391213894,-0.0843361243606,0.255098074675,-0.639413058758
1555359781457531818,24717,1555359781457531818,world,-2.90811824799,-0.818114042282,0.797303438187,0.720076322556,-0.0813992768526,0.250879317522,-0.64181292057
1555359781466772737,24718,1555359781466772737,world,-2.90787315369,-0.818371772766,0.797283411026,0.719990253448,-0.0841089263558,0.255896031857,-0.639575600624
1555359781477172121,24719,1555359781477172121,world,-2.90812492371,-0.81805062294,0.797305583954,0.720003128052,-0.0810517817736,0.250927716494,-0.641920208931
1555359781477209127,24720,1555359781477209127,world,-2.90788459778,-0.818374633789,0.797404527664,0.720194518566,-0.0840595364571,0.255473822355,-0.63952088356
1555359781487619557,24721,1555359781487619557,world,-2.90829181671,-0.818114519119,0.797468185425,0.720625698566,-0.0818135663867,0.249814063311,-0.641559123993
1555359781496977051,24722,1555359781496977051,world,-2.9079246521,-0.818405866623,0.79735994339,0.720315694809,-0.0843240618706,0.255329757929,-0.639407157898
1555359781507373464,24723,1555359781507373464,world,-2.90811443329,-0.818126678467,0.797233343124,0.720146179199,-0.0816849023104,0.251706123352,-0.641374468803
1555359781507416381,24724,1555359781507416381,world,-2.90787220001,-0.818375825882,0.79727602005,0.720029711723,-0.0842932835221,0.256147921085,-0.639406144619
1555359781517807128,24725,1555359781517807128,world,-2.9081363678,-0.818122386932,0.797334194183,0.720098733902,-0.0814792066813,0.251281410456,-0.641620278358
1555359781527158676,24726,1555359781527158676,world,-2.90789222717,-0.818411827087,0.797407150269,0.720229208469,-0.0841259509325,0.255757451057,-0.639359712601
1555359781546912416,24727,1555359781546912416,world,-2.90811538696,-0.818134784698,0.797361135483,0.720128059387,-0.0815465897322,0.251288414001,-0.641576170921
1555359781546982578,24728,1555359781546982578,world,-2.90788841248,-0.81840133667,0.79732465744,0.720129907131,-0.0841400027275,0.255669593811,-0.63950496912
1555359781557367521,24729,1555359781557367521,world,-2.90812301636,-0.818145036697,0.797287464142,0.720040440559,-0.0815824493766,0.251342833042,-0.641648709774
1555359781557418210,24730,1555359781557418210,world,-2.90789413452,-0.81841301918,0.797342300415,0.720045089722,-0.0841498747468,0.255827873945,-0.639535784721
1555359781566695658,24731,1555359781566695658,world,-2.90812969208,-0.81815290451,0.797383785248,0.720125496387,-0.0814577564597,0.251144856215,-0.641646564007
1555359781576960853,24732,1555359781576960853,world,-2.90787506104,-0.818422555923,0.79740858078,0.720240533352,-0.0841346085072,0.255267620087,-0.639541685581
1555359781587256567,24733,1555359781587256567,world,-2.90810394287,-0.818163156509,0.797357082367,0.720227956772,-0.0814783126116,0.250813692808,-0.641658425331
1555359781597624044,24734,1555359781597624044,world,-2.90786552429,-0.818404436111,0.797327756882,0.720080554485,-0.0841978490353,0.255672305822,-0.639551639557
1555359781607006484,24735,1555359781607006484,world,-2.90808486938,-0.818141698837,0.797256708145,0.720004916191,-0.0815916582942,0.251280248165,-0.641711652279
1555359781617333646,24736,1555359781617333646,world,-2.90783786774,-0.818424940109,0.797334671021,0.720104634762,-0.0841459035873,0.255566090345,-0.639573812485
1555359781617394121,24737,1555359781617394121,world,-2.90814876556,-0.81810092926,0.797426700592,0.72015106678,-0.0811779871583,0.250777393579,-0.641796886921
1555359781627634801,24738,1555359781627634801,world,-2.90789031982,-0.818390607834,0.797415733337,0.72020560503,-0.0840677395463,0.255313247442,-0.639571547508
1555359781636953807,24739,1555359781636953807,world,-2.90811824799,-0.818164110184,0.797279596329,0.720085442066,-0.0816371962428,0.251412957907,-0.641563594341
1555359781647256772,24740,1555359781647256772,world,-2.90786170959,-0.818412780762,0.797273397446,0.72003108263,-0.0844296067953,0.255850702524,-0.639505624771
1555359781657634288,24741,1555359781657634288,world,-2.90814399719,-0.818091630936,0.797288179398,0.720134615898,-0.0813614651561,0.251072585583,-0.641676843166
1555359781657676108,24742,1555359781657676108,world,-2.90789699554,-0.818426847458,0.79737663269,0.720201969147,-0.0841751173139,0.255396276712,-0.639528393745
1555359781667143756,24743,1555359781667143756,world,-2.90812683105,-0.818136930466,0.797397613525,0.720230162144,-0.0813702568412,0.250776171684,-0.641684234142
1555359781687758893,24744,1555359781687758893,world,-2.90790557861,-0.818407297134,0.797357797623,0.720213472843,-0.0841095224023,0.255343049765,-0.639545321465
1555359781687798627,24745,1555359781687798627,world,-2.9081287384,-0.818150997162,0.797280311584,0.719955146313,-0.0813409984112,0.250829219818,-0.641975939274
1555359781697196223,24746,1555359781697196223,world,-2.90789890289,-0.81841635704,0.797292232513,0.720023751259,-0.0841571614146,0.255662113428,-0.639625012875
1555359781707632727,24747,1555359781707632727,world,-2.90816020966,-0.818109512329,0.797358989716,0.720143020153,-0.0810592472553,0.250665068626,-0.641864836216
1555359781727365853,24748,1555359781727365853,world,-2.90787792206,-0.818422555923,0.797402858734,0.720287799835,-0.0841030851007,0.255197525024,-0.639520525932
1555359781737648194,24749,1555359781737648194,world,-2.90811252594,-0.818146705627,0.797386646271,0.720224440098,-0.0812872573733,0.250988960266,-0.641617953777
1555359781737681760,24750,1555359781737681760,world,-2.90786266327,-0.81840133667,0.797335863113,0.720161676407,-0.084224678576,0.255604088306,-0.63948404789
1555359781737731808,24751,1555359781737731808,world,-2.90812301636,-0.818108797073,0.797256708145,0.720062732697,-0.0816734284163,0.251395821571,-0.641591191292
1555359781747086204,24752,1555359781747086204,world,-2.9078874588,-0.818411111832,0.797315120697,0.720088303089,-0.0842179208994,0.255606889725,-0.639566659927
1555359781757333066,24753,1555359781757333066,world,-2.90808486938,-0.81812787056,0.797370672226,0.720123708248,-0.0813979804516,0.250868439674,-0.641764223576
1555359781757362867,24754,1555359781757362867,world,-2.90787220001,-0.818400621414,0.797387599945,0.720224738121,-0.0841964110732,0.255579411983,-0.639426648617
1555359781767659343,24755,1555359781767659343,world,-2.90811824799,-0.818116664886,0.797372341156,0.72018802166,-0.0812462195754,0.250949203968,-0.641679704189
1555359781787395022,24756,1555359781787395022,world,-2.9078540802,-0.818398237228,0.797325849533,0.720148980618,-0.0841764211655,0.255608648062,-0.639503002167
1555359781787434467,24757,1555359781787434467,world,-2.9080953598,-0.818172693253,0.797267913818,0.720064759254,-0.0817502960563,0.251518040895,-0.641531169415
1555359781796641098,24758,1555359781796641098,world,-2.90787982941,-0.818409919739,0.797375202179,0.720158755779,-0.0842475369573,0.255675435066,-0.639455914497
1555359781807026025,24759,1555359781807026025,world,-2.90811634064,-0.818166255951,0.797397136688,0.720247507095,-0.0816611498594,0.251259714365,-0.641438603401
1555359781817354195,24760,1555359781817354195,world,-2.90786266327,-0.818441867828,0.797418355942,0.720329046249,-0.0842362120748,0.255390495062,-0.639379382133
1555359781817392007,24761,1555359781817392007,world,-2.9081029892,-0.818158864975,0.797320127487,0.720185101032,-0.0817041918635,0.251375049353,-0.641457974911
1555359781827748396,24762,1555359781827748396,world,-2.90787887573,-0.818366527557,0.797265052795,0.720028460026,-0.0843494981527,0.255951315165,-0.63947892189
1555359781837070940,24763,1555359781837070940,world,-2.90811729431,-0.818099975586,0.797252655029,0.719922065735,-0.0814116448164,0.250986844301,-0.641942381859
1555359781847357588,24764,1555359781847357588,world,-2.90791130066,-0.818376541138,0.797371387482,0.720232307911,-0.08410487324,0.255353301764,-0.639520525932
1555359781857663739,24765,1555359781857663739,world,-2.90829944611,-0.818109273911,0.797454595566,0.720576286316,-0.0819858461618,0.249780505896,-0.641605734825
1555359781867003623,24766,1555359781867003623,world,-2.90794467926,-0.818382024765,0.797343492508,0.720328271389,-0.084380351007,0.255362212658,-0.639372766018
1555359781877278890,24767,1555359781877278890,world,-2.9081401825,-0.818069458008,0.797235488892,0.720052361488,-0.0815547630191,0.251686364412,-0.641503989697
1555359781887576242,24768,1555359781887576242,world,-2.90789031982,-0.818337440491,0.797263145447,0.720058560371,-0.0839836299419,0.255908310413,-0.639510214329
1555359781887650068,24769,1555359781887650068,world,-2.90811252594,-0.818120241165,0.797336339951,0.720089256763,-0.0813863798976,0.251462072134,-0.641571938992
1555359781897027522,24770,1555359781897027522,world,-2.90790081024,-0.818393707275,0.79743885994,0.720235228539,-0.0841626524925,0.255619674921,-0.639403164387
1555359781907431306,24771,1555359781907431306,world,-2.90814876556,-0.818073511124,0.79736828804,0.720096409321,-0.0811026617885,0.250893801451,-0.6418222785
1555359781916687386,24772,1555359781916687386,world,-2.90788078308,-0.818388938904,0.797300815582,0.719898223877,-0.0839509963989,0.255681306124,-0.639785766602
1555359781927017099,24773,1555359781927017099,world,-2.90811634064,-0.818085670471,0.7972843647,0.71990776062,-0.0811285227537,0.250903904438,-0.642026782036
1555359781937409999,24774,1555359781937409999,world,-2.90789413452,-0.818395853043,0.797345638275,0.720076918602,-0.0840815529227,0.25559130311,-0.639603555202
1555359781956968930,24775,1555359781956968930,world,-2.90812587738,-0.818148374557,0.797407150269,0.720168352127,-0.0815149396658,0.25122025609,-0.641561627388
1555359781957044572,24777,1555359781957044572,world,-2.90812778473,-0.818115234375,0.797336101532,0.720156431198,-0.0814733654261,0.251160174608,-0.641603827477
1555359781967416938,24778,1555359781967416938,world,-2.90786552429,-0.818382740021,0.797291755676,0.720074951649,-0.0842517763376,0.255692690611,-0.639542758465
1555359781976679031,24779,1555359781976679031,world,-2.90810966492,-0.818089723587,0.797261238098,0.720095872879,-0.0816818028688,0.25136628747,-0.641564488411
1555359781997407933,24780,1555359781997407933,world,-2.90787887573,-0.818352460861,0.797341585159,0.720201611519,-0.0842580199242,0.255541235209,-0.639459908009
1555359781997469332,24782,1555359781997469332,world,-2.90791988373,-0.818372249603,0.797397375107,0.720321536064,-0.0844239741564,0.255319178104,-0.639391601086
1555359782006729440,24783,1555359782006729440,world,-2.90812683105,-0.818077325821,0.797301530838,0.720123767853,-0.0814439505339,0.251132875681,-0.641654849052
1555359782017048279,24784,1555359782017048279,world,-2.90788078308,-0.818348407745,0.79728102684,0.719980299473,-0.0839632377028,0.25581356883,-0.639638841152
1555359782027431564,24785,1555359782027431564,world,-2.90812110901,-0.818115949631,0.797303915024,0.720002353191,-0.0812714993954,0.251327395439,-0.641736805439
1555359782036696421,24786,1555359782036696421,world,-2.9078950882,-0.818434476852,0.797408103943,0.720167338848,-0.084006279707,0.255413293839,-0.639582693577
1555359782047085248,24787,1555359782047085248,world,-2.9081287384,-0.818150997162,0.797427415848,0.720167756081,-0.0810671523213,0.250679761171,-0.641830265522
1555359782047131900,24788,1555359782047131900,world,-2.90789222717,-0.818454265594,0.797398805618,0.720090985298,-0.0841409489512,0.25559809804,-0.63957709074
1555359782057558340,24789,1555359782057558340,world,-2.90814495087,-0.818148851395,0.797273874283,0.719942331314,-0.0811427384615,0.251195341349,-0.641872048378
1555359782066893845,24790,1555359782066893845,world,-2.9078950882,-0.818410873413,0.79727268219,0.720073163509,-0.0840871930122,0.255534738302,-0.639629602432
1555359782066932980,24791,1555359782066932980,world,-2.90812587738,-0.818119764328,0.797340631485,0.720052957535,-0.0812736898661,0.250737011433,-0.641910672188
1555359782077303838,24792,1555359782077303838,world,-2.90790557861,-0.81839132309,0.797419786453,0.720337629318,-0.0841304138303,0.255210518837,-0.63945543766
1555359782086770810,24793,1555359782086770810,world,-2.90812587738,-0.818071365356,0.797385692596,0.720176279545,-0.0811460837722,0.250822782516,-0.64175504446
1555359782097098181,24794,1555359782097098181,world,-2.90786647797,-0.81834769249,0.797280311584,0.720019161701,-0.0842026919127,0.255730271339,-0.639597177505
1555359782107409951,24795,1555359782107409951,world,-2.90812683105,-0.818021297455,0.797223329544,0.719924330711,-0.081363402307,0.251112401485,-0.641896903515
1555359782116666759,24796,1555359782116666759,world,-2.90787410736,-0.818326234818,0.797314167023,0.720142483711,-0.0841916799545,0.255598574877,-0.639512360096
1555359782116702693,24797,1555359782116702693,world,-2.90807628632,-0.818128347397,0.79736495018,0.720214486122,-0.0818014368415,0.251365721226,-0.641416251659
1555359782127007547,24798,1555359782127007547,world,-2.90784358978,-0.818389177322,0.797419309616,0.720302820206,-0.0842691808939,0.255578935146,-0.639329433441
1555359782137347502,24799,1555359782137347502,world,-2.90813064575,-0.818159580231,0.797354221344,0.720198094845,-0.0817112922668,0.251197338104,-0.641512215137
1555359782147695675,24800,1555359782147695675,world,-2.90788459778,-0.818408966064,0.79730629921,0.720091581345,-0.0842962637544,0.255914062262,-0.639429688454
1555359782157145232,24801,1555359782157145232,world,-2.90811824799,-0.818147182465,0.797277212143,0.720129191875,-0.0818043649197,0.251616895199,-0.641413211823
1555359782167548716,24802,1555359782167548716,world,-2.90788650513,-0.818423748016,0.797344207764,0.720174670219,-0.0842915475368,0.255795031786,-0.639384329319
1555359782167586819,24803,1555359782167586819,world,-2.9081401825,-0.818145513535,0.797413110733,0.720118761063,-0.0812994986773,0.250768452883,-0.641821265221
1555359782177030300,24804,1555359782177030300,world,-2.90790748596,-0.818418979645,0.79742193222,0.720215320587,-0.0841165781021,0.255328565836,-0.639548063278
1555359782187437629,24805,1555359782187437629,world,-2.90814304352,-0.818138599396,0.797317743301,0.720031261444,-0.081451818347,0.251070082188,-0.641782164574
1555359782196714662,24806,1555359782196714662,world,-2.90787601471,-0.818388700485,0.79728269577,0.719992697239,-0.0843301266432,0.255790323019,-0.639585912228
1555359782207162464,24807,1555359782207162464,world,-2.90812969208,-0.818081617355,0.797292470932,0.720082879066,-0.0814131423831,0.251073151827,-0.641728103161
1555359782207208424,24808,1555359782207208424,world,-2.90786266327,-0.818359136581,0.797362565994,0.7201821208,-0.0843168795109,0.255425870419,-0.639520168304
1555359782217629172,24809,1555359782217629172,world,-2.90810489655,-0.818088769913,0.797409772873,0.720203638077,-0.0814927667379,0.250878959894,-0.641658425331
1555359782227030794,24810,1555359782227030794,world,-2.90785694122,-0.818368196487,0.797385215759,0.720146596432,-0.0842357575893,0.255563229322,-0.63951587677
1555359782237369653,24811,1555359782237369653,world,-2.90807723999,-0.818116903305,0.797267198563,0.720016717911,-0.0817378312349,0.251347452402,-0.64165365696
1555359782247714687,24812,1555359782247714687,world,-2.90782737732,-0.818392515182,0.79730629921,0.720051586628,-0.0841635614634,0.255743384361,-0.639560461044
1555359782257174110,24813,1555359782257174110,world,-2.90808391571,-0.818115234375,0.797322511673,0.720097720623,-0.0814119577408,0.251072615385,-0.641711711884
1555359782267620374,24814,1555359782267620374,world,-2.9078502655,-0.818377971649,0.797395944595,0.720257222652,-0.0840782523155,0.255216777325,-0.639550447464
1555359782277073321,24815,1555359782277073321,world,-2.90811634064,-0.818123579025,0.797368526459,0.720125198364,-0.0812719017267,0.250879347324,-0.641774296761
1555359782277115110,24816,1555359782277115110,world,-2.90785598755,-0.818421602249,0.797343015671,0.720154523849,-0.0842344835401,0.255715370178,-0.639446377754
1555359782287555547,24817,1555359782287555547,world,-2.90815925598,-0.818095684052,0.797329425812,0.720131993294,-0.0812063440681,0.251014173031,-0.641722142696
1555359782296964394,24818,1555359782296964394,world,-2.9078836441,-0.818400621414,0.797319173813,0.720063567162,-0.0841534361243,0.255677849054,-0.639574468136
1555359782307402915,24819,1555359782307402915,world,-2.90812110901,-0.818164587021,0.79732966423,0.720065772533,-0.0814709663391,0.251259624958,-0.641666889191
1555359782317787575,24820,1555359782317787575,world,-2.90786838531,-0.818428039551,0.797375440598,0.720182061195,-0.0843312144279,0.255565553904,-0.639462530613
1555359782317837385,24821,1555359782317837385,world,-2.90814113617,-0.818147659302,0.797377824783,0.720164954662,-0.0815841853619,0.251002430916,-0.641641914845
1555359782327099402,24822,1555359782327099402,world,-2.90785598755,-0.818396806717,0.797347307205,0.720139741898,-0.0842388346791,0.255693107843,-0.639471411705
1555359782337498358,24823,1555359782337498358,world,-2.90811824799,-0.81814789772,0.797270059586,0.720009744167,-0.0814751088619,0.25114223361,-0.641775131226
1555359782346786078,24824,1555359782346786078,world,-2.90787410736,-0.818401575089,0.797333478928,0.720111787319,-0.0842022895813,0.255652248859,-0.639523983002
1555359782357248489,24825,1555359782357248489,world,-2.90813827515,-0.818161964417,0.797380208969,0.720151126385,-0.0814123153687,0.25095102191,-0.641699314117
1555359782357289075,24826,1555359782357289075,world,-2.90787410736,-0.818458795547,0.797399044037,0.720194756985,-0.0842543840408,0.255382627249,-0.639531373978
1555359782367764765,24827,1555359782367764765,world,-2.9081363678,-0.818138837814,0.797337770462,0.720084488392,-0.081349812448,0.251005500555,-0.641760766506
1555359782377224083,24828,1555359782377224083,world,-2.90790653229,-0.81843829155,0.797285556793,0.719959139824,-0.0841571614146,0.255681574345,-0.639690101147
1555359782387671702,24829,1555359782387671702,world,-2.90811538696,-0.818176269531,0.797303438187,0.719988048077,-0.0816955268383,0.251246899366,-0.641730546951
1555359782397078182,24830,1555359782397078182,world,-2.90792179108,-0.818444252014,0.797411203384,0.720275223255,-0.0843077152967,0.255538791418,-0.639371335506
1555359782407417365,24831,1555359782407417365,world,-2.90819740295,-0.818102836609,0.797419786453,0.720335960388,-0.0810853093863,0.250526845455,-0.64169895649
1555359782416741709,24832,1555359782416741709,world,-2.90793514252,-0.818404436111,0.797369718552,0.720248758793,-0.084098495543,0.255304515362,-0.639522373676
1555359782416781845,24833,1555359782416781845,world,-2.90814208984,-0.818131923676,0.797257423401,0.719918727875,-0.0812776535749,0.251088798046,-0.641923308372
1555359782427172914,24834,1555359782427172914,world,-2.90792274475,-0.818408727646,0.797274827957,0.72006893158,-0.0840399041772,0.255616128445,-0.639608025551
1555359782437570714,24835,1555359782437570714,world,-2.908162117,-0.81812787056,0.797362804413,0.720067560673,-0.0811071619391,0.250773072243,-0.641901195049
1555359782446926264,24836,1555359782446926264,world,-2.90792369843,-0.818427085876,0.797441720963,0.720287561417,-0.0841684415936,0.255395442247,-0.639433026314
1555359782457377178,24837,1555359782457377178,world,-2.90813827515,-0.818144798279,0.797379255295,0.720132112503,-0.0814166814089,0.250915139914,-0.641734242439
1555359782467725597,24838,1555359782467725597,world,-2.90783119202,-0.818420886993,0.797308921814,0.720019757748,-0.0844182744622,0.256031155586,-0.639447569847
1555359782467778029,24839,1555359782467778029,world,-2.90811443329,-0.818121671677,0.797264814377,0.720040440559,-0.0814711973071,0.251234203577,-0.641705214977
1555359782477088288,24840,1555359782477088288,world,-2.90784835815,-0.818419694901,0.797361135483,0.720099329948,-0.0843861997128,0.255701124668,-0.639494240284
1555359782487433424,24841,1555359782487433424,world,-2.90812015533,-0.818120479584,0.797420740128,0.720074653625,-0.0812994390726,0.250693142414,-0.64190018177
1555359782496711963,24842,1555359782496711963,world,-2.9078578949,-0.818409919739,0.797431945801,0.720125436783,-0.0841571763158,0.255495429039,-0.639577269554
1555359782507115232,24843,1555359782507115232,world,-2.90809631348,-0.818146705627,0.797312498093,0.720095336437,-0.0815018415451,0.251035809517,-0.641717493534
1555359782517577842,24844,1555359782517577842,world,-2.90787410736,-0.818428754807,0.797305107117,0.720053792,-0.0842438340187,0.255777776241,-0.63953357935
1555359782517619833,24845,1555359782517619833,world,-2.90813159943,-0.818169116974,0.797304153442,0.720048546791,-0.0814803466201,0.25113016367,-0.641735732555
1555359782527059668,24846,1555359782527059668,world,-2.90789031982,-0.818454265594,0.79737496376,0.720115721226,-0.0841975957155,0.255654782057,-0.639519155025
1555359782537487467,24847,1555359782537487467,world,-2.90813446045,-0.818193674088,0.797364473343,0.720144212246,-0.0815140604973,0.251173138618,-0.641607344151
1555359782546791941,24848,1555359782546791941,world,-2.90791034698,-0.818440437317,0.79736495018,0.720179080963,-0.0841787233949,0.255568087101,-0.639485001564
1555359782567566025,24849,1555359782567566025,world,-2.90811538696,-0.818202972412,0.797305583954,0.720091342926,-0.0817961841822,0.251489311457,-0.641506791115
1555359782567631107,24851,1555359782567631107,world,-2.90818023682,-0.818153381348,0.797292470932,0.720146894455,-0.0815203040838,0.251177817583,-0.641601681709
1555359782576958261,24852,1555359782576958261,world,-2.90790748596,-0.818406581879,0.797374248505,0.720138013363,-0.0840562283993,0.255601286888,-0.639534056187
1555359782587290852,24853,1555359782587290852,world,-2.90815448761,-0.818153619766,0.797367811203,0.720175862312,-0.0813683569431,0.250799328089,-0.641736328602
1555359782606963244,24854,1555359782606963244,world,-2.90791034698,-0.818414449692,0.797372341156,0.72015106678,-0.0841275379062,0.255430847406,-0.639578044415
1555359782607006826,24855,1555359782607006826,world,-2.90813922882,-0.818091154099,0.797322750092,0.720036327839,-0.0812700912356,0.250966757536,-0.641839921474
1555359782617453714,24856,1555359782617453714,world,-2.90790653229,-0.818372964859,0.797329902649,0.720083355904,-0.0842165574431,0.255746394396,-0.639516532421
1555359782617507208,24857,1555359782617507208,world,-2.90813350677,-0.81807923317,0.797342061996,0.720039129257,-0.0810637921095,0.250667959452,-0.641979813576
1555359782626827883,24858,1555359782626827883,world,-2.90788555145,-0.818420171738,0.797372579575,0.72012680769,-0.0841610059142,0.255439847708,-0.639597356319
1555359782637159173,24859,1555359782637159173,world,-2.90812492371,-0.818136692047,0.797385215759,0.720141410828,-0.0814926177263,0.250902205706,-0.64171898365
1555359782647488601,24860,1555359782647488601,world,-2.90789318085,-0.818411111832,0.797357082367,0.720216333866,-0.0841630846262,0.255597561598,-0.639433324337
1555359782656752579,24861,1555359782656752579,world,-2.90810871124,-0.818157434464,0.797277450562,0.720112979412,-0.0814968943596,0.251290053129,-0.641598701477
1555359782667093303,24862,1555359782667093303,world,-2.90784835815,-0.818427085876,0.797328710556,0.720093727112,-0.0841259732842,0.25570115447,-0.639534831047
1555359782667134096,24863,1555359782667134096,world,-2.90811920166,-0.818165779114,0.797369480133,0.720091879368,-0.0814150199294,0.250825285912,-0.641814649105
1555359782686747092,24864,1555359782686747092,world,-2.9078874588,-0.818425893784,0.797409772873,0.720243096352,-0.0842446610332,0.255490958691,-0.639434993267
1555359782686788864,24865,1555359782686788864,world,-2.90813064575,-0.818130016327,0.797340154648,0.720125794411,-0.0813700780272,0.250905811787,-0.641750752926
1555359782697095521,24866,1555359782697095521,world,-2.9078502655,-0.818405628204,0.797292947769,0.719996035099,-0.0842843204737,0.255558937788,-0.639680802822
1555359782707488696,24867,1555359782707488696,world,-2.90810203552,-0.818125486374,0.797293186188,0.720007419586,-0.0815885215998,0.251025766134,-0.641808867455
1555359782716748955,24868,1555359782716748955,world,-2.90785598755,-0.818420410156,0.797397851944,0.720179080963,-0.0843966677785,0.255508005619,-0.639480233192
1555359782716804261,24869,1555359782716804261,world,-2.90811920166,-0.818120956421,0.797392129898,0.720145761967,-0.0814769789577,0.250929564238,-0.641705453396
1555359782727201861,24870,1555359782727201861,world,-2.90785312653,-0.818387031555,0.797348737717,0.720136165619,-0.0842266157269,0.25559130311,-0.639517664909
1555359782737590493,24871,1555359782737590493,world,-2.90810108185,-0.818098306656,0.797294616699,0.719998478889,-0.0814055204391,0.251096278429,-0.641814529896
1555359782757337114,24872,1555359782757337114,world,-2.90787601471,-0.81839299202,0.797337293625,0.720074355602,-0.0842152535915,0.255859017372,-0.639481842518
1555359782757375402,24873,1555359782757375402,world,-2.90812110901,-0.818120241165,0.797372102737,0.720126032829,-0.0813334211707,0.250990897417,-0.641721904278
1555359782766697078,24874,1555359782766697078,world,-2.90786457062,-0.818393230438,0.797373056412,0.720175027847,-0.0842023268342,0.255691915751,-0.639436841011
1555359782766735260,24875,1555359782766735260,world,-2.90815353394,-0.818093776703,0.79736495018,0.720146656036,-0.0811424404383,0.250819265842,-0.641790032387
1555359782787572585,24876,1555359782787572585,world,-2.90788650513,-0.818412780762,0.797372817993,0.720174968243,-0.0840780735016,0.255399286747,-0.639570236206
1555359782787610095,24877,1555359782787610095,world,-2.90815258026,-0.818151473999,0.797338962555,0.720101237297,-0.0815511867404,0.251178920269,-0.641648471355
1555359782796960865,24878,1555359782796960865,world,-2.90790081024,-0.818413734436,0.797345161438,0.720167636871,-0.0842326357961,0.255500614643,-0.639517664909
1555359782817512051,24879,1555359782817512051,world,-2.90814876556,-0.818107843399,0.797330379486,0.720152854919,-0.0815126150846,0.250808894634,-0.641740202904
1555359782817571675,24881,1555359782817571675,world,-2.90814304352,-0.818111181259,0.797335863113,0.720162808895,-0.0813197493553,0.250903367996,-0.64171653986
1555359782837298784,24882,1555359782837298784,world,-2.90790462494,-0.818407297134,0.797357797623,0.720204532146,-0.0843934416771,0.255724549294,-0.639365494251
1555359782837336270,24883,1555359782837336270,world,-2.90811634064,-0.818143129349,0.79731798172,0.72004789114,-0.0816288292408,0.251307696104,-0.641648054123
1555359782847766659,24884,1555359782847766659,world,-2.90787506104,-0.81839799881,0.797350168228,0.720208346844,-0.084286250174,0.255764245987,-0.639359354973
1555359782857120084,24885,1555359782857120084,world,-2.90816116333,-0.818099975586,0.797368049622,0.720066010952,-0.0812673270702,0.250976413488,-0.641803264618
1555359782867467396,24886,1555359782867467396,world,-2.90788078308,-0.818407297134,0.797348737717,0.720085322857,-0.0841285586357,0.255451649427,-0.639643669128
1555359782867507498,24887,1555359782867507498,world,-2.90811347961,-0.81813955307,0.797292232513,0.720131099224,-0.0817457735538,0.251247167587,-0.641563475132
1555359782876776987,24888,1555359782876776987,world,-2.90785694122,-0.818381547928,0.79734826088,0.720157623291,-0.0841379836202,0.255535215139,-0.63952767849
1555359782887122464,24889,1555359782887122464,world,-2.90810680389,-0.81813454628,0.797318696976,0.720074295998,-0.0813459455967,0.251003295183,-0.6417735219
1555359782897517235,24890,1555359782897517235,world,-2.90786552429,-0.818391561508,0.797353506088,0.720205187798,-0.0842021331191,0.255392938852,-0.639522492886
1555359782906970671,24891,1555359782906970671,world,-2.90814208984,-0.818104743958,0.797342777252,0.720093011856,-0.0814277082682,0.250920683146,-0.641774535179
1555359782917426762,24892,1555359782917426762,world,-2.90789318085,-0.818392276764,0.797315120697,0.72009074688,-0.0842334851623,0.255755960941,-0.639502227306
1555359782917467296,24893,1555359782917467296,world,-2.90814971924,-0.818116426468,0.797323226929,0.720094442368,-0.081349298358,0.251065045595,-0.641726374626
1555359782937181518,24894,1555359782937181518,world,-2.90790367126,-0.818395853043,0.797365665436,0.720080137253,-0.0841682031751,0.255740195513,-0.639528870583
1555359782937226417,24895,1555359782937226417,world,-2.90816497803,-0.818125724792,0.797362565994,0.720199942589,-0.0812169238925,0.251100003719,-0.641611039639
1555359782947606123,24896,1555359782947606123,world,-2.90791511536,-0.818400382996,0.797347307205,0.720145642757,-0.0840633511543,0.255799859762,-0.639445066452
1555359782956885274,24897,1555359782956885274,world,-2.90816497803,-0.818117141724,0.797282218933,0.720088899136,-0.0815638899803,0.251275271177,-0.641623020172
1555359782967339379,24898,1555359782967339379,world,-2.90791416168,-0.81839132309,0.797303438187,0.720016479492,-0.0841530635953,0.255751907825,-0.639598011971
1555359782977783160,24899,1555359782977783160,world,-2.90813064575,-0.81814289093,0.797311544418,0.720030784607,-0.0815790146589,0.251137673855,-0.641740202904
1555359782977827321,24900,1555359782977827321,world,-2.90787029266,-0.818390846252,0.797386884689,0.72018045187,-0.0842625796795,0.255521178246,-0.639491140842
1555359782987142754,24901,1555359782987142754,world,-2.90812206268,-0.818083524704,0.79737329483,0.720102071762,-0.0812938064337,0.250868141651,-0.641801714897
1555359782997527195,24902,1555359782997527195,world,-2.90789890289,-0.818356513977,0.797340393066,0.720075011253,-0.0840791687369,0.255606561899,-0.639599978924
1555359783006829955,24903,1555359783006829955,world,-2.90809249878,-0.818073034286,0.797284603119,0.720074474812,-0.0815382525325,0.251219511032,-0.641664206982
1555359783017174018,24904,1555359783017174018,world,-2.90784835815,-0.818377971649,0.797333717346,0.720144748688,-0.0842798426747,0.255512446165,-0.639532446861
1555359783017210893,24905,1555359783017210893,world,-2.9081029892,-0.818104505539,0.797379255295,0.720125496387,-0.081507794559,0.250964522362,-0.641710698605
1555359783027652562,24906,1555359783027652562,world,-2.90787696838,-0.818399429321,0.797412157059,0.720225512981,-0.0842512249947,0.255619883537,-0.639402449131
1555359783037102086,24907,1555359783037102086,world,-2.90810203552,-0.818148612976,0.797352075577,0.720152616501,-0.0814832299948,0.251131415367,-0.641618132591
1555359783047551803,24908,1555359783047551803,world,-2.90787696838,-0.818386077881,0.797332525253,0.720089435577,-0.0841179862618,0.255777418613,-0.639510273933
1555359783057015369,24909,1555359783057015369,world,-2.90813064575,-0.818091630936,0.797279596329,0.720040977001,-0.0813958644867,0.251252144575,-0.641707181931
1555359783067427743,24910,1555359783067427743,world,-2.9078874588,-0.818413734436,0.797354698181,0.720144927502,-0.0843257308006,0.255656123161,-0.639468967915
1555359783076698741,24911,1555359783076698741,world,-2.90816307068,-0.818086147308,0.797403335571,0.7201795578,-0.0812884122133,0.250890046358,-0.641707062721
1555359783076736906,24912,1555359783076736906,world,-2.90791606903,-0.818381786346,0.79741024971,0.720142841339,-0.0841963067651,0.255561858416,-0.63952600956
1555359783096722573,24913,1555359783096722573,world,-2.90814685822,-0.818133354187,0.797293663025,0.72011744976,-0.0813429951668,0.251068621874,-0.641699850559
1555359783107107342,24914,1555359783107107342,world,-2.90788459778,-0.818392276764,0.797296047211,0.720110535622,-0.0840503200889,0.255508601665,-0.639602839947
1555359783107144893,24915,1555359783107144893,world,-2.90813159943,-0.818126916885,0.797312021255,0.720140516758,-0.0813895091414,0.250931739807,-0.641721665859
1555359783117564748,24916,1555359783117564748,world,-2.90787506104,-0.818403959274,0.79736995697,0.720241010189,-0.0842002928257,0.255408167839,-0.639476358891
1555359783117608746,24917,1555359783117608746,world,-2.90813446045,-0.81813287735,0.797391653061,0.72017878294,-0.0815022289753,0.251144886017,-0.641581118107
1555359783126988217,24918,1555359783126988217,world,-2.90788936615,-0.818394899368,0.797369003296,0.720103979111,-0.0842745378613,0.255568921566,-0.639556527138
1555359783137330355,24919,1555359783137330355,world,-2.90811920166,-0.818109989166,0.797251701355,0.719976902008,-0.0814135223627,0.251154929399,-0.641814827919
1555359783147729163,24920,1555359783147729163,world,-2.90786743164,-0.818383455276,0.797309160233,0.719994187355,-0.0840582475066,0.255814373493,-0.639610469341
1555359783157062664,24921,1555359783157062664,world,-2.90811538696,-0.818120002747,0.79737496376,0.720121145248,-0.0813367813826,0.251125752926,-0.641674160957
1555359783167467353,24922,1555359783167467353,world,-2.90786647797,-0.818402528763,0.79741024971,0.720249891281,-0.0841552391648,0.255461007357,-0.639451146126
1555359783176751206,24923,1555359783176751206,world,-2.90812206268,-0.818117856979,0.797394037247,0.720216870308,-0.0813752710819,0.250806242228,-0.641686737537
1555359783176804678,24924,1555359783176804678,world,-2.90788459778,-0.818398237228,0.79732465744,0.720024287701,-0.0842526853085,0.255526602268,-0.639666080475
1555359783187211105,24925,1555359783187211105,world,-2.9081401825,-0.818106412888,0.797264099121,0.720018029213,-0.0815293118358,0.251088202,-0.641780078411
1555359783197614788,24926,1555359783197614788,world,-2.90792179108,-0.818402051926,0.79735326767,0.720249116421,-0.0843498110771,0.255660414696,-0.639346659184
1555359783206994771,24927,1555359783206994771,world,-2.90814590454,-0.818125724792,0.797400474548,0.720274209976,-0.0814782232046,0.25106883049,-0.641506791115
1555359783217333650,24928,1555359783217333650,world,-2.90790748596,-0.818412780762,0.797415733337,0.720211803913,-0.0843172222376,0.255402177572,-0.639496028423
1555359783217372114,24929,1555359783217372114,world,-2.90815830231,-0.818120241165,0.79730463028,0.720130205154,-0.0815502852201,0.251101285219,-0.641646504402
1555359783237030121,24930,1555359783237030121,world,-2.90791606903,-0.818387746811,0.797292232513,0.719989299774,-0.0840953066945,0.25566381216,-0.639671444893
1555359783237067748,24931,1555359783237067748,world,-2.90814971924,-0.818135261536,0.797295808792,0.719999790192,-0.0814148932695,0.251033008099,-0.641836762428
1555359783247551610,24932,1555359783247551610,world,-2.90791702271,-0.818393945694,0.797387838364,0.720266640186,-0.0842188447714,0.255424499512,-0.639438390732
1555359783256950683,24933,1555359783256950683,world,-2.90814971924,-0.818089485168,0.797412872314,0.720180392265,-0.0812406614423,0.250669270754,-0.641798317432
1555359783267388859,24934,1555359783267388859,world,-2.9078874588,-0.818379402161,0.79736828804,0.720164299011,-0.08399066329,0.255418211222,-0.639586210251
1555359783297259820,24935,1555359783297259820,world,-2.9081659317,-0.818047046661,0.79730796814,0.720048964024,-0.0810603126884,0.250821232796,-0.641909301281
1555359783307796201,24936,1555359783307796201,world,-2.90788269043,-0.818388462067,0.797318220139,0.72008651495,-0.0841016173363,0.255675047636,-0.639556646347
1555359783307886647,24939,1555359783307886647,world,-2.90811729431,-0.818113803864,0.797356128693,0.72017967701,-0.0813442468643,0.250727087259,-0.64176350832
1555359783317214279,24940,1555359783317214279,world,-2.90784835815,-0.818418264389,0.797327041626,0.720070719719,-0.0843423530459,0.255541503429,-0.639596164227
1555359783317263926,24941,1555359783317263926,world,-2.90812301636,-0.818152427673,0.797284841537,0.720137059689,-0.0817098915577,0.251423805952,-0.641492128372
1555359783336954823,24942,1555359783336954823,world,-2.9078836441,-0.818394184113,0.797357320786,0.720129668713,-0.0844049826264,0.255701214075,-0.639457643032
1555359783336991966,24943,1555359783336991966,world,-2.9081401825,-0.818139791489,0.79736828804,0.720117211342,-0.0814049765468,0.250943005085,-0.641741454601
1555359783357758298,24944,1555359783357758298,world,-2.90789985657,-0.818415880203,0.797375679016,0.720191478729,-0.0840640738606,0.25553393364,-0.639499783516
1555359783357798225,24945,1555359783357798225,world,-2.90815353394,-0.81814289093,0.797334909439,0.720119416714,-0.0813163518906,0.251120179892,-0.641680955887
1555359783367300656,24946,1555359783367300656,world,-2.90791511536,-0.818395614624,0.797334671021,0.720054864883,-0.0841137543321,0.255680948496,-0.639588236809
1555359783377721465,24947,1555359783377721465,world,-2.90815448761,-0.81812953949,0.79728269577,0.719994425774,-0.0815681144595,0.251323401928,-0.64170974493
1555359783377763107,24948,1555359783377763107,world,-2.90790271759,-0.818385601044,0.797343254089,0.72015607357,-0.0842102766037,0.255663186312,-0.639468729496
1555359783387112781,24949,1555359783387112781,world,-2.90815067291,-0.818103313446,0.797368049622,0.720243632793,-0.0812572240829,0.250825971365,-0.641664028168
1555359783397546748,24950,1555359783397546748,world,-2.90788173676,-0.81840133667,0.797393083572,0.720198869705,-0.0841487422585,0.255589008331,-0.639458298683
1555359783406895002,24951,1555359783406895002,world,-2.90810966492,-0.818140029907,0.797311306,0.720135867596,-0.081517547369,0.251198381186,-0.641606330872
1555359783437086670,24952,1555359783437086670,world,-2.90784835815,-0.818392038345,0.797283887863,0.720051288605,-0.0842444673181,0.255696356297,-0.639568924904
1555359783437146255,24953,1555359783437146255,world,-2.90807914734,-0.818125963211,0.797284126282,0.720013856888,-0.0814763754606,0.251087933779,-0.641791701317
1555359783437190644,24954,1555359783437190644,world,-2.90785121918,-0.818428516388,0.797376155853,0.720155537128,-0.0842833667994,0.255544036627,-0.639507234097
1555359783437216772,24955,1555359783437216772,world,-2.90811538696,-0.818134069443,0.79741191864,0.720178246498,-0.0813929140568,0.250850230455,-0.641710817814
1555359783447649066,24956,1555359783447649066,world,-2.90789985657,-0.818419218063,0.797397613525,0.720142364502,-0.0842014029622,0.255598664284,-0.639510989189
1555359783456971556,24957,1555359783456971556,world,-2.90811443329,-0.818131446838,0.797312498093,0.720022797585,-0.081391595304,0.251009881496,-0.641822993755
1555359783467260339,24958,1555359783467260339,world,-2.90788841248,-0.818402051926,0.797315359116,0.72009062767,-0.0842467620969,0.25579431653,-0.639485239983
1555359783467336055,24959,1555359783467336055,world,-2.90814971924,-0.818106889725,0.797352552414,0.720104575157,-0.0812441036105,0.250892311335,-0.641795814037
1555359783477723190,24960,1555359783477723190,world,-2.90790557861,-0.818426847458,0.797384977341,0.720214784145,-0.0841620266438,0.255372971296,-0.639524936676
1555359783487105638,24961,1555359783487105638,world,-2.90815258026,-0.818126678467,0.797375440598,0.720109522343,-0.0813593491912,0.250783473253,-0.641818284988
1555359783506930173,24962,1555359783506930173,world,-2.90791034698,-0.81840133667,0.797355651855,0.72016119957,-0.0842963531613,0.255643516779,-0.639459490776
1555359783506972150,24963,1555359783506972150,world,-2.90813541412,-0.818153619766,0.797254323959,0.720103502274,-0.0816164165735,0.251324534416,-0.641580700874
1555359783517374276,24964,1555359783517374276,world,-2.90789604187,-0.81843662262,0.797330856323,0.720164120197,-0.0841875821352,0.255625754595,-0.639477729797
1555359783517423652,24965,1555359783517423652,world,-2.90814590454,-0.81813955307,0.797361373901,0.720162928104,-0.0813463255763,0.250993341208,-0.641677796841
1555359783526730739,24966,1555359783526730739,world,-2.90788650513,-0.818419218063,0.797385454178,0.720182836056,-0.0841864943504,0.255355328321,-0.639564752579
1555359783537191439,24967,1555359783537191439,world,-2.90811347961,-0.818119764328,0.797318696976,0.720101594925,-0.0814340263605,0.250770151615,-0.641822934151
1555359783547650951,24968,1555359783547650951,world,-2.90784931183,-0.818379402161,0.797291278839,0.720075786114,-0.0842256844044,0.255586236715,-0.639587879181
1555359783557051022,24969,1555359783557051022,world,-2.90809345245,-0.818111419678,0.797293186188,0.720143258572,-0.0814111828804,0.25098657608,-0.641694366932
1555359783567500093,24970,1555359783567500093,world,-2.90786743164,-0.818427085876,0.797392368317,0.720203399658,-0.084211178124,0.255497962236,-0.639481425285
1555359783567553115,24971,1555359783567553115,world,-2.90807628632,-0.818169116974,0.797383308411,0.720187544823,-0.0815448388457,0.251132190228,-0.641570746899
1555359783576984181,24972,1555359783576984181,world,-2.9078207016,-0.818412065506,0.797366857529,0.720082044601,-0.0843566730618,0.255713313818,-0.639512658119
1555359783596697950,24973,1555359783596697950,world,-2.90807914734,-0.818160057068,0.797285079956,0.720036387444,-0.0815794691443,0.251200735569,-0.641709268093
1555359783607099825,24974,1555359783607099825,world,-2.90783596039,-0.81844162941,0.797327041626,0.720052480698,-0.0843047872186,0.255793511868,-0.639520764351
1555359783607139971,24975,1555359783607139971,world,-2.90810680389,-0.818202972412,0.797349691391,0.720167994499,-0.0815526470542,0.25130969286,-0.641522109509
1555359783617662648,24976,1555359783617662648,world,-2.90788555145,-0.81845831871,0.797400474548,0.720169365406,-0.0840967521071,0.255378216505,-0.639582574368
1555359783617700953,24977,1555359783617700953,world,-2.90814685822,-0.818174123764,0.797340393066,0.720069229603,-0.0815907046199,0.251322239637,-0.641623198986
1555359783627165893,24978,1555359783627165893,world,-2.90788269043,-0.818432807922,0.797322034836,0.720009982586,-0.0841083824635,0.25549030304,-0.639715731144
1555359783657010727,24979,1555359783657010727,world,-2.90816116333,-0.818158864975,0.797276973724,0.719964563847,-0.0815653726459,0.250937074423,-0.641894519329
1555359783667457930,24980,1555359783667457930,world,-2.90791606903,-0.818410634995,0.79734826088,0.720160365105,-0.0840853378177,0.255432367325,-0.639572560787
1555359783667522473,24981,1555359783667522473,world,-2.90813827515,-0.818141460419,0.797360658646,0.720104634762,-0.081355124712,0.250779598951,-0.641825675964
1555359783667575016,24982,1555359783667575016,world,-2.90790939331,-0.818438768387,0.797365665436,0.72016274929,-0.0841575488448,0.255403518677,-0.639571845531
1555359783676946851,24983,1555359783676946851,world,-2.90816307068,-0.818088293076,0.797359228134,0.720035076141,-0.080986097455,0.250672847033,-0.641992211342
1555359783687332385,24984,1555359783687332385,world,-2.90789890289,-0.818397521973,0.79731631279,0.720110058784,-0.0840388163924,0.255364656448,-0.639662206173
1555359783687382407,24985,1555359783687382407,world,-2.90813064575,-0.818122386932,0.797308444977,0.720085561275,-0.0812731981277,0.250915884972,-0.641804277897
1555359783697756462,24986,1555359783697756462,world,-2.90788173676,-0.818425893784,0.797379016876,0.720198392868,-0.0842337682843,0.25551238656,-0.639478325844
1555359783707087351,24987,1555359783707087351,world,-2.90810871124,-0.818120956421,0.797351837158,0.720141172409,-0.0811341553926,0.250762730837,-0.641819357872
1555359783717400486,24988,1555359783717400486,world,-2.90787029266,-0.818398714066,0.797355651855,0.720197677612,-0.0842768326402,0.255651384592,-0.639417767525
1555359783717435071,24989,1555359783717435071,world,-2.90809726715,-0.818127632141,0.797305583954,0.720084428787,-0.0816261619329,0.251274615526,-0.641620278358
1555359783736976462,24990,1555359783736976462,world,-2.90786170959,-0.818399190903,0.797317504883,0.720061540604,-0.0844064801931,0.255698472261,-0.639535188675
1555359783737066915,24991,1555359783737066915,world,-2.90811824799,-0.818121433258,0.797339200974,0.720104753971,-0.0815023705363,0.250909775496,-0.641755998135
1555359783747402232,24992,1555359783747402232,world,-2.90784549713,-0.818425655365,0.797352075577,0.72016453743,-0.0843520238996,0.255435049534,-0.639531731606
1555359783756717112,24993,1555359783756717112,world,-2.9081029892,-0.818174600601,0.797285318375,0.720159947872,-0.081729888916,0.251496165991,-0.641435623169
1555359783767061145,24994,1555359783767061145,world,-2.90784740448,-0.818436861038,0.797326803207,0.720174908638,-0.0843127071857,0.255715191364,-0.639413177967
1555359783777446515,24995,1555359783777446515,world,-2.9081363678,-0.818163633347,0.797288894653,0.720049321651,-0.0813865959644,0.250959277153,-0.641813576221
1555359783786767398,24996,1555359783786767398,world,-2.90788078308,-0.818405151367,0.797323465347,0.720092535019,-0.084186501801,0.255562901497,-0.639583468437
1555359783786835172,24997,1555359783786835172,world,-2.9081325531,-0.818161010742,0.797389030457,0.720133781433,-0.0815185755491,0.250743418932,-0.641786456108
1555359783797149907,24998,1555359783797149907,world,-2.9078578949,-0.818442344666,0.79740023613,0.720161437988,-0.0842885151505,0.255414247513,-0.639551758766
1555359783807478435,24999,1555359783807478435,world,-2.90810966492,-0.818143844604,0.797343730927,0.720110416412,-0.0815192013979,0.251035243273,-0.641698479652
1555359783816695456,25000,1555359783816695456,world,-2.90784263611,-0.81841135025,0.797323703766,0.720019102097,-0.0841643884778,0.255660325289,-0.639630198479
1555359783816757452,25001,1555359783816757452,world,-2.90811443329,-0.818135976791,0.797323465347,0.72003698349,-0.0814474076033,0.251036226749,-0.64178955555
1555359783827033812,25002,1555359783827033812,world,-2.90782642365,-0.818411827087,0.797367811203,0.720203876495,-0.0842271819711,0.255375176668,-0.63952767849
1555359783837380098,25003,1555359783837380098,world,-2.9080915451,-0.818125009537,0.797366857529,0.720123052597,-0.0812764018774,0.250792711973,-0.641810059547
1555359783847722230,25004,1555359783847722230,world,-2.90784740448,-0.818392515182,0.79735159874,0.720165252686,-0.0841904059052,0.255579590797,-0.639494299889
1555359783857300263,25005,1555359783857300263,world,-2.90809822083,-0.818114280701,0.797272205353,0.720095574856,-0.0813550651073,0.250962018967,-0.641764700413
1555359783857340199,25006,1555359783857340199,world,-2.90784931183,-0.818411827087,0.797321557999,0.720065593719,-0.0842796936631,0.255739361048,-0.63953101635
1555359783867763281,25007,1555359783867763281,world,-2.90810012817,-0.818135023117,0.797398090363,0.720142006874,-0.0814818963408,0.250872910023,-0.641731202602
1555359783877223971,25008,1555359783877223971,world,-2.90788555145,-0.818439006805,0.797415971756,0.720192313194,-0.0842917189002,0.25535851717,-0.639538943768
1555359783887614145,25009,1555359783887614145,world,-2.90813064575,-0.818145990372,0.797356843948,0.720085442066,-0.0813935026526,0.250912308693,-0.641790568829
1555359783896990596,25010,1555359783896990596,world,-2.90789890289,-0.818398714066,0.797315359116,0.720007658005,-0.0841089263558,0.255658686161,-0.639650940895
1555359783907447629,25011,1555359783907447629,world,-2.90814685822,-0.818131923676,0.79727768898,0.72008150816,-0.0814887285233,0.251092195511,-0.641712486744
1555359783916726435,25012,1555359783916726435,world,-2.90789794922,-0.818419933319,0.797358512878,0.720209479332,-0.0841640532017,0.255463391542,-0.639494478703
1555359783927134222,25013,1555359783927134222,world,-2.90814685822,-0.81812286377,0.79736328125,0.720198333263,-0.0814488530159,0.250909328461,-0.641658127308
1555359783927201461,25014,1555359783927201461,world,-2.90789890289,-0.818362951279,0.797383308411,0.720149219036,-0.0841464996338,0.255615204573,-0.639503955841
1555359783937540321,25015,1555359783937540321,world,-2.90810966492,-0.818090438843,0.797279834747,0.720013797283,-0.0814001262188,0.251039713621,-0.641820192337
1555359783946850419,25016,1555359783946850419,world,-2.9078912735,-0.818335533142,0.797284841537,0.720084369183,-0.0841089785099,0.255711168051,-0.639543533325
1555359783957273791,25017,1555359783957273791,world,-2.90812969208,-0.818064451218,0.797337055206,0.720121026039,-0.0812956318259,0.251117527485,-0.641682803631
1555359783967661971,25018,1555359783967661971,world,-2.90784740448,-0.818383455276,0.797386169434,0.720215380192,-0.0841139480472,0.255562990904,-0.639454543591
1555359783967729347,25019,1555359783967729347,world,-2.9080915451,-0.818076372147,0.79736495018,0.720152616501,-0.0815344303846,0.2510227561,-0.641654133797
1555359783977168796,25020,1555359783977168796,world,-2.90784454346,-0.818377017975,0.79732465744,0.720088541508,-0.0842631608248,0.255709737539,-0.639519155025
1555359783996771396,25021,1555359783996771396,world,-2.90806007385,-0.818139791489,0.797274112701,0.72009152174,-0.0817526876926,0.251386851072,-0.641552209854
1555359784007120004,25022,1555359784007120004,world,-2.90783691406,-0.818414211273,0.797330856323,0.720132350922,-0.0845627635717,0.25577750802,-0.639403104782
1555359784007189214,25023,1555359784007189214,world,-2.90811347961,-0.81813287735,0.797359704971,0.720161736012,-0.0815634950995,0.250972002745,-0.641659915447
1555359784017542273,25024,1555359784017542273,world,-2.90786647797,-0.818408966064,0.7973549366,0.720160901546,-0.0840947926044,0.255473971367,-0.639554083347
1555359784017608958,25025,1555359784017608958,world,-2.90814399719,-0.818120002747,0.79733133316,0.720023870468,-0.0810971707106,0.250890791416,-0.641905665398
1555359784027040779,25026,1555359784027040779,world,-2.90791416168,-0.8184030056,0.797337532043,0.720069169998,-0.0840445533395,0.255605459213,-0.639611363411
1555359784037485297,25027,1555359784037485297,world,-2.90815162659,-0.818167209625,0.797315359116,0.720111787319,-0.0815590620041,0.251307964325,-0.641585171223
1555359784057166126,25028,1555359784057166126,world,-2.90790176392,-0.818403244019,0.797365665436,0.720133006573,-0.0840992704034,0.255645632744,-0.639516234398
1555359784057235108,25029,1555359784057235108,world,-2.90816783905,-0.818124294281,0.797332286835,0.720116972923,-0.0813421308994,0.250904351473,-0.641764700413
1555359784067634523,25030,1555359784067634523,world,-2.90790557861,-0.818404912949,0.797373533249,0.720160126686,-0.0840280279517,0.255373179913,-0.63960403204
1555359784067676712,25031,1555359784067676712,world,-2.9081287384,-0.818151712418,0.797272205353,0.720099627972,-0.0817989706993,0.251398563385,-0.641532719135
1555359784077090204,25032,1555359784077090204,world,-2.9078912735,-0.818352222443,0.797288656235,0.720124483109,-0.0842377915978,0.255600422621,-0.639525771141
1555359784097066558,25033,1555359784097066558,world,-2.90813064575,-0.818072080612,0.797273397446,0.720143079758,-0.0812565237284,0.250933587551,-0.641734957695
1555359784107364188,25034,1555359784107364188,world,-2.90786933899,-0.818375110626,0.797366142273,0.720210075378,-0.0841124728322,0.255551218987,-0.639465451241
1555359784107411002,25035,1555359784107411002,world,-2.90811252594,-0.818089962006,0.797388076782,0.720169484615,-0.0813331305981,0.250894039869,-0.641710996628
1555359784116659098,25036,1555359784116659098,world,-2.90786075592,-0.81836438179,0.797338724136,0.720057368279,-0.084156267345,0.255712300539,-0.639567315578
1555359784116701211,25037,1555359784116701211,world,-2.90808010101,-0.818104028702,0.797267198563,0.71999591589,-0.0815000534058,0.251213371754,-0.641759634018
1555359784127084326,25038,1555359784127084326,world,-2.90745544434,-0.81790304184,0.796917676926,0.722020745277,-0.0851098671556,0.252527207136,-0.638492286205
1555359784137527035,25039,1555359784137527035,world,-2.90798187256,-0.818017482758,0.79726934433,0.720656812191,-0.0818432420492,0.250270158052,-0.641342520714
1555359784167714988,25040,1555359784167714988,world,-2.90789031982,-0.818411588669,0.797436952591,0.720293104649,-0.0842676311731,0.255498766899,-0.639372587204
1555359784167756198,25041,1555359784167756198,world,-2.90819168091,-0.818134069443,0.797389507294,0.719978928566,-0.0811363384128,0.251201182604,-0.641829669476
1555359784167829923,25042,1555359784167829923,world,-2.90752696991,-0.818005561829,0.796925783157,0.721740305424,-0.0848470181227,0.252671331167,-0.638787209988
1555359784167868030,25043,1555359784167868030,world,-2.90807437897,-0.818036556244,0.797194719315,0.720304250717,-0.0815028995275,0.25052317977,-0.641683220863
1555359784187453314,25044,1555359784187453314,world,-2.90795135498,-0.818438529968,0.797392845154,0.719973325729,-0.084297336638,0.256009072065,-0.639524579048
1555359784196646360,25045,1555359784196646360,world,-2.90821266174,-0.818206548691,0.797466278076,0.719839632511,-0.0811099857092,0.251165956259,-0.642002940178
1555359784196685346,25046,1555359784196685346,world,-2.90797328949,-0.818468093872,0.79741692543,0.719891905785,-0.0839858949184,0.256025582552,-0.639650642872
1555359784206974243,25047,1555359784206974243,world,-2.90818881989,-0.818199157715,0.797329425812,0.719813108444,-0.0812941640615,0.251536160707,-0.641864418983
1555359784217233694,25048,1555359784217233694,world,-2.9079284668,-0.818467140198,0.797331571579,0.719788730145,-0.0842096880078,0.256088256836,-0.639712274075
1555359784217278533,25049,1555359784217278533,world,-2.90820026398,-0.818109750748,0.797347068787,0.719886779785,-0.0812651365995,0.251315951347,-0.641871809959
1555359784227524036,25050,1555359784227524036,world,-2.90790557861,-0.818410158157,0.797416210175,0.720138132572,-0.0842093378305,0.255597680807,-0.63951510191
1555359784236788357,25051,1555359784236788357,world,-2.90813827515,-0.818146705627,0.79741024971,0.720075130463,-0.0812970250845,0.250879824162,-0.641826987267
1555359784247112151,25052,1555359784247112151,world,-2.90787029266,-0.818393230438,0.797373533249,0.720099925995,-0.0842289105058,0.255606919527,-0.639551997185
1555359784257448667,25053,1555359784257448667,world,-2.90811061859,-0.818095207214,0.797298908234,0.719969987869,-0.0815103501081,0.251207739115,-0.64178955555
1555359784257488921,25054,1555359784257488921,world,-2.90784358978,-0.818374633789,0.797300100327,0.719969570637,-0.0843484848738,0.255880385637,-0.639573574066
1555359784266722289,25055,1555359784266722289,world,-2.90810680389,-0.818111658096,0.797319412231,0.720047235489,-0.0813906937838,0.251211076975,-0.641716837883
1555359784277056161,25056,1555359784277056161,world,-2.9078540802,-0.818398237228,0.797386884689,0.720156490803,-0.084136530757,0.255782961845,-0.639430046082
1555359784287450557,25057,1555359784287450557,world,-2.90814304352,-0.818124055862,0.797414064407,0.720131874084,-0.0813194066286,0.250988870859,-0.641718029976
1555359784296694965,25058,1555359784296694965,world,-2.90790367126,-0.818380355835,0.797361135483,0.720115065575,-0.084219686687,0.255781233311,-0.63946646452
1555359784307114046,25059,1555359784307114046,world,-2.90816783905,-0.818124771118,0.797275304794,0.720034062862,-0.0815112292767,0.25114735961,-0.641741275787
1555359784317591166,25060,1555359784317591166,world,-2.90790271759,-0.818383693695,0.797292709351,0.720067799091,-0.0840738341212,0.255740374327,-0.639555156231
1555359784327004583,25061,1555359784327004583,world,-2.9081659317,-0.818110704422,0.797343730927,0.720161139965,-0.0813434720039,0.250932216644,-0.641704142094
1555359784327042997,25062,1555359784327042997,world,-2.90790176392,-0.818429470062,0.797367572784,0.720247924328,-0.0842404961586,0.25553882122,-0.6394110322
1555359784337461809,25063,1555359784337461809,world,-2.90816116333,-0.818107128143,0.797352790833,0.720094680786,-0.081327483058,0.251017361879,-0.64174759388
1555359784357085437,25064,1555359784357085437,world,-2.90749835968,-0.817944288254,0.79690527916,0.721962690353,-0.0847986191511,0.252317070961,-0.638682365417
1555359784357126117,25065,1555359784357126117,world,-2.90799236298,-0.818023920059,0.79713344574,0.720525622368,-0.0816744416952,0.250403612852,-0.641459405422
1555359784367588501,25066,1555359784367588501,world,-2.90786743164,-0.818393707275,0.797352552414,0.720088303089,-0.0842619389296,0.255758017302,-0.639500319958
1555359784367642775,25067,1555359784367642775,world,-2.90817546844,-0.818152427673,0.797465801239,0.719961106777,-0.0811992883682,0.251178324223,-0.641850471497
1555359784377061624,25068,1555359784377061624,world,-2.90793037415,-0.818453073502,0.79743719101,0.719957351685,-0.0839593783021,0.255778461695,-0.639679312706
