%time,field.header.seq,field.header.stamp,field.header.frame_id,field.pose.position.x,field.pose.position.y,field.pose.position.z,field.pose.orientation.x,field.pose.orientation.y,field.pose.orientation.z,field.pose.orientation.w
1555356922946883678,3992,1555356922946883678,world,-2.89876365662,-0.815045833588,0.797059059143,-0.709345459938,0.151608869433,-0.313451975584,0.612855374813
1555356922957266935,3993,1555356922957266935,world,-2.89878368378,-0.815021276474,0.797135353088,-0.709323227406,0.151181966066,-0.313130408525,0.613150954247
1555356922967578952,3994,1555356922967578952,world,-2.89878177643,-0.815048694611,0.79722237587,-0.709238409996,0.151302322745,-0.313250869513,0.613157689571
1555356922976957164,3995,1555356922976957164,world,-2.89879322052,-0.815012454987,0.797231674194,-0.709199905396,0.151209056377,-0.313143491745,0.613280057907
1555356922977024708,3996,1555356922977024708,world,-2.89875125885,-0.815053701401,0.79714179039,-0.709309399128,0.151523023844,-0.313230544329,0.613031506538
1555356922997487860,3997,1555356922997487860,world,-2.89869499207,-0.815084218979,0.797056436539,-0.709363281727,0.151837795973,-0.313514739275,0.612745881081
1555356922997550888,3998,1555356922997550888,world,-2.89868450165,-0.815140008926,0.797095060349,-0.7093719244,0.152116641402,-0.313929289579,0.612454354763
1555356923006927105,3999,1555356923006927105,world,-2.89875411987,-0.815069198608,0.7972240448,-0.709308862686,0.151301383972,-0.313228487968,0.613087892532
1555356923017225368,4000,1555356923017225368,world,-2.89880752563,-0.815066576004,0.797268152237,-0.709121823311,0.151163622737,-0.313174575567,0.613365590572
1555356923017289125,4001,1555356923017289125,world,-2.89881038666,-0.815028429031,0.79722905159,-0.709193944931,0.150898337364,-0.312899112701,0.613488197327
1555356923027723476,4002,1555356923027723476,world,-2.89875888824,-0.815081834793,0.797081947327,-0.709302544594,0.151615902781,-0.313470333815,0.612893760204
1555356923037160130,4003,1555356923037160130,world,-2.89875125885,-0.815114021301,0.797055482864,-0.709331512451,0.151875972748,-0.313639640808,0.612709283829
1555356923047477506,4004,1555356923047477506,world,-2.89878940582,-0.815086364746,0.79715180397,-0.709256887436,0.151425004005,-0.313353061676,0.613053798676
1555356923056742567,4005,1555356923056742567,world,-2.89883327484,-0.81507229805,0.797253847122,-0.709190785885,0.151069685817,-0.313213795424,0.613289058208
1555356923067023673,4006,1555356923067023673,world,-2.89882850647,-0.815038919449,0.797205209732,-0.709239244461,0.151001632214,-0.313054800034,0.613331079483
1555356923077298466,4007,1555356923077298466,world,-2.89877605438,-0.815081596375,0.797112941742,-0.709333002567,0.151497274637,-0.313267141581,0.612991929054
1555356923077365025,4008,1555356923077365025,world,-2.89876842499,-0.81508231163,0.79708647728,-0.70930826664,0.151733264327,-0.313565582037,0.612809360027
1555356923097345848,4009,1555356923097345848,world,-2.89879894257,-0.815061092377,0.79719376564,-0.709300279617,0.151345968246,-0.313274383545,0.613063335419
1555356923097416223,4010,1555356923097416223,world,-2.89878463745,-0.815061807632,0.797231197357,-0.709253907204,0.151295050979,-0.3131506145,0.613192737103
1555356923106776331,4011,1555356923106776331,world,-2.89876651764,-0.815053224564,0.797209262848,-0.709286510944,0.151360362768,-0.313191473484,0.613118052483
1555356923117111338,4012,1555356923117111338,world,-2.89873123169,-0.815076112747,0.797147035599,-0.709209859371,0.151595786214,-0.313366055489,0.613059341908
1555356923127509161,4013,1555356923127509161,world,-2.89868736267,-0.815124988556,0.797120571136,-0.709247469902,0.151905700564,-0.313690871,0.612772881985
1555356923127579037,4014,1555356923127579037,world,-2.89874076843,-0.815111875534,0.797157287598,-0.709291040897,0.151690378785,-0.313515812159,0.612865507603
1555356923157766442,4015,1555356923157766442,world,-2.89877128601,-0.81503033638,0.797208786011,-0.709215939045,0.151000767946,-0.312858521938,0.613458275795
1555356923167096813,4016,1555356923167096813,world,-2.89875125885,-0.815048217773,0.797207832336,-0.709210157394,0.151235878468,-0.313190102577,0.613237857819
1555356923167141590,4017,1555356923167141590,world,-2.89874458313,-0.815072536469,0.797177314758,-0.709241807461,0.151401504874,-0.313400000334,0.613053262234
1555356923167264037,4018,1555356923167264037,world,-2.89872932434,-0.815083026886,0.797142505646,-0.709256589413,0.151649340987,-0.313564509153,0.612890660763
1555356923177665390,4019,1555356923177665390,world,-2.89875888824,-0.815071105957,0.797146320343,-0.709286272526,0.151768058538,-0.313461959362,0.612879395485
1555356923177703412,4020,1555356923177703412,world,-2.89876270294,-0.815067529678,0.797178268433,-0.709216177464,0.151473432779,-0.313289701939,0.613121390343
1555356923187059042,4021,1555356923187059042,world,-2.89879322052,-0.815055131912,0.797205448151,-0.709260940552,0.151370644569,-0.313233971596,0.613123416901
1555356923197517494,4022,1555356923197517494,world,-2.8988161087,-0.815044164658,0.797204256058,-0.70927721262,0.151253610849,-0.313207894564,0.613146901131
1555356923206771217,4023,1555356923206771217,world,-2.89876747131,-0.815054416656,0.797149658203,-0.709322869778,0.151408046484,-0.313252419233,0.613033175468
1555356923217140603,4024,1555356923217140603,world,-2.89875030518,-0.815078496933,0.797105312347,-0.70938962698,0.151610299945,-0.313310116529,0.612876355648
1555356923217198058,4025,1555356923217198058,world,-2.89876270294,-0.815060853958,0.797169446945,-0.709267437458,0.151394337416,-0.313186198473,0.613134503365
1555356923227589454,4026,1555356923227589454,world,-2.89877986908,-0.815061330795,0.797186613083,-0.709196865559,0.151108294725,-0.313107669353,0.613326668739
1555356923236937751,4027,1555356923236937751,world,-2.89876651764,-0.815084457397,0.797202348709,-0.709267437458,0.15119381249,-0.313112288713,0.61322170496
1555356923247253547,4028,1555356923247253547,world,-2.89875125885,-0.815084457397,0.79714679718,-0.709364414215,0.15142673254,-0.313164710999,0.613025426865
1555356923257694898,4029,1555356923257694898,world,-2.89872932434,-0.815126180649,0.797117710114,-0.709273338318,0.151776909828,-0.313498139381,0.61287355423
1555356923267020622,4030,1555356923267020622,world,-2.89872550964,-0.815111398697,0.797172784805,-0.7092217803,0.151525124907,-0.313402146101,0.613044679165
1555356923267095921,4031,1555356923267095921,world,-2.89875984192,-0.815136909485,0.797198057175,-0.709255635738,0.151767864823,-0.31357550621,0.612856686115
1555356923277393286,4032,1555356923277393286,world,-2.8987827301,-0.8150639534,0.797226667404,-0.709223091602,0.151194781065,-0.313196450472,0.613229870796
1555356923296914663,4033,1555356923296914663,world,-2.89875602722,-0.815059900284,0.797124147415,-0.709214389324,0.151424735785,-0.313414305449,0.613071799278
1555356923307310374,4034,1555356923307310374,world,-2.89875411987,-0.815068006516,0.797087192535,-0.709336876869,0.151574954391,-0.313439935446,0.612879931927
1555356923307373015,4035,1555356923307373015,world,-2.89876747131,-0.815068006516,0.797132015228,-0.709314405918,0.151516646147,-0.313482820988,0.612898230553
1555356923316653365,4036,1555356923316653365,world,-2.89877891541,-0.81504535675,0.797192573547,-0.709219694138,0.151413500309,-0.313361883163,0.613095283508
1555356923316692064,4037,1555356923316692064,world,-2.89877796173,-0.815041542053,0.797217130661,-0.709166765213,0.151382386684,-0.313250899315,0.613220691681
1555356923327128584,4038,1555356923327128584,world,-2.89877223969,-0.815060853958,0.797156333923,-0.709278285503,0.15154658258,-0.313414543867,0.612967669964
1555356923337575828,4039,1555356923337575828,world,-2.89874649048,-0.815079450607,0.797108411789,-0.709387719631,0.151773378253,-0.313504785299,0.612738788128
1555356923346901682,4040,1555356923346901682,world,-2.89872264862,-0.815120697021,0.797144651413,-0.709355890751,0.151826113462,-0.313738524914,0.612642884254
1555356923357327655,4041,1555356923357327655,world,-2.89875888824,-0.815093517303,0.797188043594,-0.70927888155,0.151440709829,-0.313421040773,0.612989783287
1555356923367851555,4042,1555356923367851555,world,-2.89879131317,-0.815055608749,0.797209978104,-0.709248900414,0.151121065021,-0.312999457121,0.613318622112
1555356923377305384,4043,1555356923377305384,world,-2.89877796173,-0.815103292465,0.797194242477,-0.709279894829,0.151176437736,-0.313004344702,0.613266646862
1555356923387754674,4044,1555356923387754674,world,-2.89873313904,-0.815103769302,0.79714345932,-0.709261655807,0.151363909245,-0.313194036484,0.613144636154
1555356923387838890,4045,1555356923387838890,world,-2.89871883392,-0.815146923065,0.797142744064,-0.709288835526,0.151692986488,-0.313500404358,0.61287522316
1555356923397176293,4046,1555356923397176293,world,-2.89872169495,-0.815093755722,0.79715681076,-0.709278583527,0.151286900043,-0.313387036324,0.613045454025
1555356923407466972,4047,1555356923407466972,world,-2.89874076843,-0.815103769302,0.7971804142,-0.709272742271,0.151493772864,-0.313571423292,0.612906873226
1555356923416668182,4048,1555356923416668182,world,-2.89873790741,-0.815070152283,0.797189712524,-0.7092461586,0.151448607445,-0.313428521156,0.613021850586
1555356923426999828,4049,1555356923426999828,world,-2.89875984192,-0.815083742142,0.797165155411,-0.709259390831,0.151524886489,-0.313464015722,0.612969577312
1555356923427040867,4050,1555356923427040867,world,-2.89873981476,-0.815061330795,0.797121047974,-0.709272682667,0.151625424623,-0.313635647297,0.612841486931
1555356923437414185,4051,1555356923437414185,world,-2.8987531662,-0.815071344376,0.797120571136,-0.709246754646,0.1516623348,-0.313497036695,0.612933337688
1555356923446697547,4052,1555356923446697547,world,-2.89876842499,-0.815071821213,0.79717874527,-0.709272146225,0.151424586773,-0.313441038132,0.612991333008
1555356923457040495,4053,1555356923457040495,world,-2.89878940582,-0.815036058426,0.797224283218,-0.7092269063,0.151040405035,-0.313043177128,0.61334168911
1555356923467442506,4054,1555356923467442506,world,-2.8987531662,-0.815103530884,0.797178030014,-0.709280788898,0.151482671499,-0.313454300165,0.612960219383
1555356923476694748,4055,1555356923476694748,world,-2.8987827301,-0.815049171448,0.797159433365,-0.709280967712,0.151204228401,-0.313078641891,0.613220691681
1555356923476732212,4056,1555356923476732212,world,-2.89876556396,-0.815092325211,0.797113656998,-0.70934844017,0.151555597782,-0.313335180283,0.612924814224
1555356923487035056,4057,1555356923487035056,world,-2.89876747131,-0.81506228447,0.797154903412,-0.70933753252,0.151206046343,-0.313063055277,0.613162875175
1555356923497318464,4058,1555356923497318464,world,-2.89877891541,-0.815091848373,0.797217607498,-0.709205269814,0.151388093829,-0.313085764647,0.613259255886
1555356923507718367,4059,1555356923507718367,world,-2.89876747131,-0.81508898735,0.797206878662,-0.709222376347,0.151504784822,-0.313233166933,0.613135457039
1555356923517045480,4060,1555356923517045480,world,-2.89875411987,-0.815103292465,0.797160863876,-0.709257602692,0.151561796665,-0.313557863235,0.612914562225
1555356923517091477,4061,1555356923517091477,world,-2.89873600006,-0.815120220184,0.797099590302,-0.709303200245,0.15179297328,-0.313637405634,0.612763762474
1555356923527402011,4062,1555356923527402011,world,-2.89875602722,-0.815070152283,0.797161579132,-0.709311723709,0.151319086552,-0.313303470612,0.613041877747
1555356923537734592,4063,1555356923537734592,world,-2.89876270294,-0.815069437027,0.797212600708,-0.709193229675,0.151494324207,-0.313344955444,0.613114595413
1555356923547114178,4064,1555356923547114178,world,-2.89875888824,-0.815073728561,0.797212600708,-0.709310948849,0.151253387332,-0.313259333372,0.613081634045
1555356923557568337,4065,1555356923557568337,world,-2.89875602722,-0.815100193024,0.797194480896,-0.709222137928,0.151492908597,-0.313494950533,0.613004744053
1555356923566905851,4066,1555356923566905851,world,-2.89876174927,-0.815057277679,0.797121763229,-0.709289491177,0.15147523582,-0.313140362501,0.613112390041
1555356923566956282,4067,1555356923566956282,world,-2.89875125885,-0.815086126328,0.797082662582,-0.709343016148,0.15162935853,-0.313380390406,0.612889647484
1555356923577269741,4068,1555356923577269741,world,-2.89879322052,-0.815024137497,0.797154664993,-0.709281504154,0.151163130999,-0.313000947237,0.613269925117
1555356923587528530,4069,1555356923587528530,world,-2.8987903595,-0.81507563591,0.79721903801,-0.709215462208,0.151358097792,-0.313320428133,0.613134980202
1555356923596820183,4070,1555356923596820183,world,-2.89875984192,-0.815082073212,0.797231197357,-0.709251224995,0.151272505522,-0.313387304544,0.613080620766
1555356923607230362,4071,1555356923607230362,world,-2.89877128601,-0.81504034996,0.797123908997,-0.709302842617,0.151289775968,-0.31315112114,0.613137304783
1555356923617623447,4072,1555356923617623447,world,-2.89877891541,-0.815007448196,0.79703783989,-0.709336221218,0.151342257857,-0.313090652227,0.613116681576
1555356923617753650,4073,1555356923617753650,world,-2.89878463745,-0.815040111542,0.797143220901,-0.709250092506,0.151409551501,-0.313256114721,0.613115012646
1555356923627170581,4074,1555356923627170581,world,-2.89877510071,-0.815071344376,0.79724240303,-0.70922523737,0.151241451502,-0.313445717096,0.613088488579
1555356923637574913,4075,1555356923637574913,world,-2.89879798889,-0.815082788467,0.797253608704,-0.709242105484,0.151381313801,-0.31347823143,0.61301779747
1555356923647019874,4076,1555356923647019874,world,-2.89878749847,-0.815052509308,0.797122716904,-0.709328711033,0.151440113783,-0.313417702913,0.61293399334
1555356923657469158,4077,1555356923657469158,world,-2.89874839783,-0.815062761307,0.797021627426,-0.709353148937,0.151643797755,-0.313426584005,0.61285084486
1555356923666810644,4078,1555356923666810644,world,-2.89876270294,-0.815093517303,0.797108888626,-0.709345042706,0.151612564921,-0.313528984785,0.61281555891
1555356923666852723,4079,1555356923666852723,world,-2.89879703522,-0.815071821213,0.797237873077,-0.709171056747,0.151138901711,-0.313314199448,0.613243579865
1555356923696963564,4080,1555356923696963564,world,-2.8987865448,-0.815088510513,0.797273635864,-0.70914965868,0.151387542486,-0.313587933779,0.613067030907
1555356923737217812,4081,1555356923737217812,world,-2.89881324768,-0.815037965775,0.797211408615,-0.709209740162,0.151125222445,-0.313049226999,0.613337635994
1555356923737294575,4083,1555356923737294575,world,-2.89876747131,-0.815051794052,0.797050952911,-0.709277391434,0.151675462723,-0.313508033752,0.612889051437
1555356923747669083,4084,1555356923747669083,world,-2.89879798889,-0.815029859543,0.797135591507,-0.709313929081,0.151086360216,-0.313131958246,0.613184332848
1555356923747751495,4087,1555356923747751495,world,-2.8987865448,-0.81506061554,0.797160148621,-0.709293007851,0.151291355491,-0.313366979361,0.613038003445
1555356923747804611,4088,1555356923747804611,world,-2.89874744415,-0.815070867538,0.797062635422,-0.709285020828,0.15189743042,-0.313607692719,0.612774133682
1555356923757227597,4089,1555356923757227597,world,-2.89879512787,-0.815017938614,0.797099351883,-0.709294199944,0.151413843036,-0.313372939825,0.613003194332
1555356923767705797,4090,1555356923767705797,world,-2.89881801605,-0.815023899078,0.797190904617,-0.709251761436,0.151115104556,-0.313199609518,0.613214671612
1555356923767748474,4091,1555356923767748474,world,-2.89884662628,-0.815026521683,0.797282934189,-0.709162652493,0.151013091207,-0.313086032867,0.613400757313
1555356923787346696,4092,1555356923787346696,world,-2.89882564545,-0.814994096756,0.797210454941,-0.709156513214,0.151130437851,-0.313161253929,0.613340616226
1555356923787385829,4093,1555356923787385829,world,-2.89874267578,-0.815048694611,0.797059297562,-0.70936101675,0.151722118258,-0.313643544912,0.612711369991
1555356923796701841,4094,1555356923796701841,world,-2.89870738983,-0.815064191818,0.797021865845,-0.709398388863,0.151948019862,-0.313694804907,0.6125857234
1555356923826771542,4095,1555356923826771542,world,-2.89876079559,-0.815074205399,0.797148942947,-0.709253787994,0.151676774025,-0.31346476078,0.612938165665
1555356923826865753,4098,1555356923826865753,world,-2.89874744415,-0.815043210983,0.797135353088,-0.709305763245,0.151344537735,-0.313262939453,0.613063335419
1555356923837244117,4099,1555356923837244117,world,-2.89872169495,-0.815104961395,0.797067642212,-0.709273099899,0.151810884476,-0.313528418541,0.61284995079
1555356923847598881,4100,1555356923847598881,world,-2.8987531662,-0.815112829208,0.797142028809,-0.709276258945,0.151678591967,-0.313488632441,0.612899422646
1555356923856931627,4101,1555356923856931627,world,-2.89880275726,-0.815027236938,0.797240257263,-0.709264993668,0.151093006134,-0.31286907196,0.61337351799
1555356923867320541,4102,1555356923867320541,world,-2.89880561829,-0.815025091171,0.797242879868,-0.709261238575,0.151157468557,-0.313026487827,0.613281607628
1555356923877645289,4103,1555356923877645289,world,-2.89881801605,-0.815005064011,0.797184467316,-0.709264338017,0.151041120291,-0.312921226025,0.613360524178
1555356923886972779,4104,1555356923886972779,world,-2.89875888824,-0.815059661865,0.797099113464,-0.709293007851,0.151555716991,-0.313584417105,0.612861335278
1555356923887026131,4105,1555356923887026131,world,-2.89874267578,-0.815042972565,0.797052145004,-0.709280073643,0.151926785707,-0.313718378544,0.612716078758
1555356923897523637,4106,1555356923897523637,world,-2.89879322052,-0.815033197403,0.797177553177,-0.709286153316,0.151601657271,-0.31351146102,0.612895429134
1555356923917224391,4107,1555356923917224391,world,-2.89882946014,-0.814988613129,0.797280550003,-0.709145843983,0.151066929102,-0.313108235598,0.613395571709
1555356923917287048,4109,1555356923917287048,world,-2.89876556396,-0.815030574799,0.797099351883,-0.709359288216,0.151405498385,-0.313376992941,0.612927854061
1555356923927583860,4110,1555356923927583860,world,-2.89869308472,-0.815085411072,0.797009706497,-0.709377646446,0.152085348964,-0.313670128584,0.612588346004
1555356923936839930,4111,1555356923936839930,world,-2.89876556396,-0.815042257309,0.797170877457,-0.709236621857,0.151398599148,-0.313115954399,0.613204956055
1555356923947217010,4112,1555356923947217010,world,-2.8987865448,-0.815055847168,0.797293663025,-0.709177076817,0.151003196836,-0.313040882349,0.6134095788
1555356923957616860,4113,1555356923957616860,world,-2.89875602722,-0.815047264099,0.797281265259,-0.709190607071,0.151190817356,-0.313132762909,0.613300800323
1555356923966922991,4114,1555356923966922991,world,-2.89873027802,-0.81503367424,0.797164440155,-0.709274053574,0.151413738728,-0.313185453415,0.613122463226
1555356923966954369,4115,1555356923966954369,world,-2.89866256714,-0.815089225769,0.797029733658,-0.709416389465,0.151976883411,-0.313730478287,0.6125395298
1555356923977318755,4116,1555356923977318755,world,-2.89868545532,-0.815063238144,0.797086000443,-0.709386646748,0.15169069171,-0.313761293888,0.612629055977
1555356924007432167,4117,1555356924007432167,world,-2.89877510071,-0.815049648285,0.797254800797,-0.709253132343,0.151310175657,-0.313243418932,0.613142609596
1555356924027097610,4118,1555356924027097610,world,-2.89880561829,-0.815025568008,0.797313451767,-0.709167003632,0.150878548622,-0.312900185585,0.613523721695
1555356924027139012,4119,1555356924027139012,world,-2.89879131317,-0.815057277679,0.797201871872,-0.709307432175,0.151296496391,-0.313078522682,0.613167285919
1555356924027184769,4120,1555356924027184769,world,-2.89876174927,-0.815031528473,0.797071933746,-0.709308028221,0.151529893279,-0.313143342733,0.613075911999
1555356924027206876,4121,1555356924027206876,world,-2.89872550964,-0.815103054047,0.797028541565,-0.709340155125,0.152029067278,-0.313831150532,0.612563252449
1555356924037639531,4122,1555356924037639531,world,-2.89879226685,-0.815087556839,0.797183036804,-0.709243357182,0.15146073699,-0.313429504633,0.613021731377
1555356924037681164,4123,1555356924037681164,world,-2.89882564545,-0.815036773682,0.797300338745,-0.709165692329,0.150813683867,-0.313046067953,0.61346668005
1555356924047070141,4124,1555356924047070141,world,-2.89879131317,-0.815050601959,0.797251462936,-0.709199488163,0.151355355978,-0.31332758069,0.613150477409
1555356924057453938,4125,1555356924057453938,world,-2.89873504639,-0.815068721771,0.79713177681,-0.709295868874,0.151693686843,-0.313530534506,0.612851560116
1555356924066741530,4126,1555356924066741530,world,-2.89870929718,-0.815094947815,0.79704451561,-0.709345400333,0.151938706636,-0.313668549061,0.612662911415
1555356924066794980,4127,1555356924066794980,world,-2.89874362946,-0.815019845963,0.797124624252,-0.70925706625,0.151318177581,-0.31322440505,0.613145768642
1555356924077108106,4128,1555356924077108106,world,-2.89879989624,-0.81499838829,0.797266244888,-0.709227025509,0.150848731399,-0.312833994627,0.613495528698
1555356924086689994,4129,1555356924086689994,world,-2.8987827301,-0.814999341965,0.797314882278,-0.709157466888,0.150928199291,-0.312906861305,0.613519191742
1555356924097064209,4130,1555356924097064209,world,-2.89875793457,-0.815045595169,0.797207593918,-0.709268331528,0.151330530643,-0.313070416451,0.613208293915
1555356924107574055,4131,1555356924107574055,world,-2.89871311188,-0.815049886703,0.79708313942,-0.709455549717,0.15148177743,-0.31328573823,0.612844347954
1555356924107620758,4132,1555356924107620758,world,-2.89870643616,-0.815036058426,0.797049760818,-0.709355592728,0.151592433453,-0.313315153122,0.612917661667
1555356924127221540,4133,1555356924127221540,world,-2.89877414703,-0.81502532959,0.797189950943,-0.709203004837,0.151215136051,-0.313091993332,0.613301277161
1555356924137544123,4134,1555356924137544123,world,-2.89879417419,-0.815036296844,0.79731798172,-0.709116578102,0.151037737727,-0.313061326742,0.613460481167
1555356924137583099,4135,1555356924137583099,world,-2.89879512787,-0.815063476562,0.797265291214,-0.709103345871,0.151351928711,-0.313273072243,0.613290309906
1555356924147015806,4136,1555356924147015806,world,-2.89873409271,-0.815095424652,0.797117471695,-0.709293723106,0.151868626475,-0.313571423292,0.612789809704
1555356924157475835,4137,1555356924157475835,world,-2.89872360229,-0.81508898735,0.797021389008,-0.709451317787,0.151959106326,-0.31364390254,0.612547814846
1555356924166759230,4138,1555356924166759230,world,-2.89876270294,-0.815083026886,0.797107219696,-0.709248125553,0.151778370142,-0.313541203737,0.612880349159
1555356924177168034,4139,1555356924177168034,world,-2.8988199234,-0.815035581589,0.797265529633,-0.70915055275,0.151119351387,-0.31309056282,0.613386392593
1555356924177214858,4140,1555356924177214858,world,-2.89882564545,-0.81507897377,0.797281503677,-0.709130108356,0.151255577803,-0.313427746296,0.61320412159
1555356924187595032,4141,1555356924187595032,world,-2.89879226685,-0.815062046051,0.797167301178,-0.709290981293,0.151359975338,-0.313243508339,0.613086462021
1555356924196941762,4142,1555356924196941762,world,-2.89873218536,-0.815130710602,0.797065019608,-0.709353685379,0.151893973351,-0.313729047775,0.612633466721
1555356924226713306,4143,1555356924226713306,world,-2.89873981476,-0.815089702606,0.797072649002,-0.709313213825,0.151632815599,-0.313587367535,0.612817406654
1555356924226755909,4144,1555356924226755909,world,-2.89880084991,-0.815022230148,0.79719877243,-0.709225475788,0.151162713766,-0.313166052103,0.613250374794
1555356924226808117,4145,1555356924226808117,world,-2.89878845215,-0.815046310425,0.797229766846,-0.709271013737,0.151212066412,-0.313081294298,0.613228917122
1555356924226832893,4146,1555356924226832893,world,-2.89879894257,-0.815040588379,0.797230005264,-0.709244549274,0.151128023863,-0.313128858805,0.613255858421
1555356924247575521,4147,1555356924247575521,world,-2.89879322052,-0.815030813217,0.797171115875,-0.709230542183,0.151330038905,-0.313181370497,0.613195359707
1555356924247617000,4148,1555356924247617000,world,-2.89874172211,-0.815037250519,0.797080278397,-0.709331989288,0.151748418808,-0.313516259193,0.612803459167
1555356924256913324,4149,1555356924256913324,world,-2.89874362946,-0.815020799637,0.797113656998,-0.709343194962,0.151365816593,-0.313222050667,0.613035678864
1555356924267248935,4150,1555356924267248935,world,-2.89876842499,-0.815017938614,0.79718542099,-0.70927721262,0.151268869638,-0.313225537539,0.613134026527
1555356924267287654,4151,1555356924267287654,world,-2.89879608154,-0.815050601959,0.79721903801,-0.709229946136,0.151456654072,-0.313291072845,0.613108873367
1555356924277681304,4152,1555356924277681304,world,-2.89883041382,-0.815042257309,0.797240257263,-0.709187090397,0.151151448488,-0.313057690859,0.613352894783
1555356924287010462,4153,1555356924287010462,world,-2.89873886108,-0.81512761116,0.797117948532,-0.709261476994,0.151798933744,-0.313770800829,0.612742304802
1555356924297450965,4154,1555356924297450965,world,-2.89875125885,-0.815059185028,0.797114610672,-0.709298849106,0.151464760303,-0.313271403313,0.613037109375
1555356924306709437,4155,1555356924306709437,world,-2.89874362946,-0.815111637115,0.797130584717,-0.70925116539,0.151733577251,-0.313603043556,0.612856388092
1555356924347057549,4156,1555356924347057549,world,-2.89875507355,-0.815106630325,0.797203779221,-0.709233045578,0.151453018188,-0.313628315926,0.61293387413
1555356924347125929,4157,1555356924347125929,world,-2.89877510071,-0.815092802048,0.797233343124,-0.7092872262,0.151463240385,-0.313522011042,0.612923026085
1555356924347154708,4158,1555356924347154708,world,-2.89875411987,-0.815073728561,0.797178506851,-0.709249317646,0.151423543692,-0.313486754894,0.612994551659
1555356924347198365,4159,1555356924347198365,world,-2.89872837067,-0.815081357956,0.797078609467,-0.709237635136,0.151730924845,-0.313513338566,0.612918496132
1555356924347225617,4160,1555356924347225617,world,-2.89874267578,-0.815029144287,0.797119379044,-0.709235370159,0.151715859771,-0.31336042285,0.613003194332
1555356924357662520,4161,1555356924357662520,world,-2.89876842499,-0.815038442612,0.797204971313,-0.709242641926,0.151500493288,-0.313319146633,0.613068938255
1555356924367059711,4162,1555356924367059711,world,-2.8987865448,-0.815037250519,0.797253370285,-0.709265291691,0.151169508696,-0.313102543354,0.613235116005
1555356924386708051,4163,1555356924386708051,world,-2.89879131317,-0.815042495728,0.797210693359,-0.709303557873,0.151128992438,-0.312940567732,0.613283574581
1555356924386768567,4164,1555356924386768567,world,-2.89872646332,-0.815043210983,0.797104358673,-0.709303736687,0.151575610042,-0.313320726156,0.612978875637
1555356924397091571,4165,1555356924397091571,world,-2.89875984192,-0.815074205399,0.797116994858,-0.709216237068,0.15174280107,-0.313398450613,0.612999141216
1555356924397152419,4166,1555356924397152419,world,-2.89877414703,-0.815067052841,0.797205209732,-0.709200620651,0.151317298412,-0.313142299652,0.613253116608
1555356924407472123,4167,1555356924407472123,world,-2.89879989624,-0.815094947815,0.797239303589,-0.709177672863,0.151442751288,-0.313301056623,0.613167703152
1555356924416750565,4168,1555356924416750565,world,-2.89879226685,-0.815064907074,0.797179460526,-0.709227859974,0.151360422373,-0.313303738832,0.6131285429
1555356924427034703,4169,1555356924427034703,world,-2.89875411987,-0.815064668655,0.797087192535,-0.709274530411,0.151599049568,-0.313516259193,0.612906932831
1555356924427097307,4170,1555356924427097307,world,-2.89876937866,-0.815088272095,0.797106981277,-0.709250032902,0.15164873004,-0.313385993242,0.612989783287
1555356924437523844,4171,1555356924437523844,world,-2.89880752563,-0.815056085587,0.797202587128,-0.709291100502,0.15118996799,-0.313129752874,0.613186299801
1555356924457375148,4172,1555356924457375148,world,-2.89882946014,-0.815069675446,0.797231197357,-0.709263801575,0.151215553284,-0.313247203827,0.613151550293
1555356924457443239,4173,1555356924457443239,world,-2.89883041382,-0.815011262894,0.797215461731,-0.70920342207,0.150738492608,-0.312891125679,0.613520681858
1555356924466769018,4174,1555356924466769018,world,-2.89877319336,-0.815072059631,0.7971367836,-0.709222972393,0.151558920741,-0.313449472189,0.613010823727
1555356924466838340,4175,1555356924466838340,world,-2.89875030518,-0.815083503723,0.797102451324,-0.709309458733,0.151734635234,-0.313644021749,0.612767636776
1555356924477259860,4176,1555356924477259860,world,-2.89877128601,-0.815080881119,0.797169923782,-0.709242522717,0.151515588164,-0.313324898481,0.613062560558
1555356924487658552,4177,1555356924487658552,world,-2.89877700806,-0.81508564949,0.797224283218,-0.709203839302,0.151536628604,-0.313352674246,0.613087832928
1555356924497066122,4178,1555356924497066122,world,-2.89881801605,-0.815012454987,0.797255039215,-0.709175169468,0.151058465242,-0.312868267298,0.613486170769
1555356924507472755,4179,1555356924507472755,world,-2.89878559113,-0.815039157867,0.797157764435,-0.709286391735,0.151238113642,-0.313188999891,0.613149762154
1555356924516746250,4180,1555356924516746250,world,-2.89874267578,-0.815050601959,0.797095298767,-0.709326028824,0.151632130146,-0.313436627388,0.612879991531
1555356924546925123,4181,1555356924546925123,world,-2.89872837067,-0.815069675446,0.797116756439,-0.709351539612,0.151817917824,-0.313576221466,0.612732887268
1555356924557373855,4182,1555356924557373855,world,-2.89873123169,-0.815086841583,0.797165155411,-0.709320604801,0.151895970106,-0.313685446978,0.612693428993
1555356924557414887,4183,1555356924557414887,world,-2.89877223969,-0.815080165863,0.797236204147,-0.70920753479,0.151510834694,-0.313257813454,0.613138437271
1555356924557462742,4184,1555356924557462742,world,-2.89877319336,-0.815040111542,0.797205924988,-0.709234952927,0.15117162466,-0.313113212585,0.613264322281
1555356924557487440,4185,1555356924557487440,world,-2.8987569809,-0.815069198608,0.79713010788,-0.709313631058,0.151491761208,-0.313466787338,0.612913608551
1555356924566926463,4186,1555356924566926463,world,-2.89878082275,-0.815058708191,0.797127246857,-0.709243535995,0.151422560215,-0.313114523888,0.613191843033
1555356924566974394,4187,1555356924566974394,world,-2.89877128601,-0.815084218979,0.797182321548,-0.709198534489,0.151482850313,-0.313251912594,0.61315882206
1555356924577286595,4188,1555356924577286595,world,-2.89881229401,-0.815064191818,0.797240495682,-0.709178745747,0.15117380023,-0.312965303659,0.613404154778
1555356924587557375,4189,1555356924587557375,world,-2.89881896973,-0.815084695816,0.79722738266,-0.709093213081,0.151190385222,-0.313215941191,0.6133710742
1555356924596859792,4190,1555356924596859792,world,-2.89878463745,-0.815101385117,0.797182321548,-0.709276974201,0.151529401541,-0.313499838114,0.612929701805
1555356924607267683,4191,1555356924607267683,world,-2.89877510071,-0.815090179443,0.797155380249,-0.709267795086,0.151683107018,-0.31348824501,0.612908184528
1555356924617662911,4192,1555356924617662911,world,-2.89879131317,-0.815089225769,0.797156572342,-0.709288656712,0.151461809874,-0.313380271196,0.612994074821
1555356924637476802,4193,1555356924637476802,world,-2.89878177643,-0.815057992935,0.797177553177,-0.709223806858,0.1514724195,-0.313219219446,0.613148808479
1555356924637520966,4194,1555356924637520966,world,-2.8988237381,-0.815031766891,0.797182798386,-0.709198594093,0.151335164905,-0.313015192747,0.613315999508
1555356924637557298,4195,1555356924637557298,world,-2.89880371094,-0.81507062912,0.797173261642,-0.70925116539,0.15157443285,-0.313343405724,0.613028526306
1555356924647027299,4196,1555356924647027299,world,-2.89880084991,-0.815036773682,0.79717707634,-0.709263980389,0.151281222701,-0.313279360533,0.613118827343
1555356924657541688,4197,1555356924657541688,world,-2.8987827301,-0.815072774887,0.797156095505,-0.70932251215,0.151583939791,-0.313474923372,0.612876296043
1555356924666935874,4198,1555356924666935874,world,-2.89878082275,-0.815037488937,0.797192811966,-0.709314823151,0.1512170434,-0.313237190247,0.613097429276
1555356924677337867,4199,1555356924677337867,world,-2.89878177643,-0.815081834793,0.797160387039,-0.709301531315,0.151554375887,-0.313626915216,0.612830281258
1555356924677378339,4200,1555356924677378339,world,-2.89879417419,-0.815018892288,0.797172784805,-0.709247469902,0.151167199016,-0.313097923994,0.613258779049
1555356924686677097,4201,1555356924686677097,world,-2.8987531662,-0.815079689026,0.797147512436,-0.709254086018,0.15164873004,-0.313335448503,0.613010764122
1555356924697074557,4202,1555356924697074557,world,-2.89876556396,-0.815067768097,0.797140598297,-0.70932251215,0.151657611132,-0.31348747015,0.61285173893
1555356924707525005,4203,1555356924707525005,world,-2.89881134033,-0.815031766891,0.797200679779,-0.709175169468,0.151256293058,-0.31312340498,0.613307356834
1555356924716813082,4204,1555356924716813082,world,-2.89878082275,-0.815093755722,0.797150373459,-0.709205687046,0.151712685823,-0.31353405118,0.612949490547
1555356924716854675,4205,1555356924716854675,world,-2.89879226685,-0.815060377121,0.797159671783,-0.709189474583,0.151418715715,-0.313335925341,0.613142132759
1555356924747596974,4206,1555356924747596974,world,-2.89879703522,-0.8150806427,0.797151088715,-0.709237277508,0.151667848229,-0.313512325287,0.612935125828
1555356924747637435,4207,1555356924747637435,world,-2.89879226685,-0.815050125122,0.79719042778,-0.709283947945,0.151299104095,-0.31323620677,0.613113343716
1555356924747692112,4208,1555356924747692112,world,-2.89880657196,-0.815044641495,0.797205686569,-0.709293186665,0.151080578566,-0.31309607625,0.613228201866
1555356924757036584,4209,1555356924757036584,world,-2.89876365662,-0.815087080002,0.797163724899,-0.709308505058,0.15175960958,-0.313652604818,0.612758100033
1555356924767368484,4210,1555356924767368484,world,-2.89876747131,-0.815082788467,0.797148704529,-0.709279596806,0.151527613401,-0.313469320536,0.612942814827
1555356924777751934,4211,1555356924777751934,world,-2.89875602722,-0.815070867538,0.797141551971,-0.709243297577,0.151443719864,-0.313336849213,0.613073348999
1555356924777789383,4212,1555356924777789383,world,-2.89873695374,-0.815079927444,0.797143697739,-0.709309339523,0.15157866478,-0.313365936279,0.612948656082
1555356924787162605,4213,1555356924787162605,world,-2.89877986908,-0.815054178238,0.797193527222,-0.709216654301,0.151226848364,-0.313113123178,0.613271832466
1555356924797606456,4214,1555356924797606456,world,-2.89877414703,-0.815110206604,0.79718375206,-0.709147393703,0.151377484202,-0.313562124968,0.613085448742
1555356924817408866,4215,1555356924817408866,world,-2.89877414703,-0.815081119537,0.797163248062,-0.709201872349,0.151415199041,-0.313391000032,0.613100647926
1555356924817445011,4216,1555356924817445011,world,-2.8987569809,-0.815083742142,0.797129154205,-0.709337413311,0.151541694999,-0.313388675451,0.612913787365
1555356924817504127,4217,1555356924817504127,world,-2.89875984192,-0.815080404282,0.797134876251,-0.709316909313,0.151418909431,-0.313378185034,0.612973153591
1555356924837087865,4218,1555356924837087865,world,-2.89876174927,-0.815056324005,0.797176599503,-0.709240019321,0.151352316141,-0.313372641802,0.613081336021
1555356924837133932,4219,1555356924837133932,world,-2.89875793457,-0.81512594223,0.79718208313,-0.709247946739,0.151763603091,-0.313694685698,0.612805783749
1555356924847516346,4220,1555356924847516346,world,-2.89877510071,-0.815048933029,0.797197341919,-0.70920497179,0.151206046343,-0.313237845898,0.613226771355
1555356924856882309,4221,1555356924856882309,world,-2.89875125885,-0.815102815628,0.79709649086,-0.709289848804,0.151825517416,-0.313576877117,0.612802147865
1555356924867343203,4222,1555356924867343203,world,-2.89879512787,-0.815026044846,0.797144889832,-0.709346592426,0.151035100222,-0.313003331423,0.613224864006
1555356924867379018,4223,1555356924867379018,world,-2.89878749847,-0.815083742142,0.797154188156,-0.709364414215,0.151397049427,-0.313331842422,0.612947225571
1555356924887145895,4224,1555356924887145895,world,-2.89882278442,-0.815045118332,0.797228574753,-0.709211468697,0.151041314006,-0.313105553389,0.6133274436
1555356924887197843,4225,1555356924887197843,world,-2.89878082275,-0.815100431442,0.79719209671,-0.709241092205,0.151422604918,-0.313438743353,0.613028943539
1555356924897526189,4226,1555356924897526189,world,-2.89874744415,-0.815126419067,0.797081947327,-0.709288418293,0.151641577482,-0.313578903675,0.61284840107
1555356924906873965,4227,1555356924906873965,world,-2.89874839783,-0.815116167068,0.797116756439,-0.709247350693,0.151570141315,-0.313559293747,0.612923622131
1555356924917335238,4228,1555356924917335238,world,-2.89877796173,-0.815115451813,0.797170639038,-0.709226489067,0.151472792029,-0.313505738974,0.612999141216
1555356924927786739,4229,1555356924927786739,world,-2.89878463745,-0.815118074417,0.797233104706,-0.709222078323,0.15126144886,-0.31333053112,0.613146066666
1555356924927837374,4230,1555356924927837374,world,-2.89880752563,-0.815051555634,0.797199487686,-0.70921087265,0.150918602943,-0.313022971153,0.61340045929
1555356924947390949,4231,1555356924947390949,world,-2.89876270294,-0.815068483353,0.79710650444,-0.709366381168,0.151573568583,-0.313326179981,0.612904191017
1555356924947461144,4232,1555356924947461144,world,-2.89876556396,-0.815052747726,0.797114372253,-0.709344685078,0.151484102011,-0.313284814358,0.612972617149
1555356924956791859,4233,1555356924956791859,world,-2.89877128601,-0.815056800842,0.797144651413,-0.709291338921,0.151481032372,-0.313351362944,0.613001048565
1555356924967175363,4234,1555356924967175363,world,-2.89882659912,-0.815012693405,0.797233581543,-0.709186434746,0.151183888316,-0.313022464514,0.613363683224
1555356924977501689,4235,1555356924977501689,world,-2.89879417419,-0.814994573593,0.797231435776,-0.709210634232,0.150993704796,-0.313077092171,0.613354682922
1555356924986828522,4236,1555356924986828522,world,-2.89873600006,-0.815065383911,0.797117710114,-0.709276258945,0.151585906744,-0.313529282808,0.612901568413
1555356924986899696,4237,1555356924986899696,world,-2.89877033234,-0.81499171257,0.797101974487,-0.709258854389,0.151271373034,-0.313219338655,0.613157868385
1555356925007674139,4238,1555356925007674139,world,-2.8987531662,-0.815097332001,0.797092914581,-0.709280967712,0.151900589466,-0.313848972321,0.612654447556
1555356925007743646,4239,1555356925007743646,world,-2.89877223969,-0.8150806427,0.797209024429,-0.709256649017,0.151257753372,-0.313239455223,0.613153457642
1555356925027459465,4240,1555356925027459465,world,-2.89880561829,-0.815066576004,0.79727101326,-0.709202826023,0.151277095079,-0.313166767359,0.613247990608
1555356925047061474,4241,1555356925047061474,world,-2.89878082275,-0.815064907074,0.79717206955,-0.709203898907,0.151349052787,-0.313258498907,0.613182246685
1555356925047130515,4242,1555356925047130515,world,-2.89875221252,-0.815095424652,0.7970662117,-0.709248363972,0.151520103216,-0.313420325518,0.613005757332
1555356925047161141,4243,1555356925047161141,world,-2.89871501923,-0.815146207809,0.797017812729,-0.709354043007,0.151889964938,-0.313895314932,0.61254876852
1555356925047186525,4244,1555356925047186525,world,-2.89879608154,-0.815062046051,0.797174215317,-0.709276020527,0.15131303668,-0.313118726015,0.613179087639
1555356925057499848,4245,1555356925057499848,world,-2.89879894257,-0.815087795258,0.797251701355,-0.709179341793,0.15130494535,-0.313338845968,0.613180577755
1555356925066758153,4246,1555356925066758153,world,-2.8988161087,-0.815046787262,0.797275781631,-0.709243237972,0.150729969144,-0.313034892082,0.613403379917
1555356925066799804,4247,1555356925066799804,world,-2.89878749847,-0.815073490143,0.797137022018,-0.709260940552,0.151459932327,-0.313445329666,0.612993478775
1555356925077228215,4248,1555356925077228215,world,-2.8987493515,-0.815062761307,0.797038793564,-0.709275960922,0.151738464832,-0.313544034958,0.612856626511
1555356925086837754,4249,1555356925086837754,world,-2.89876747131,-0.81507229805,0.797103643417,-0.709238469601,0.151539906859,-0.313602179289,0.612919509411
1555356925097173273,4250,1555356925097173273,world,-2.89882278442,-0.815036058426,0.797239303589,-0.709147691727,0.151123762131,-0.313280582428,0.613291501999
1555356925107509638,4251,1555356925107509638,world,-2.89881706238,-0.815037250519,0.797296762466,-0.7090690732,0.151010245085,-0.313161045313,0.613471388817
1555356925116903580,4252,1555356925116903580,world,-2.89879894257,-0.815032720566,0.7971971035,-0.709250688553,0.151064813137,-0.313238024712,0.613208770752
1555356925127329694,4253,1555356925127329694,world,-2.8987569809,-0.815077543259,0.797047138214,-0.709360957146,0.151669844985,-0.313556164503,0.612769067287
1555356925147181907,4254,1555356925147181907,world,-2.89875030518,-0.815055370331,0.797063112259,-0.709350645542,0.151512414217,-0.313442736864,0.612877964973
1555356925147222894,4255,1555356925147222894,world,-2.89878749847,-0.815062999725,0.797154188156,-0.709241092205,0.151324614882,-0.313363403082,0.613091647625
1555356925147269144,4256,1555356925147269144,world,-2.89880943298,-0.815056085587,0.797232627869,-0.709221124649,0.151184439659,-0.31321823597,0.613223552704
1555356925157642889,4257,1555356925157642889,world,-2.89881324768,-0.815056324005,0.797240257263,-0.709183633327,0.151216998696,-0.31329369545,0.613220274448
1555356925166988289,4258,1555356925166988289,world,-2.8987865448,-0.815081596375,0.797155857086,-0.709258794785,0.151541233063,-0.31344473362,0.612976074219
1555356925177385053,4259,1555356925177385053,world,-2.89876937866,-0.815084457397,0.797103643417,-0.709237098694,0.151590943336,-0.313337802887,0.613043546677
1555356925177423151,4260,1555356925177423151,world,-2.89876651764,-0.81508731842,0.797127485275,-0.709241986275,0.151395782828,-0.313344091177,0.613082826138
1555356925186723845,4261,1555356925186723845,world,-2.89880180359,-0.815076112747,0.797164201736,-0.709170818329,0.151379883289,-0.313408374786,0.613136291504
1555356925197122190,4262,1555356925197122190,world,-2.89882469177,-0.815078496933,0.797246456146,-0.709122180939,0.151219129562,-0.313388586044,0.613242387772
1555356925207572785,4263,1555356925207572785,world,-2.89883136749,-0.815078020096,0.797238111496,-0.709172189236,0.151060685515,-0.313368409872,0.613233983517
1555356925217029699,4264,1555356925217029699,world,-2.89878463745,-0.815129995346,0.797155380249,-0.709179461002,0.151743918657,-0.313768416643,0.612852215767
1555356925227485329,4265,1555356925227485329,world,-2.8987865448,-0.815036535263,0.797133207321,-0.709211528301,0.151320621371,-0.313286155462,0.61316627264
1555356925227525548,4266,1555356925227525548,world,-2.89876937866,-0.815069675446,0.79709815979,-0.709265172482,0.151487573981,-0.31333860755,0.613036334515
1555356925247129065,4267,1555356925247129065,world,-2.89882469177,-0.815038442612,0.797229528427,-0.709122240543,0.151010066271,-0.313151270151,0.613415122032
1555356925247168467,4268,1555356925247168467,world,-2.89882278442,-0.815065145493,0.797264575958,-0.709099709988,0.151199445128,-0.313428372145,0.613252818584
1555356925257487133,4269,1555356925257487133,world,-2.89881229401,-0.815074682236,0.797225952148,-0.709111392498,0.151230126619,-0.313461631536,0.613214850426
1555356925266755294,4270,1555356925266755294,world,-2.89877891541,-0.8150370121,0.797093391418,-0.709233224392,0.151172861457,-0.313196271658,0.613223731518
1555356925266796388,4271,1555356925266796388,world,-2.89876461029,-0.815078496933,0.797056913376,-0.709246456623,0.151687473059,-0.313682824373,0.612832427025
1555356925287661813,4272,1555356925287661813,world,-2.89881038666,-0.815052270889,0.797188997269,-0.70916134119,0.150869995356,-0.313100606203,0.613430142403
1555356925297057352,4273,1555356925297057352,world,-2.8988237381,-0.815075874329,0.797266721725,-0.709064126015,0.150948449969,-0.313128203154,0.613509118557
1555356925297098200,4274,1555356925297098200,world,-2.89884185791,-0.815040111542,0.797239780426,-0.709142029285,0.150883048773,-0.313007026911,0.613496899605
1555356925307500078,4275,1555356925307500078,world,-2.89878940582,-0.81504535675,0.797124624252,-0.709216833115,0.151143908501,-0.313162326813,0.613266944885
1555356925316865134,4276,1555356925316865134,world,-2.8987455368,-0.815113306046,0.797075271606,-0.709299445152,0.151767536998,-0.313754171133,0.612714707851
1555356925316906423,4277,1555356925316906423,world,-2.89880180359,-0.81504368782,0.797157764435,-0.709245681763,0.151214540005,-0.313086867332,0.613254785538
1555356925337681625,4278,1555356925337681625,world,-2.89880752563,-0.815085887909,0.797202587128,-0.7091832757,0.151621848345,-0.313510924578,0.613009572029
1555356925337722977,4279,1555356925337722977,world,-2.89882087708,-0.815023422241,0.797218322754,-0.709192037582,0.150911211967,-0.312971830368,0.613450050354
1555356925357353441,4280,1555356925357353441,world,-2.89878463745,-0.815076351166,0.797135829926,-0.709269464016,0.151631221175,-0.313373655081,0.612977921963
1555356925357395195,4281,1555356925357395195,world,-2.89879417419,-0.815050840378,0.797113656998,-0.709288239479,0.151502892375,-0.313391536474,0.612978637218
1555356925366755080,4282,1555356925366755080,world,-2.8987903595,-0.815054178238,0.797144412994,-0.709239602089,0.15137962997,-0.31329998374,0.613112151623
1555356925377240075,4283,1555356925377240075,world,-2.89879798889,-0.815073251724,0.797186613083,-0.709238290787,0.151216566563,-0.313293814659,0.61315703392
1555356925377318049,4284,1555356925377318049,world,-2.89881801605,-0.815042257309,0.797240018845,-0.709181547165,0.151101112366,-0.31311917305,0.613340377808
1555356925387755168,4285,1555356925387755168,world,-2.89879322052,-0.815098762512,0.797200679779,-0.709146440029,0.151521608233,-0.313587397337,0.613038003445
1555356925397205201,4286,1555356925397205201,world,-2.89873695374,-0.815101146698,0.797100782394,-0.709253907204,0.151680096984,-0.31370434165,0.612814605236
1555356925407645071,4287,1555356925407645071,world,-2.89877414703,-0.815066814423,0.797093868256,-0.709289073944,0.151421666145,-0.313409209251,0.612988710403
1555356925416961355,4288,1555356925416961355,world,-2.8987865448,-0.815058469772,0.797117710114,-0.709351837635,0.151209563017,-0.313218146563,0.613066077232
1555356925417000022,4289,1555356925417000022,world,-2.89880943298,-0.815056085587,0.797214984894,-0.709166705608,0.151142880321,-0.313192099333,0.613310039043
1555356925427357644,4290,1555356925427357644,world,-2.89880752563,-0.815083265305,0.797242879868,-0.709179103374,0.151351377368,-0.313336461782,0.613170564175
1555356925436694678,4291,1555356925436694678,world,-2.89878845215,-0.815086841583,0.797165632248,-0.709253370762,0.151468485594,-0.313469201326,0.612987875938
1555356925447026437,4292,1555356925447026437,world,-2.89876365662,-0.81507897377,0.797050237656,-0.709277868271,0.151451528072,-0.313474178314,0.612961053848
1555356925457384012,4293,1555356925457384012,world,-2.89875507355,-0.815106391907,0.7970495224,-0.709281027317,0.15188780427,-0.313684999943,0.612741589546
1555356925467798136,4294,1555356925467798136,world,-2.89879131317,-0.815087795258,0.797166347504,-0.70924025774,0.151435285807,-0.313524067402,0.612983107567
1555356925467839278,4295,1555356925467839278,world,-2.8988571167,-0.81507396698,0.797285556793,-0.709149181843,0.151003807783,-0.313122570515,0.613400101662
1555356925477201128,4296,1555356925477201128,world,-2.89882564545,-0.815063238144,0.797244787216,-0.709168195724,0.151077508926,-0.31327021122,0.61328458786
1555356925487634188,4297,1555356925487634188,world,-2.89880561829,-0.815066814423,0.797116994858,-0.709240436554,0.151213943958,-0.313217520714,0.613194227219
1555356925496961629,4298,1555356925496961629,world,-2.89876937866,-0.815056562424,0.797067165375,-0.709292054176,0.151421174407,-0.31312033534,0.613132894039
1555356925507285997,4299,1555356925507285997,world,-2.89879703522,-0.815073490143,0.797135353088,-0.709227085114,0.151512026787,-0.31336081028,0.613062858582
1555356925517614355,4300,1555356925517614355,world,-2.89879703522,-0.815093517303,0.797228097916,-0.709169507027,0.151443824172,-0.313466757536,0.613092124462
1555356925517659302,4301,1555356925517659302,world,-2.89879226685,-0.81507062912,0.797260761261,-0.709159851074,0.151152968407,-0.313399791718,0.613209247589
1555356925526985633,4302,1555356925526985633,world,-2.89879703522,-0.815049886703,0.79717373848,-0.709191083908,0.151408553123,-0.313283324242,0.613169670105
1555356925537433502,4303,1555356925537433502,world,-2.89878940582,-0.815037727356,0.797087669373,-0.709220170975,0.151431798935,-0.313306093216,0.613118648529
1555356925557139754,4304,1555356925557139754,world,-2.89879703522,-0.815067768097,0.797077417374,-0.709284067154,0.151418745518,-0.313292622566,0.61305475235
1555356925557186246,4305,1555356925557186246,world,-2.89880180359,-0.815053701401,0.797166109085,-0.709202826023,0.151139050722,-0.313281685114,0.613223433495
1555356925567523721,4306,1555356925567523721,world,-2.89883708954,-0.815058231354,0.797252416611,-0.709024488926,0.151185423136,-0.313119083643,0.613501191139
1555356925567566061,4307,1555356925567566061,world,-2.89883041382,-0.815050125122,0.7972240448,-0.709088087082,0.15113067627,-0.313091278076,0.613455295563
1555356925576880567,4308,1555356925576880567,world,-2.89876079559,-0.815097808838,0.797133207321,-0.709211468697,0.151588365436,-0.313584297895,0.612947642803
1555356925587294157,4309,1555356925587294157,world,-2.89876842499,-0.815100193024,0.797094583511,-0.709226727486,0.151733085513,-0.313730806112,0.612819373608
1555356925597757311,4310,1555356925597757311,world,-2.89879131317,-0.81507229805,0.797140359879,-0.70920330286,0.151479452848,-0.31354573369,0.613003849983
1555356925607174538,4311,1555356925607174538,world,-2.89882659912,-0.815046072006,0.797214508057,-0.709182858467,0.151257917285,-0.313249081373,0.613233745098
1555356925617573059,4312,1555356925617573059,world,-2.89884471893,-0.815020799637,0.797251224518,-0.709115564823,0.151031047106,-0.31315985322,0.613413214684
1555356925626979018,4313,1555356925626979018,world,-2.89880847931,-0.815074920654,0.797190904617,-0.709220349789,0.15134178102,-0.313529461622,0.613026559353
1555356925627018154,4314,1555356925627018154,world,-2.89881515503,-0.815074443817,0.797116756439,-0.70924705267,0.151383146644,-0.313396304846,0.613053500652
1555356925667503281,4315,1555356925667503281,world,-2.89879512787,-0.815071344376,0.797084093094,-0.709283590317,0.151525259018,-0.313532114029,0.612906694412
1555356925667546066,4316,1555356925667546066,world,-2.89881038666,-0.815057992935,0.797153234482,-0.709202051163,0.151332914829,-0.313461303711,0.613084793091
1555356925667608172,4317,1555356925667608172,world,-2.89887046814,-0.815032243729,0.797249078751,-0.709114551544,0.150782823563,-0.312902331352,0.61360669136
1555356925667664618,4318,1555356925667664618,world,-2.89885425568,-0.815019607544,0.797248125076,-0.709168076515,0.150859281421,-0.313003271818,0.613474547863
1555356925667707805,4319,1555356925667707805,world,-2.8987903595,-0.815077781677,0.797137498856,-0.709211349487,0.151370644569,-0.313494086266,0.613047838211
1555356925697586686,4320,1555356925697586686,world,-2.89878463745,-0.815064191818,0.797079324722,-0.709289610386,0.151479870081,-0.313399612904,0.612978577614
1555356925697652575,4322,1555356925697652575,world,-2.89881420135,-0.815063238144,0.797245740891,-0.709140062332,0.151285409927,-0.313415288925,0.613191604614
1555356925706986153,4323,1555356925706986153,world,-2.89883995056,-0.815016269684,0.797250032425,-0.709094882011,0.150809392333,-0.313134759665,0.613504350185
1555356925717377704,4324,1555356925717377704,world,-2.89879131317,-0.815052270889,0.797115564346,-0.709169447422,0.151501983404,-0.313536792994,0.613041996956
1555356925726675130,4325,1555356925726675130,world,-2.8987865448,-0.815042972565,0.797107219696,-0.709203481674,0.151487350464,-0.31351017952,0.613019943237
1555356925726712837,4326,1555356925726712837,world,-2.89877700806,-0.815078258514,0.797145366669,-0.709226548672,0.151860877872,-0.313701599836,0.612802922726
1555356925737096940,4327,1555356925737096940,world,-2.89881229401,-0.815042734146,0.797208309174,-0.709188461304,0.151531934738,-0.313378095627,0.613093852997
1555356925747494349,4328,1555356925747494349,world,-2.89883613586,-0.814999818802,0.79722738266,-0.709162294865,0.151071578264,-0.313071042299,0.613394618034
1555356925767093166,4329,1555356925767093166,world,-2.89880275726,-0.815060853958,0.797123670578,-0.709253847599,0.151400581002,-0.313403040171,0.613037884235
1555356925767131840,4330,1555356925767131840,world,-2.8987903595,-0.815056324005,0.79714012146,-0.709311187267,0.151282951236,-0.313391894102,0.613006293774
1555356925777639843,4331,1555356925777639843,world,-2.89878463745,-0.815045118332,0.797152280807,-0.709313094616,0.15132664144,-0.313246697187,0.613067567348
1555356925786902403,4332,1555356925786902403,world,-2.89878749847,-0.815018415451,0.797174930573,-0.709277570248,0.151113793254,-0.313100546598,0.613235652447
1555356925786941869,4333,1555356925786941869,world,-2.89877033234,-0.815019130707,0.797214984894,-0.709180653095,0.151159495115,-0.313102155924,0.613335728645
1555356925797410149,4334,1555356925797410149,world,-2.89875888824,-0.815051794052,0.797190904617,-0.709172308445,0.151445537806,-0.313298851252,0.613174319267
1555356925806681159,4335,1555356925806681159,world,-2.89877128601,-0.815072536469,0.797198057175,-0.70927375555,0.151287123561,-0.313246577978,0.613122880459
1555356925817088429,4336,1555356925817088429,world,-2.89875602722,-0.815054893494,0.797138929367,-0.709340572357,0.151434361935,-0.313299059868,0.612982273102
1555356925817131611,4337,1555356925817131611,world,-2.89879798889,-0.815043210983,0.797146558762,-0.709268987179,0.151354119182,-0.313110560179,0.613181293011
1555356925827561808,4338,1555356925827561808,world,-2.89880084991,-0.815030097961,0.797185182571,-0.709229707718,0.15105599165,-0.313054800034,0.613328695297
1555356925836979241,4339,1555356925836979241,world,-2.8987903595,-0.815070867538,0.79719543457,-0.709215342999,0.151331707835,-0.313398689032,0.613101661205
1555356925847392228,4340,1555356925847392228,world,-2.89881801605,-0.815056324005,0.797201395035,-0.709163665771,0.151344656944,-0.313299894333,0.613208770752
1555356925856659250,4341,1555356925856659250,world,-2.89880371094,-0.815041065216,0.797165155411,-0.709206402302,0.151285797358,-0.313203603029,0.613222956657
1555356925866989624,4342,1555356925866989624,world,-2.89879226685,-0.815071582794,0.797137498856,-0.709221422672,0.151631265879,-0.313419371843,0.613010048866
1555356925877373246,4343,1555356925877373246,world,-2.89881324768,-0.81502199173,0.797183036804,-0.709238886833,0.151035174727,-0.312961906195,0.613370597363
1555356925877415130,4344,1555356925877415130,world,-2.8988161087,-0.815085887909,0.797194004059,-0.709203183651,0.151412591338,-0.313338249922,0.613126695156
1555356925886683921,4345,1555356925886683921,world,-2.89880466461,-0.815039634705,0.797214269638,-0.709214150906,0.151072189212,-0.313050240278,0.613345086575
1555356925897120197,4346,1555356925897120197,world,-2.89879322052,-0.815107822418,0.797163486481,-0.709158241749,0.151459008455,-0.313401609659,0.613134741783
1555356925907556968,4347,1555356925907556968,world,-2.89876365662,-0.815073728561,0.797168731689,-0.709318637848,0.151030540466,-0.313163280487,0.613176584244
1555356925916901348,4348,1555356925916901348,world,-2.89873504639,-0.815121173859,0.797212362289,-0.709258258343,0.151414379478,-0.313468307257,0.612996041775
1555356925916940052,4349,1555356925916940052,world,-2.89871788025,-0.815127134323,0.797213792801,-0.709239006042,0.151432335377,-0.313504934311,0.612995147705
1555356925927198045,4350,1555356925927198045,world,-2.89873218536,-0.815099477768,0.797244787216,-0.709159016609,0.151354059577,-0.313264340162,0.613229930401
1555356925946640058,4351,1555356925946640058,world,-2.89870643616,-0.815052747726,0.797199010849,-0.709304869175,0.150973513722,-0.313052088022,0.613263428211
1555356925946660696,4352,1555356925946660696,world,-2.89868354797,-0.815093040466,0.797179698944,-0.709360897541,0.151464119554,-0.313577443361,0.612809002399
1555356925957068109,4353,1555356925957068109,world,-2.89873218536,-0.815001964569,0.797239303589,-0.709280490875,0.150861501694,-0.313068389893,0.613310813904
1555356925967346496,4354,1555356925967346496,world,-2.8987569809,-0.814965963364,0.797225952148,-0.709307134151,0.150824531913,-0.312789529562,0.6134313941
1555356925977746836,4355,1555356925977746836,world,-2.89876461029,-0.814932346344,0.79726099968,-0.709234952927,0.150679469109,-0.312926054001,0.613480806351
1555356925977786795,4356,1555356925977786795,world,-2.89877033234,-0.814934015274,0.797221422195,-0.709278166294,0.150745183229,-0.312848001719,0.613454699516
1555356925987086202,4357,1555356925987086202,world,-2.8987197876,-0.815003871918,0.797186374664,-0.709294974804,0.15130405128,-0.313459008932,0.612985551357
1555356925997421919,4358,1555356925997421919,world,-2.89875221252,-0.814946174622,0.797187566757,-0.7092923522,0.151167675853,-0.313030213118,0.613241374493
1555356926007764733,4359,1555356926007764733,world,-2.89875030518,-0.81500005722,0.797185182571,-0.709223687649,0.15143661201,-0.313400000334,0.613065421581
1555356926017096194,4360,1555356926017096194,world,-2.89878177643,-0.814979553223,0.797235965729,-0.709258139133,0.150993436575,-0.313005715609,0.613336205482
1555356926017169399,4361,1555356926017169399,world,-2.8987903595,-0.815051078796,0.797247648239,-0.709213137627,0.151199445128,-0.313250273466,0.613212525845
1555356926027554563,4362,1555356926027554563,world,-2.89877033234,-0.815044403076,0.79718708992,-0.709309995174,0.150999471545,-0.312936514616,0.613310039043
1555356926037021095,4363,1555356926037021095,world,-2.89877891541,-0.815127134323,0.797146081924,-0.709288597107,0.151223480701,-0.313163518906,0.613163709641
1555356926047358445,4364,1555356926047358445,world,-2.89878177643,-0.815180301666,0.797171115875,-0.709206998348,0.151203781366,-0.31328997016,0.613198399544
1555356926057813500,4365,1555356926057813500,world,-2.89880180359,-0.815211772919,0.79723906517,-0.709189414978,0.151209652424,-0.31313765049,0.613295078278
1555356926067167179,4366,1555356926067167179,world,-2.89876270294,-0.815238952637,0.797266244888,-0.709208607674,0.151440188289,-0.313409298658,0.613077104092
1555356926077624271,4367,1555356926077624271,world,-2.89877700806,-0.815151453018,0.797208070755,-0.709197580814,0.151257961988,-0.312933117151,0.613378167152
1555356926077663266,4368,1555356926077663266,world,-2.89873027802,-0.81519985199,0.797118186951,-0.709356606007,0.151719242334,-0.313496500254,0.612792372704
1555356926097519429,4369,1555356926097519429,world,-2.89873886108,-0.815109491348,0.797186851501,-0.709308385849,0.151337623596,-0.313261270523,0.613062858582
1555356926097565685,4370,1555356926097565685,world,-2.89879512787,-0.815044164658,0.797256231308,-0.709215939045,0.151206582785,-0.312999308109,0.613335728645
1555356926106880132,4371,1555356926106880132,world,-2.89878368378,-0.815001487732,0.797284603119,-0.709151148796,0.150927171111,-0.312827795744,0.613567054272
1555356926117258457,4372,1555356926117258457,world,-2.89870929718,-0.815004587173,0.79717206955,-0.709324836731,0.151243984699,-0.313176870346,0.613109827042
1555356926166733984,4373,1555356926166733984,world,-2.89869499207,-0.815023899078,0.797087192535,-0.709382593632,0.151623040438,-0.31346526742,0.612802147865
1555356926166772349,4374,1555356926166772349,world,-2.89870929718,-0.815046072006,0.797192335129,-0.709323406219,0.151267290115,-0.313375711441,0.613004207611
1555356926166820774,4375,1555356926166820774,world,-2.8987493515,-0.815028190613,0.79723906517,-0.709231138229,0.150979042053,-0.312986254692,0.613380908966
