%time,field.header.seq,field.header.stamp,field.header.frame_id,field.pose.position.x,field.pose.position.y,field.pose.position.z,field.pose.orientation.x,field.pose.orientation.y,field.pose.orientation.z,field.pose.orientation.w
1555357967947302347,9288,1555357967947302347,world,-2.89759635925,-0.8152551651,0.796649217606,-0.708945155144,0.167373493314,-0.317591488361,0.607057392597
1555357967957735986,9289,1555357967957735986,world,-2.89831161499,-0.815359830856,0.796979427338,-0.707202851772,0.162277594209,-0.320311665535,0.609040677547
1555357967957777475,9290,1555357967957777475,world,-2.89859962463,-0.815395355225,0.797190189362,-0.706357836723,0.159941211343,-0.321247845888,0.61014521122
1555357967967118016,9291,1555357967967118016,world,-2.89867115021,-0.815446615219,0.797234296799,-0.70621573925,0.159466922283,-0.321453541517,0.610325455666
1555357967977460441,9292,1555357967977460441,world,-2.89863681793,-0.815446615219,0.797190666199,-0.706373810768,0.159482955933,-0.321167200804,0.610289216042
1555357967986773813,9293,1555357967986773813,world,-2.89789772034,-0.815296411514,0.796778202057,-0.708200752735,0.164945229888,-0.318512678146,0.608107447624
1555357967986845122,9294,1555357967986845122,world,-2.89769649506,-0.815280675888,0.796720981598,-0.708733379841,0.166639044881,-0.317758768797,0.607419073582
1555357968007569813,9295,1555357968007569813,world,-2.89835643768,-0.815398216248,0.797112941742,-0.70682823658,0.16159452498,-0.320406109095,0.609607219696
1555357968016920685,9296,1555357968016920685,world,-2.89862346649,-0.815475225449,0.797290802002,-0.706234753132,0.159738332033,-0.321610510349,0.610149860382
1555357968016968134,9297,1555357968016968134,world,-2.89868736267,-0.815431833267,0.797276496887,-0.706215620041,0.158993288875,-0.321012824774,0.610681176186
1555357968027294219,9298,1555357968027294219,world,-2.8979473114,-0.815362453461,0.796782493591,-0.707998454571,0.164634943008,-0.319039016962,0.608151078224
1555357968037748869,9299,1555357968037748869,world,-2.89773845673,-0.815263271332,0.796689748764,-0.708626568317,0.166343033314,-0.317915707827,0.60754263401
1555357968037798880,9300,1555357968037798880,world,-2.8984003067,-0.815429925919,0.797069311142,-0.706798970699,0.16175314784,-0.320907890797,0.609335064888
1555357968047180679,9301,1555357968047180679,world,-2.898645401,-0.815451383591,0.797281503677,-0.706102252007,0.159521639347,-0.321765750647,0.610278010368
1555357968057597970,9302,1555357968057597970,world,-2.89870643616,-0.815420866013,0.797272920609,-0.70593214035,0.158959582448,-0.321476697922,0.610773563385
1555357968066935318,9303,1555357968066935318,world,-2.89797115326,-0.815335035324,0.79682135582,-0.707941412926,0.16473339498,-0.318762034178,0.608335971832
1555357968077335901,9304,1555357968077335901,world,-2.89771652222,-0.815292596817,0.796684503555,-0.708658099174,0.166417017579,-0.317963302135,0.607460677624
1555357968077375869,9305,1555357968077375869,world,-2.89837551117,-0.81546664238,0.797030210495,-0.706875920296,0.161862149835,-0.320776730776,0.609286129475
1555357968087073734,9306,1555357968087073734,world,-2.89868354797,-0.815454244614,0.797270298004,-0.706103682518,0.159362196922,-0.321403741837,0.610508859158
1555357968106723540,9307,1555357968106723540,world,-2.89797306061,-0.815289258957,0.796998262405,-0.707875967026,0.164267063141,-0.319147586823,0.608336269855
1555357968106766105,9308,1555357968106766105,world,-2.89845848083,-0.815405368805,0.797087669373,-0.706849575043,0.160531580448,-0.320338129997,0.609899103642
1555357968127521378,9309,1555357968127521378,world,-2.89796733856,-0.815346002579,0.796855926514,-0.708082139492,0.164768815041,-0.318918257952,0.608080744743
1555357968127562630,9310,1555357968127562630,world,-2.89778614044,-0.815272808075,0.796833515167,-0.708596467972,0.165991336107,-0.318109422922,0.607572615147
1555357968127615943,9311,1555357968127615943,world,-2.89843559265,-0.815445899963,0.797135829926,-0.706650674343,0.161147102714,-0.32117459178,0.609527230263
1555357968157749325,9312,1555357968157749325,world,-2.8987159729,-0.815415859222,0.797254323959,-0.705960690975,0.158909976482,-0.321534723043,0.610722959042
1555357968157826149,9314,1555357968157826149,world,-2.89779472351,-0.815346479416,0.796812772751,-0.708408653736,0.165951937437,-0.318638831377,0.607524871826
1555357968167151140,9315,1555357968167151140,world,-2.89779186249,-0.815355300903,0.796785831451,-0.708412647247,0.166098326445,-0.318585306406,0.60750824213
1555357968177622663,9316,1555357968177622663,world,-2.89850711823,-0.815434455872,0.797102689743,-0.706616938114,0.160453170538,-0.320991098881,0.609845995903
1555357968177667949,9317,1555357968177667949,world,-2.89876174927,-0.815451860428,0.797255039215,-0.705860137939,0.158514916897,-0.321629226208,0.610891997814
1555357968186969049,9318,1555357968186969049,world,-2.89876842499,-0.815500736237,0.79724407196,-0.705853581429,0.158733382821,-0.322224378586,0.610529243946
1555357968197324312,9319,1555357968197324312,world,-2.89870262146,-0.815502405167,0.797181844711,-0.70622086525,0.159095659852,-0.321683049202,0.610295534134
1555357968207655615,9320,1555357968207655615,world,-2.89797973633,-0.815375089645,0.796806335449,-0.708047628403,0.164799124002,-0.318985164165,0.608077466488
1555357968217103933,9321,1555357968217103933,world,-2.89845561981,-0.815416574478,0.797080516815,-0.706943869591,0.161023154855,-0.320067793131,0.60980206728
1555357968227443520,9322,1555357968227443520,world,-2.8986158371,-0.815419197083,0.797207117081,-0.706323564053,0.159663423896,-0.320898145437,0.610441684723
1555357968227482057,9323,1555357968227482057,world,-2.89863777161,-0.815393924713,0.797234535217,-0.706126511097,0.159377664328,-0.321368277073,0.610496997833
1555357968236796011,9324,1555357968236796011,world,-2.89859485626,-0.81543302536,0.797133684158,-0.706428468227,0.159872993827,-0.321114987135,0.610151350498
1555357968247205497,9325,1555357968247205497,world,-2.89788246155,-0.815296649933,0.796769857407,-0.708216249943,0.165435135365,-0.318693578243,0.607861340046
1555357968257618091,9326,1555357968257618091,world,-2.89766025543,-0.81521487236,0.796720027924,-0.708868741989,0.166772022843,-0.317543029785,0.607337355614
1555357968266966534,9327,1555357968266966534,world,-2.89834880829,-0.815392971039,0.797105312347,-0.706917643547,0.161802962422,-0.320612102747,0.609339952469
1555357968277361867,9328,1555357968277361867,world,-2.89860725403,-0.815527200699,0.797268390656,-0.70607316494,0.159150183201,-0.320503920317,0.611072182655
1555357968287758053,9329,1555357968287758053,world,-2.89797782898,-0.815359115601,0.796959400177,-0.707886576653,0.164391264319,-0.318750590086,0.60849827528
1555357968297152719,9330,1555357968297152719,world,-2.89845657349,-0.815412521362,0.797029733658,-0.706810116768,0.160857245326,-0.320411652327,0.609820306301
1555357968297194441,9331,1555357968297194441,world,-2.89793300629,-0.815331459045,0.796828746796,-0.708170831203,0.164883226156,-0.318685501814,0.608068466187
1555357968307599036,9332,1555357968307599036,world,-2.898478508,-0.815385103226,0.797136306763,-0.706648349762,0.16055637598,-0.320615291595,0.609980106354
1555357968317034750,9333,1555357968317034750,world,-2.89866542816,-0.815413236618,0.797251224518,-0.706086397171,0.159270748496,-0.321444690228,0.610531151295
1555357968327485150,9334,1555357968327485150,world,-2.89872264862,-0.815438270569,0.797272443771,-0.70621162653,0.158962979913,-0.320944428444,0.610729634762
1555357968336742042,9335,1555357968336742042,world,-2.8979473114,-0.815334796906,0.79686498642,-0.708055257797,0.164753168821,-0.31876796484,0.608195006847
1555357968347020169,9336,1555357968347020169,world,-2.89838790894,-0.815473794937,0.79696726799,-0.706926286221,0.161765009165,-0.320574820042,0.609359622002
1555357968347062679,9337,1555357968347062679,world,-2.8985748291,-0.81545996666,0.797104358673,-0.706565320492,0.160105332732,-0.320826590061,0.610083580017
1555357968367647906,9338,1555357968367647906,world,-2.89859962463,-0.815475940704,0.797199249268,-0.706306636333,0.159938916564,-0.321485728025,0.610079824924
1555357968377019035,9339,1555357968377019035,world,-2.8986158371,-0.815407514572,0.797231435776,-0.706142902374,0.159461036325,-0.321241259575,0.610523104668
1555357968377047293,9340,1555357968377047293,world,-2.89790248871,-0.815326213837,0.796888113022,-0.708149731159,0.165069326758,-0.318852305412,0.607955038548
1555357968387365223,9341,1555357968387365223,world,-2.89765071869,-0.815294504166,0.796743154526,-0.708717644215,0.166960135102,-0.318179368973,0.607128977776
1555357968387393936,9342,1555357968387393936,world,-2.89766311646,-0.815240383148,0.796766757965,-0.708852291107,0.166875854135,-0.317676305771,0.60725826025
1555357968397799733,9343,1555357968397799733,world,-2.89767551422,-0.815237522125,0.796808242798,-0.708562910557,0.166670739651,-0.318456798792,0.607243657112
1555357968407179151,9344,1555357968407179151,world,-2.89852237701,-0.815385341644,0.797179460526,-0.706544160843,0.16031652689,-0.320714235306,0.610111773014
1555357968426714017,9345,1555357968426714017,world,-2.8980884552,-0.815293073654,0.79700922966,-0.707767426968,0.163761183619,-0.318645685911,0.60886156559
1555357968426730632,9346,1555357968426730632,world,-2.89792633057,-0.815317869186,0.796814203262,-0.708131313324,0.165167734027,-0.318691492081,0.608034014702
1555357968437114257,9347,1555357968437114257,world,-2.8978767395,-0.815292596817,0.796821117401,-0.708296239376,0.165374085307,-0.318467050791,0.607903420925
1555357968437141664,9348,1555357968437141664,world,-2.8979473114,-0.815325021744,0.796872854233,-0.708258211613,0.165122926235,-0.318704664707,0.607891559601
1555357968447471723,9349,1555357968447471723,world,-2.89865684509,-0.81537938118,0.797222137451,-0.706242144108,0.159248203039,-0.321042239666,0.610568523407
1555357968456658010,9350,1555357968456658010,world,-2.89813232422,-0.815332174301,0.796981096268,-0.707433760166,0.163357079029,-0.319975703955,0.608660399914
1555357968466965367,9351,1555357968466965367,world,-2.89800643921,-0.815296888351,0.796895742416,-0.708043396473,0.164489433169,-0.318782567978,0.608272612095
1555357968477293179,9352,1555357968477293179,world,-2.89791584015,-0.815291166306,0.796856403351,-0.708214759827,0.164946183562,-0.318654894829,0.608016133308
1555357968477364683,9353,1555357968477364683,world,-2.89792633057,-0.815318822861,0.796868562698,-0.708221375942,0.165101319551,-0.31862077117,0.607984364033
1555357968487711570,9354,1555357968487711570,world,-2.89790439606,-0.815269947052,0.796910762787,-0.708102345467,0.165087580681,-0.318939626217,0.607959449291
1555357968496995054,9355,1555357968496995054,world,-2.89797687531,-0.815294027328,0.796946287155,-0.708011627197,0.164691478014,-0.318748414516,0.608272731304
1555357968507417968,9356,1555357968507417968,world,-2.89797496796,-0.815309047699,0.796911001205,-0.707880616188,0.164739534259,-0.319320291281,0.608112335205
1555357968516698229,9357,1555357968516698229,world,-2.89798164368,-0.815318584442,0.796880483627,-0.707782149315,0.164676830173,-0.319543331861,0.60812664032
1555357968527043458,9358,1555357968527043458,world,-2.89801216125,-0.815324783325,0.796901941299,-0.707911610603,0.16428206861,-0.318939059973,0.608399808407
1555357968537446075,9359,1555357968537446075,world,-2.89803695679,-0.815338850021,0.796937704086,-0.708036899567,0.164119899273,-0.318738222122,0.608403265476
1555357968546786966,9360,1555357968546786966,world,-2.89806175232,-0.815313577652,0.796952724457,-0.707943499088,0.164036124945,-0.3185582757,0.608628630638
1555357968546825087,9361,1555357968546825087,world,-2.89802837372,-0.815329313278,0.796917200089,-0.707791090012,0.164208233356,-0.319364666939,0.608336985111
1555357968557214404,9362,1555357968557214404,world,-2.89876174927,-0.815471887589,0.797191381454,-0.70592802763,0.1590077281,-0.321920484304,0.61053198576
1555357968567544436,9363,1555357968567544436,world,-2.89823150635,-0.81537938118,0.796973466873,-0.70725941658,0.162984281778,-0.320378601551,0.608751118183
1555357968576941363,9364,1555357968576941363,world,-2.89805603027,-0.815315485001,0.796894311905,-0.707884371281,0.164109364152,-0.318958938122,0.608467698097
1555357968576980731,9365,1555357968576980731,world,-2.89799976349,-0.815285205841,0.796867609024,-0.708119571209,0.164589822292,-0.318570405245,0.608267903328
1555357968587230354,9366,1555357968587230354,world,-2.89864253998,-0.815441608429,0.797143697739,-0.706278026104,0.159791812301,-0.321478098631,0.610155642033
1555357968606866184,9367,1555357968606866184,world,-2.89885139465,-0.815463781357,0.797263860703,-0.705683588982,0.158019930124,-0.322266221046,0.610888659954
1555357968617273128,9368,1555357968617273128,world,-2.8988199234,-0.815549612045,0.797235250473,-0.705930709839,0.158263012767,-0.322184324265,0.610583245754
1555357968627637612,9369,1555357968627637612,world,-2.89876461029,-0.815493345261,0.797209978104,-0.70612347126,0.15842230618,-0.321503639221,0.610678017139
1555357968627705134,9371,1555357968627705134,world,-2.89861392975,-0.815498113632,0.797163248062,-0.706273317337,0.159867718816,-0.321544408798,0.610106170177
1555357968637043604,9372,1555357968637043604,world,-2.8985786438,-0.815480470657,0.797183036804,-0.706233561039,0.160092830658,-0.321369886398,0.610185205936
1555357968647444590,9373,1555357968647444590,world,-2.89852905273,-0.815528392792,0.797119617462,-0.706570625305,0.160697609186,-0.321305811405,0.609669387341
1555357968656665023,9374,1555357968656665023,world,-2.8985376358,-0.815442800522,0.797120571136,-0.70672339201,0.160380423069,-0.320624828339,0.609934389591
1555357968666958792,9375,1555357968666958792,world,-2.8985042572,-0.815429210663,0.797106742859,-0.706630706787,0.160616338253,-0.321101665497,0.609728872776
1555357968677347453,9376,1555357968677347453,world,-2.89848709106,-0.815396547318,0.797138690948,-0.706531643867,0.160483047366,-0.321173399687,0.609840869904
1555357968687702383,9377,1555357968687702383,world,-2.89849472046,-0.815427064896,0.79714179039,-0.706752181053,0.160837218165,-0.320926517248,0.609621942043
1555357968687756471,9378,1555357968687756471,world,-2.89782142639,-0.815154314041,0.796829938889,-0.708510100842,0.165600553155,-0.31769323349,0.607997596264
1555357968697071907,9379,1555357968697071907,world,-2.89829730988,-0.815365076065,0.796993494034,-0.70732998848,0.162286370993,-0.319789469242,0.609165251255
1555357968707507311,9380,1555357968707507311,world,-2.89852523804,-0.815341472626,0.797147274017,-0.706580638885,0.160332381725,-0.320605278015,0.610122740269
1555357968727105482,9381,1555357968727105482,world,-2.8985414505,-0.815420150757,0.797149896622,-0.706395149231,0.160230308771,-0.321388304234,0.609952151775
1555357968746721466,9382,1555357968746721466,world,-2.8978509903,-0.815298557281,0.796879529953,-0.708240628242,0.165504366159,-0.318695157766,0.607813179493
1555357968746759131,9383,1555357968746759131,world,-2.89766693115,-0.815272092819,0.796787977219,-0.708792746067,0.166779175401,-0.317739129066,0.607321619987
1555357968746798924,9384,1555357968746798924,world,-2.89834308624,-0.81539940834,0.7970495224,-0.706969618797,0.161748483777,-0.320443540812,0.609382867813
1555357968746822940,9385,1555357968746822940,world,-2.89862728119,-0.815420389175,0.797194719315,-0.706284463406,0.15953437984,-0.321042627096,0.61044460535
1555357968757070528,9386,1555357968757070528,world,-2.89798259735,-0.815311908722,0.796965122223,-0.708026051521,0.164316341281,-0.318641275167,0.60841345787
1555357968767332059,9387,1555357968767332059,world,-2.89774131775,-0.815261125565,0.796865940094,-0.708504974842,0.166121169925,-0.317928761244,0.60773819685
1555357968777595064,9388,1555357968777595064,world,-2.89774894714,-0.815245866776,0.796875715256,-0.708602130413,0.166128724813,-0.317687451839,0.6077491045
1555357968777631995,9389,1555357968777631995,world,-2.8984670639,-0.815421819687,0.79715681076,-0.706766486168,0.160632476211,-0.320646136999,0.609806954861
1555357968786874931,9390,1555357968786874931,world,-2.89874744415,-0.815456390381,0.797235250473,-0.706229388714,0.158841848373,-0.32123824954,0.610586106777
1555357968797136290,9391,1555357968797136290,world,-2.89806079865,-0.815267324448,0.796969652176,-0.707835555077,0.163626864552,-0.318877369165,0.608697235584
1555357968807399226,9392,1555357968807399226,world,-2.8978395462,-0.815318346024,0.796868562698,-0.708343684673,0.165609464049,-0.318649083376,0.60768866539
1555357968817713161,9393,1555357968817713161,world,-2.89852237701,-0.815406560898,0.797164916992,-0.706765890121,0.160211384296,-0.320513606071,0.609987974167
1555357968827175329,9394,1555357968827175329,world,-2.8987159729,-0.815508842468,0.797216892242,-0.706198334694,0.15925052762,-0.32147410512,0.610391438007
1555357968827213718,9395,1555357968827213718,world,-2.8980140686,-0.815324783325,0.796981811523,-0.707823693752,0.164044126868,-0.319288343191,0.608383357525
1555357968847092418,9396,1555357968847092418,world,-2.89849185944,-0.815436124802,0.797135829926,-0.706659853458,0.160682111979,-0.320949018002,0.609758019447
1555357968847144866,9397,1555357968847144866,world,-2.89865684509,-0.815441846848,0.79717206955,-0.706276297569,0.159285724163,-0.321242898703,0.61041367054
1555357968857520321,9398,1555357968857520321,world,-2.89868068695,-0.815440177917,0.797197341919,-0.706231832504,0.15917776525,-0.321154415607,0.610539734364
1555357968877208012,9399,1555357968877208012,world,-2.89861965179,-0.815457105637,0.797187328339,-0.706235706806,0.159678071737,-0.321818053722,0.610054969788
1555357968877247977,9400,1555357968877247977,world,-2.89860343933,-0.815432310104,0.797205924988,-0.706314682961,0.159634917974,-0.320958286524,0.610427796841
1555357968887659339,9401,1555357968887659339,world,-2.8978729248,-0.815276622772,0.796909809113,-0.708224654198,0.165124416351,-0.318217456341,0.608185529709
1555357968887700531,9402,1555357968887700531,world,-2.89762687683,-0.815235137939,0.796783685684,-0.708846330643,0.166712775826,-0.317489981651,0.607407450676
1555357968896964996,9403,1555357968896964996,world,-2.89761543274,-0.815253019333,0.796779155731,-0.708733558655,0.166873529553,-0.318080425262,0.607185959816
1555357968907405650,9404,1555357968907405650,world,-2.89840126038,-0.815368652344,0.797113895416,-0.70671069622,0.160998776555,-0.320601612329,0.609798491001
1555357968916749479,9405,1555357968916749479,world,-2.89798736572,-0.815362453461,0.796935319901,-0.707952141762,0.164429828525,-0.319046229124,0.608256578445
1555357968927149949,9406,1555357968927149949,world,-2.89852619171,-0.81542634964,0.797134876251,-0.706646442413,0.159983426332,-0.320555984974,0.610163867474
1555357968937602865,9407,1555357968937602865,world,-2.89801883698,-0.815363883972,0.796935081482,-0.707921624184,0.164180144668,-0.319111794233,0.608325183392
1555357968946925885,9408,1555357968946925885,world,-2.89853954315,-0.815440893173,0.797177314758,-0.706652104855,0.160252764821,-0.320733219385,0.609993577003
1555357968946966057,9409,1555357968946966057,world,-2.89872741699,-0.815482854843,0.797233819962,-0.706214666367,0.159030541778,-0.321148723364,0.610601067543
1555357968957223566,9410,1555357968957223566,world,-2.89804363251,-0.815320968628,0.796945095062,-0.707918167114,0.164167582989,-0.318809509277,0.608491241932
1555357968967499650,9411,1555357968967499650,world,-2.89850902557,-0.815423965454,0.797137260437,-0.706778824329,0.16066762805,-0.320486485958,0.609867215157
1555357968976778191,9412,1555357968976778191,world,-2.8986415863,-0.815475702286,0.797177314758,-0.706126213074,0.15978141129,-0.32176104188,0.610184848309
1555357968987197130,9413,1555357968987197130,world,-2.89867210388,-0.815450429916,0.797186136246,-0.706251323223,0.159346476197,-0.321325212717,0.61038351059
1555357968997573339,9414,1555357968997573339,world,-2.89793872833,-0.815345048904,0.796844959259,-0.708051145077,0.164967119694,-0.318996816874,0.608021855354
1555357969007018516,9415,1555357969007018516,world,-2.89770698547,-0.815273046494,0.796801805496,-0.708687484264,0.166498348117,-0.317992091179,0.607389032841
1555357969007059223,9416,1555357969007059223,world,-2.89834976196,-0.815440416336,0.797093868256,-0.70684337616,0.161635130644,-0.32090061903,0.60931879282
1555357969017407328,9417,1555357969017407328,world,-2.89862823486,-0.815435647964,0.797210693359,-0.706175088882,0.15942914784,-0.321413069963,0.610403716564
1555357969027745912,9418,1555357969027745912,world,-2.89796543121,-0.815330982208,0.796897172928,-0.707881689072,0.164485931396,-0.319044828415,0.608324289322
1555357969037088648,9419,1555357969037088648,world,-2.8984670639,-0.815423965454,0.797053813934,-0.706784367561,0.160628005862,-0.320294469595,0.609972178936
1555357969037128782,9420,1555357969037128782,world,-2.89862728119,-0.815503358841,0.797177314758,-0.7064281106,0.159747093916,-0.321101367474,0.610191822052
1555357969047570077,9421,1555357969047570077,world,-2.89864063263,-0.81543970108,0.797264099121,-0.706124961376,0.159518375993,-0.321078568697,0.610614538193
1555357969056949187,9422,1555357969056949187,world,-2.89858341217,-0.81545996666,0.797197341919,-0.706230401993,0.159789577127,-0.321616292,0.610138356686
1555357969067354061,9423,1555357969067354061,world,-2.89787197113,-0.815324544907,0.796847343445,-0.708231031895,0.165028139949,-0.31857085228,0.60801923275
1555357969077724665,9424,1555357969077724665,world,-2.89765262604,-0.815283298492,0.796749353409,-0.708780825138,0.166723802686,-0.317679286003,0.607381880283
1555357969077795874,9425,1555357969077795874,world,-2.89835071564,-0.815455675125,0.797064065933,-0.706903815269,0.161865308881,-0.320620685816,0.609334945679
1555357969087342788,9426,1555357969087342788,world,-2.89861297607,-0.815470933914,0.797230243683,-0.706174850464,0.159599244595,-0.321428656578,0.610351443291
1555357969097611248,9427,1555357969097611248,world,-2.89799022675,-0.815349817276,0.796949148178,-0.707918524742,0.164470478892,-0.319023221731,0.608296811581
1555357969106941456,9428,1555357969106941456,world,-2.89847564697,-0.81544137001,0.797080516815,-0.706854999065,0.160693690181,-0.320309489965,0.609865128994
1555357969117385896,9429,1555357969117385896,world,-2.89862442017,-0.815483093262,0.797163009644,-0.706478178501,0.159609645605,-0.321034014225,0.610205411911
1555357969126717839,9430,1555357969126717839,world,-2.89860630035,-0.815523386002,0.797152042389,-0.706227660179,0.159974217415,-0.322056859732,0.609860777855
1555357969137121470,9431,1555357969137121470,world,-2.8986082077,-0.815452814102,0.797210693359,-0.70635920763,0.159505814314,-0.321199834347,0.610282897949
1555357969137163030,9432,1555357969137163030,world,-2.89859771729,-0.815454244614,0.797196149826,-0.706480443478,0.159611091018,-0.320866793394,0.61029034853
1555357969147493224,9433,1555357969147493224,world,-2.89783668518,-0.81526184082,0.796898126602,-0.70826369524,0.16527479887,-0.318556725979,0.607921361923
1555357969156755280,9434,1555357969156755280,world,-2.89831447601,-0.81543302536,0.797093629837,-0.707134485245,0.161832243204,-0.320201218128,0.609296619892
1555357969167215032,9435,1555357969167215032,world,-2.89779567719,-0.815357446671,0.79682636261,-0.708401739597,0.165786534548,-0.318562150002,0.607618272305
1555357969177565240,9436,1555357969177565240,world,-2.89837932587,-0.815446376801,0.797059774399,-0.707060098648,0.16144528985,-0.320249259472,0.609460413456
1555357969177605299,9437,1555357969177605299,world,-2.89863967896,-0.81542468071,0.797239542007,-0.706450641155,0.159388467669,-0.320519298315,0.61056548357
1555357969187021615,9438,1555357969187021615,world,-2.89862823486,-0.815474033356,0.79722070694,-0.706184387207,0.159392639995,-0.321423470974,0.610396921635
1555357969197296754,9439,1555357969197296754,world,-2.89859867096,-0.81551861763,0.797191619873,-0.706355035305,0.159780189395,-0.321396917105,0.610112249851
1555357969207734129,9440,1555357969207734129,world,-2.89789295197,-0.815339565277,0.796848058701,-0.708123147488,0.165278822184,-0.318728655577,0.607993900776
1555357969217211700,9441,1555357969217211700,world,-2.89765453339,-0.81530714035,0.796757936478,-0.708705365658,0.167026638985,-0.318065017462,0.607184946537
1555357969227731526,9442,1555357969227731526,world,-2.89835357666,-0.815399169922,0.797079563141,-0.706848919392,0.161508902907,-0.320638746023,0.609483599663
1555357969247478163,9443,1555357969247478163,world,-2.89860439301,-0.815437555313,0.7971971035,-0.706152975559,0.15976241231,-0.321596562862,0.610245466232
1555357969247515523,9444,1555357969247515523,world,-2.89863586426,-0.815476417542,0.797200918198,-0.706070423126,0.159409925342,-0.321889936924,0.610278487206
1555357969247560250,9445,1555357969247560250,world,-2.89866256714,-0.815513134003,0.79714012146,-0.706291615963,0.159523203969,-0.321236282587,0.610337436199
1555357969256937595,9446,1555357969256937595,world,-2.89793682098,-0.815330266953,0.796847581863,-0.708141088486,0.164915665984,-0.318524003029,0.608178734779
1555357969267397070,9447,1555357969267397070,world,-2.89842224121,-0.815415382385,0.797096967697,-0.707033336163,0.161308199167,-0.319789469242,0.609768986702
1555357969276744253,9448,1555357969276744253,world,-2.89856529236,-0.815459251404,0.797152280807,-0.706458091736,0.160055726767,-0.321171820164,0.610039234161
1555357969287091608,9449,1555357969287091608,world,-2.89864349365,-0.815406322479,0.797201871872,-0.706201195717,0.15948215127,-0.321118026972,0.610515058041
1555357969297471107,9450,1555357969297471107,world,-2.89860916138,-0.815421581268,0.797184705734,-0.70642387867,0.159760847688,-0.320910483599,0.610293567181
1555357969297510244,9451,1555357969297510244,world,-2.89786815643,-0.815310716629,0.796827554703,-0.708314478397,0.165359556675,-0.318556964397,0.607839167118
1555357969306767222,9452,1555357969306767222,world,-2.89763832092,-0.815255880356,0.79678273201,-0.708864867687,0.167153671384,-0.317778259516,0.607113838196
1555357969317125451,9453,1555357969317125451,world,-2.89836215973,-0.815350532532,0.797114133835,-0.707170069218,0.161395475268,-0.319713443518,0.609627127647
1555357969327529707,9454,1555357969327529707,world,-2.89794158936,-0.815261363983,0.796947002411,-0.708157837391,0.164716169238,-0.318135976791,0.608416438103
1555357969327568621,9455,1555357969327568621,world,-2.89775753021,-0.815235137939,0.796875238419,-0.708563387394,0.165845617652,-0.317892163992,0.607764601707
1555357969336965938,9456,1555357969336965938,world,-2.89845180511,-0.815464019775,0.797105789185,-0.706810355186,0.161104187369,-0.320655673742,0.609626471996
1555357969347339302,9457,1555357969347339302,world,-2.89872932434,-0.815487623215,0.797227621078,-0.706267595291,0.158818617463,-0.321229219437,0.610552549362
1555357969357808868,9458,1555357969357808868,world,-2.89805221558,-0.815380573273,0.796959161758,-0.70786434412,0.163847342134,-0.319078832865,0.608498871326
1555357969367082150,9459,1555357969367082150,world,-2.897813797,-0.815325975418,0.796843528748,-0.708332538605,0.165724694729,-0.31839582324,0.607802987099
1555357969387741006,9460,1555357969387741006,world,-2.89848518372,-0.815450668335,0.797091007233,-0.706765592098,0.160649225116,-0.320561379194,0.609848201275
1555357969387802652,9462,1555357969387802652,world,-2.89873981476,-0.815489530563,0.797197341919,-0.705918133259,0.159108564258,-0.321959912777,0.610496401787
1555357969397062252,9463,1555357969397062252,world,-2.89874744415,-0.815428495407,0.797230958939,-0.706176578999,0.158705726266,-0.321039676666,0.610786914825
1555357969407440714,9464,1555357969407440714,world,-2.89865970612,-0.815470218658,0.797166347504,-0.706394791603,0.15949857235,-0.321121424437,0.610284924507
1555357969417711261,9465,1555357969417711261,world,-2.89792346954,-0.81525850296,0.796901226044,-0.708241343498,0.164996862411,-0.318408071995,0.608100891113
1555357969427089764,9466,1555357969427089764,world,-2.89834785461,-0.81542634964,0.797074794769,-0.706993162632,0.162015974522,-0.320426225662,0.60929363966
1555357969437483356,9467,1555357969437483356,world,-2.89848327637,-0.815467119217,0.797135353088,-0.706441223621,0.160670980811,-0.321711987257,0.609612226486
1555357969446741988,9468,1555357969446741988,world,-2.89788913727,-0.815303087234,0.796919107437,-0.708170294762,0.165061593056,-0.318778693676,0.607971847057
1555357969446779937,9469,1555357969446779937,world,-2.89769363403,-0.815294265747,0.796818494797,-0.708659827709,0.166639193892,-0.318005204201,0.6073756814
1555357969457088852,9470,1555357969457088852,world,-2.89838218689,-0.815413951874,0.797075510025,-0.707025110722,0.161367058754,-0.320173621178,0.609561383724
1555357969467481096,9471,1555357969467481096,world,-2.8979473114,-0.815337181091,0.79691696167,-0.708094596863,0.164883643389,-0.318739503622,0.608128786087
1555357969476676490,9472,1555357969476676490,world,-2.8985080719,-0.815420389175,0.797141313553,-0.706695556641,0.160425543785,-0.320432424545,0.610055983067
1555357969487070496,9473,1555357969487070496,world,-2.8986530304,-0.815470218658,0.79715180397,-0.706173181534,0.159405693412,-0.32161206007,0.610307335854
1555357969487108703,9474,1555357969487108703,world,-2.89868164062,-0.815457105637,0.79717540741,-0.706015348434,0.159032657743,-0.321933031082,0.61041790247
1555357969497425493,9475,1555357969497425493,world,-2.89800739288,-0.815286397934,0.796970129013,-0.707927048206,0.164204254746,-0.318746626377,0.608503699303
1555357969506711877,9476,1555357969506711877,world,-2.89841938019,-0.815416574478,0.797073841095,-0.706737458706,0.16118375957,-0.320841759443,0.609592080116
1555357969517039486,9477,1555357969517039486,world,-2.8986120224,-0.815462350845,0.797162055969,-0.706463217735,0.159589141607,-0.320915728807,0.610290229321
1555357969527395039,9478,1555357969527395039,world,-2.89791965485,-0.815337181091,0.796865940094,-0.707958400249,0.164887845516,-0.319045454264,0.608125805855
1555357969527432633,9479,1555357969527432633,world,-2.89839458466,-0.815477848053,0.797093868256,-0.70687520504,0.161178067327,-0.320460945368,0.6096342206
1555357969546936660,9480,1555357969546936660,world,-2.8985490799,-0.815514564514,0.797137498856,-0.706414580345,0.160281971097,-0.321669012308,0.609768092632
1555357969546972313,9481,1555357969546972313,world,-2.89860725403,-0.815468549728,0.79715013504,-0.706395208836,0.159705013037,-0.321251571178,0.61016201973
1555357969557295638,9482,1555357969557295638,world,-2.89792346954,-0.815327644348,0.796914100647,-0.708164393902,0.164820760489,-0.318614929914,0.608129739761
1555357969567702634,9483,1555357969567702634,world,-2.89835929871,-0.815451383591,0.797081947327,-0.707072377205,0.161624029279,-0.320434004068,0.609301626682
1555357969577025241,9484,1555357969577025241,world,-2.89856719971,-0.815454006195,0.797198534012,-0.706557691097,0.160132303834,-0.32085159421,0.610072255135
1555357969587364154,9485,1555357969587364154,world,-2.89859867096,-0.815449714661,0.7971971035,-0.706398665905,0.159674629569,-0.320936769247,0.610331594944
1555357969587407207,9486,1555357969587407207,world,-2.89789962769,-0.815273284912,0.796879529953,-0.708185791969,0.164950489998,-0.318366676569,0.608199775219
1555357969597087480,9487,1555357969597087480,world,-2.89834880829,-0.815436601639,0.797032117844,-0.707058846951,0.161688059568,-0.320464193821,0.609284520149
1555357969607548405,9488,1555357969607548405,world,-2.89855670929,-0.815444469452,0.797175884247,-0.706619977951,0.160048633814,-0.320941865444,0.609974622726
1555357969616871823,9489,1555357969616871823,world,-2.89860439301,-0.815524101257,0.797173976898,-0.706453442574,0.160171762109,-0.321421653032,0.60988253355
1555357969627199510,9490,1555357969627199510,world,-2.89862823486,-0.815453767776,0.797164678574,-0.706484735012,0.159717127681,-0.320839852095,0.610271751881
1555357969627251811,9491,1555357969627251811,world,-2.89791107178,-0.815347671509,0.796867370605,-0.70821762085,0.165253147483,-0.318801283836,0.607852816582
1555357969637674744,9492,1555357969637674744,world,-2.89837646484,-0.815431594849,0.797042608261,-0.70707988739,0.161730915308,-0.320292770863,0.609338819981
1555357969647097460,9493,1555357969647097460,world,-2.89853191376,-0.815480947495,0.797090291977,-0.706472814083,0.160809293389,-0.32165184617,0.609570860863
1555357969657493614,9494,1555357969657493614,world,-2.89863967896,-0.815446376801,0.797162771225,-0.706442117691,0.160074874759,-0.321115553379,0.610082387924
1555357969666771024,9495,1555357969666771024,world,-2.89863491058,-0.815396785736,0.797164201736,-0.706471085548,0.159694463015,-0.320679336786,0.610377728939
1555357969677143414,9496,1555357969677143414,world,-2.89856433868,-0.815447330475,0.797082901001,-0.706649005413,0.160108342767,-0.320897251368,0.609948754311
1555357969687536307,9497,1555357969687536307,world,-2.89855289459,-0.815390348434,0.797121524811,-0.706466436386,0.160063356161,-0.321066558361,0.610083043575
1555357969687583463,9498,1555357969687583463,world,-2.89853000641,-0.815396308899,0.797142028809,-0.706481933594,0.160486251116,-0.3211992383,0.609883964062
1555357969697017382,9499,1555357969697017382,world,-2.8985004425,-0.815442085266,0.797141313553,-0.706578969955,0.160584032536,-0.320818662643,0.60994631052
1555357969707469601,9500,1555357969707469601,world,-2.89850234985,-0.815455675125,0.797101736069,-0.70675444603,0.160703778267,-0.320629000664,0.609811067581
1555357969716795534,9501,1555357969716795534,world,-2.89849090576,-0.815415620804,0.797116041183,-0.70676445961,0.160524904728,-0.32031917572,0.610009431839
1555357969727213042,9502,1555357969727213042,world,-2.8984670639,-0.815451383591,0.797108650208,-0.706645488739,0.160866558552,-0.321075081825,0.609659671783
1555357969727260267,9503,1555357969727260267,world,-2.89848041534,-0.815411567688,0.797115802765,-0.706566393375,0.160577744246,-0.320922791958,0.609907746315
1555357969737553166,9504,1555357969737553166,world,-2.89847278595,-0.815450429916,0.79710817337,-0.706739783287,0.161041304469,-0.320778459311,0.609660327435
1555357969746951846,9505,1555357969746951846,world,-2.89845275879,-0.815431118011,0.797120809555,-0.706762433052,0.16087500751,-0.320541590452,0.609802663326
1555357969757425461,9506,1555357969757425461,world,-2.89844894409,-0.815447568893,0.79708647728,-0.706656694412,0.161208152771,-0.321224331856,0.609477758408
1555357969766779862,9507,1555357969766779862,world,-2.89780712128,-0.815222024918,0.796875953674,-0.708535671234,0.165765732527,-0.317858844995,0.607836067677
1555357969777231913,9508,1555357969777231913,world,-2.89829158783,-0.815395593643,0.797013044357,-0.707331776619,0.162556305528,-0.320156127214,0.60889840126
1555357969777273760,9509,1555357969777273760,world,-2.89848232269,-0.815445423126,0.797095537186,-0.706571578979,0.160923361778,-0.32147526741,0.609519541264
1555357969787619548,9510,1555357969787619548,world,-2.8985786438,-0.815387964249,0.797179222107,-0.706328690052,0.159945845604,-0.321190208197,0.610208034515
1555357969797062022,9511,1555357969797062022,world,-2.89853096008,-0.815485477448,0.797087192535,-0.706409394741,0.160917416215,-0.321963578463,0.609451413155
1555357969807504764,9512,1555357969807504764,world,-2.89855384827,-0.815412998199,0.79710817337,-0.706563949585,0.160126596689,-0.320798933506,0.610094249249
1555357969816809341,9513,1555357969816809341,world,-2.89786434174,-0.815314054489,0.796841144562,-0.708329081535,0.165494412184,-0.318382263184,0.607876896858
1555357969827085760,9514,1555357969827085760,world,-2.89835739136,-0.815366506577,0.797058820724,-0.706997573376,0.161750927567,-0.320069074631,0.609546601772
1555357969827125558,9515,1555357969827125558,world,-2.89850711823,-0.815420627594,0.797174930573,-0.706451654434,0.16035053134,-0.321211397648,0.609948337078
1555357969837437597,9516,1555357969837437597,world,-2.89786052704,-0.815248727798,0.796910524368,-0.708093822002,0.165110141039,-0.318805545568,0.608033657074
1555357969857093328,9517,1555357969857093328,world,-2.89765071869,-0.815268754959,0.7967710495,-0.708745479584,0.166714429855,-0.318047463894,0.607233047485
1555357969857144402,9518,1555357969857144402,world,-2.89764404297,-0.815292358398,0.796742200851,-0.708786547184,0.166689649224,-0.317993760109,0.607219994068
1555357969867559374,9519,1555357969867559374,world,-2.89844036102,-0.81539607048,0.797077894211,-0.706880033016,0.161006376147,-0.320697635412,0.609549641609
1555357969877046454,9520,1555357969877046454,world,-2.89872074127,-0.815432548523,0.79723572731,-0.706019282341,0.158852428198,-0.321553647518,0.610660374165
1555357969887513853,9521,1555357969887513853,world,-2.89871311188,-0.815496444702,0.797240257263,-0.705920994282,0.159059271216,-0.322298943996,0.6103271842
1555357969887566487,9522,1555357969887566487,world,-2.89802265167,-0.815366744995,0.796905994415,-0.70792555809,0.164315760136,-0.319288849831,0.608191072941
1555357969896890216,9523,1555357969896890216,world,-2.89778900146,-0.81528377533,0.796783685684,-0.708546757698,0.165948033333,-0.317971110344,0.607714653015
1555357969907174039,9524,1555357969907174039,world,-2.89841556549,-0.815485239029,0.797027111053,-0.70698684454,0.161623165011,-0.320536226034,0.60934728384
1555357969917486772,9525,1555357969917486772,world,-2.89870738983,-0.815430402756,0.797221422195,-0.706126153469,0.159117311239,-0.32122901082,0.610638618469
1555357969926876866,9526,1555357969926876866,world,-2.89869403839,-0.81547164917,0.797221660614,-0.706019461155,0.159140840173,-0.321766138077,0.610473155975
1555357969926926342,9527,1555357969926926342,world,-2.89869308472,-0.815452098846,0.797188520432,-0.706264019012,0.159055456519,-0.321120947599,0.610552191734
1555357969937342465,9528,1555357969937342465,world,-2.89797496796,-0.81534075737,0.796857595444,-0.708128452301,0.164649277925,-0.318712174892,0.608167111874
1555357969957154726,9529,1555357969957154726,world,-2.89841175079,-0.815443515778,0.797049283981,-0.707006812096,0.16142244637,-0.32038500905,0.609456837177
1555357969957197618,9530,1555357969957197618,world,-2.89856624603,-0.815480232239,0.797123670578,-0.706480741501,0.160440295935,-0.321410357952,0.609786272049
1555357969977002293,9531,1555357969977002293,world,-2.8986158371,-0.815411567688,0.797194004059,-0.706242501736,0.159456595778,-0.321349471807,0.610352098942
1555357969977039903,9532,1555357969977039903,world,-2.89862155914,-0.815442085266,0.797201633453,-0.706444501877,0.159736573696,-0.320965647697,0.610247015953
1555357969987505854,9533,1555357969987505854,world,-2.89859485626,-0.815435409546,0.797147274017,-0.70658570528,0.159862220287,-0.320766448975,0.610155403614
1555357969996828821,9534,1555357969996828821,world,-2.89854335785,-0.815488815308,0.797127008438,-0.706650614738,0.160410568118,-0.320894092321,0.609869241714
1555357970007237390,9535,1555357970007237390,world,-2.89784431458,-0.815299034119,0.796836614609,-0.708387076855,0.165629193187,-0.318260729313,0.60783624649
1555357970007277452,9536,1555357970007277452,world,-2.89830112457,-0.815370798111,0.797060489655,-0.707037031651,0.161904141307,-0.320423334837,0.609273791313
1555357970017770311,9537,1555357970017770311,world,-2.89848232269,-0.815432786942,0.797110795975,-0.706524968147,0.160682246089,-0.321450561285,0.60965013504
1555357970027112454,9538,1555357970027112454,world,-2.89857769012,-0.815437555313,0.797147274017,-0.706564843655,0.159989967942,-0.321102172136,0.609969496727
1555357970027154029,9539,1555357970027154029,world,-2.89856719971,-0.81546330452,0.797121524811,-0.706677615643,0.160141065717,-0.320939570665,0.609884858131
1555357970037620359,9540,1555357970037620359,world,-2.8985452652,-0.815481185913,0.797133684158,-0.706585168839,0.160306423903,-0.320897638798,0.609970510006
1555357970047033758,9541,1555357970047033758,world,-2.89852428436,-0.815497159958,0.797146081924,-0.706645429134,0.160545364022,-0.320891648531,0.609840989113
1555357970066769755,9542,1555357970066769755,world,-2.89781093597,-0.815296173096,0.796908140182,-0.708477795124,0.16568043828,-0.318134665489,0.607782542706
1555357970066810936,9543,1555357970066810936,world,-2.89828586578,-0.815429925919,0.797029972076,-0.707060694695,0.162387266755,-0.320681482553,0.608981847763
1555357970077197835,9544,1555357970077197835,world,-2.89852809906,-0.815417528152,0.797093629837,-0.706674218178,0.160302743316,-0.320630759001,0.610008656979
1555357970086907563,9545,1555357970086907563,world,-2.89789485931,-0.815329790115,0.796838998795,-0.70823764801,0.165196821094,-0.318591237068,0.607954859734
1555357970097347748,9546,1555357970097347748,world,-2.89840126038,-0.815417051315,0.797105312347,-0.707049846649,0.161226779222,-0.320071995258,0.609623253345
1555357970097397087,9547,1555357970097397087,world,-2.89856815338,-0.81543803215,0.797193288803,-0.706356585026,0.159878075123,-0.32120847702,0.610184013844
1555357970107809489,9548,1555357970107809489,world,-2.89861392975,-0.815476894379,0.797160625458,-0.70640194416,0.159944310784,-0.321315199137,0.610058009624
1555357970117134568,9549,1555357970117134568,world,-2.89860057831,-0.815472841263,0.797123193741,-0.706471085548,0.15981914103,-0.321079045534,0.610135018826
1555357970127452235,9550,1555357970127452235,world,-2.89789199829,-0.815333127975,0.796825647354,-0.708208799362,0.165211483836,-0.318638592958,0.60795968771
1555357970127492563,9551,1555357970127492563,world,-2.89837837219,-0.815409898758,0.797087907791,-0.707027673721,0.16162148118,-0.320265471935,0.609442770481
1555357970146991816,9552,1555357970146991816,world,-2.89853954315,-0.815442323685,0.797183275223,-0.70641541481,0.160414606333,-0.321414768696,0.609866321087
1555357970147045614,9553,1555357970147045614,world,-2.89858150482,-0.815425395966,0.797214984894,-0.7063382864,0.159802868962,-0.321090131998,0.610287129879
1555357970157361759,9554,1555357970157361759,world,-2.89789867401,-0.815349340439,0.796863079071,-0.70815050602,0.165182113647,-0.318996608257,0.607847869396
1555357970177135019,9555,1555357970177135019,world,-2.89766979218,-0.815259218216,0.79675412178,-0.708729624748,0.166733011603,-0.317929893732,0.607308089733
1555357970177179300,9556,1555357970177179300,world,-2.89766788483,-0.815305233002,0.796775817871,-0.708712220192,0.166991978884,-0.318039923906,0.60719960928
1555357970187578906,9557,1555357970187578906,world,-2.89841461182,-0.815402269363,0.797118425369,-0.706726789474,0.161025941372,-0.320679664612,0.609731376171
1555357970197028983,9558,1555357970197028983,world,-2.89867401123,-0.815455436707,0.797235488892,-0.706069767475,0.159057691693,-0.321775078773,0.610431909561
1555357970197069579,9559,1555357970197069579,world,-2.8980512619,-0.815343618393,0.796954631805,-0.707817614079,0.163959041238,-0.319161325693,0.60847979784
1555357970217769570,9560,1555357970217769570,world,-2.89781951904,-0.815295696259,0.796812772751,-0.708429157734,0.165572792292,-0.318259239197,0.607803285122
1555357970217808724,9561,1555357970217808724,world,-2.89778614044,-0.815319776535,0.796770095825,-0.708469390869,0.166051656008,-0.318375617266,0.607564747334
1555357970227122784,9562,1555357970227122784,world,-2.89855289459,-0.815400600433,0.797145366669,-0.706766009331,0.160061523318,-0.320348232985,0.610114097595
1555357970247664059,9563,1555357970247664059,world,-2.89873886108,-0.815500020981,0.79723906517,-0.706043481827,0.158922106028,-0.322095662355,0.610328495502
1555357970247731788,9564,1555357970247731788,world,-2.89878559113,-0.815445423126,0.797258377075,-0.705846369267,0.158247441053,-0.321993350983,0.610785603523
1555357970247763909,9565,1555357970247763909,world,-2.8980588913,-0.815336465836,0.796928405762,-0.707805633545,0.16394919157,-0.319213151932,0.608469247818
1555357970257003280,9566,1555357970257003280,world,-2.897772789,-0.815277576447,0.79675579071,-0.70852291584,0.165850326419,-0.318119704723,0.607691407204
1555357970267224010,9567,1555357970267224010,world,-2.89774513245,-0.815288543701,0.796806335449,-0.708555221558,0.166360244155,-0.318086594343,0.607531785965
1555357970277432993,9568,1555357970277432993,world,-2.89847278595,-0.815402269363,0.797117948532,-0.706566035748,0.160836920142,-0.320795863867,0.609906613827
1555357970277477193,9569,1555357970277477193,world,-2.89873790741,-0.815451860428,0.797276496887,-0.705886662006,0.158815547824,-0.321691095829,0.610750794411
1555357970287738676,9570,1555357970287738676,world,-2.89876461029,-0.815484523773,0.797242164612,-0.706053614616,0.158832028508,-0.321505993605,0.610651016235
1555357970296986152,9571,1555357970296986152,world,-2.898021698,-0.8153424263,0.796847820282,-0.707877933979,0.164176300168,-0.318950355053,0.608461737633
1555357970307207887,9572,1555357970307207887,world,-2.89778232574,-0.815299510956,0.796717405319,-0.708498835564,0.166036486626,-0.318244934082,0.60760307312
1555357970317484789,9573,1555357970317484789,world,-2.89845371246,-0.815372228622,0.797093153,-0.706725478172,0.160773292184,-0.320565015078,0.609860002995
1555357970326654386,9574,1555357970326654386,world,-2.89868354797,-0.815442085266,0.79726099968,-0.706022083759,0.159202218056,-0.321620345116,0.610530793667
1555357970336942284,9575,1555357970336942284,world,-2.89867210388,-0.815483808517,0.797205924988,-0.706155717373,0.159167692065,-0.322155445814,0.610103011131
1555357970336965413,9576,1555357970336965413,world,-2.89797592163,-0.815351247787,0.796837568283,-0.707950949669,0.164594337344,-0.319150298834,0.608158826828
1555357970347181352,9577,1555357970347181352,world,-2.89772033691,-0.81528544426,0.79670548439,-0.708596169949,0.166328936815,-0.318075120449,0.607498586178
1555357970357400033,9578,1555357970357400033,world,-2.89838409424,-0.81545996666,0.797053098679,-0.706894040108,0.161522760987,-0.320716649294,0.609386742115
1555357970366676104,9579,1555357970366676104,world,-2.89865493774,-0.815456390381,0.797281503677,-0.706056892872,0.159285664558,-0.321550130844,0.610505759716
1555357970377066177,9580,1555357970377066177,world,-2.89870071411,-0.815488815308,0.797235965729,-0.705983817577,0.159179210663,-0.321950763464,0.610406816006
1555357970377105052,9581,1555357970377105052,world,-2.89863300323,-0.815469741821,0.797116041183,-0.706233024597,0.159254893661,-0.32124787569,0.610469162464
1555357970387507907,9582,1555357970387507907,world,-2.89792442322,-0.815394639969,0.796760797501,-0.708058476448,0.165022015572,-0.319068580866,0.607960581779
1555357970396799619,9583,1555357970396799619,world,-2.89768695831,-0.815280914307,0.796779155731,-0.708782315254,0.166567519307,-0.317925781012,0.607294082642
1555357970407124496,9584,1555357970407124496,world,-2.89837646484,-0.815390348434,0.797141075134,-0.706930279732,0.16122789681,-0.320351630449,0.609614610672
1555357970417580234,9585,1555357970417580234,world,-2.89864253998,-0.815385341644,0.797282218933,-0.706201374531,0.159217625856,-0.321150243282,0.610566854477
1555357970426921663,9586,1555357970426921663,world,-2.89868450165,-0.81542468071,0.79721903801,-0.706267058849,0.159055143595,-0.32123747468,0.610487520695
1555357970437308789,9587,1555357970437308789,world,-2.89795017242,-0.815340995789,0.796783447266,-0.707987725735,0.164746046066,-0.319166213274,0.608066678047
1555357970437350492,9588,1555357970437350492,world,-2.89774227142,-0.815191030502,0.796716451645,-0.708641648293,0.166183024645,-0.317545503378,0.607762277126
1555357970447789353,9589,1555357970447789353,world,-2.89839267731,-0.815349340439,0.797050714493,-0.706926286221,0.161276727915,-0.320569813251,0.609491705894
1555357970457178467,9590,1555357970457178467,world,-2.89864253998,-0.815418481827,0.797278642654,-0.706095576286,0.159332811832,-0.321532458067,0.610458016396
1555357970467599069,9591,1555357970467599069,world,-2.89870262146,-0.815474033356,0.797299623489,-0.70594316721,0.159161940217,-0.321914076805,0.610477685928
1555357970477033252,9592,1555357970477033252,world,-2.89796638489,-0.815359115601,0.796883821487,-0.707934617996,0.164602786303,-0.319131553173,0.608185470104
1555357970487484853,9593,1555357970487484853,world,-2.89772224426,-0.81534743309,0.796677112579,-0.708576977253,0.166571438313,-0.318506509066,0.607228398323
1555357970487534287,9594,1555357970487534287,world,-2.89772033691,-0.815284252167,0.796725511551,-0.708751618862,0.166546329856,-0.317692667246,0.607457756996
1555357970496922056,9595,1555357970496922056,world,-2.89844322205,-0.815434217453,0.797143220901,-0.706671476364,0.160906016827,-0.320703268051,0.609814882278
1555357970507267968,9596,1555357970507267968,world,-2.89872360229,-0.815471410751,0.797332525253,-0.70581048727,0.15887016058,-0.321730703115,0.61080378294
1555357970517696644,9597,1555357970517696644,world,-2.89876174927,-0.815514087677,0.797281265259,-0.705945014954,0.158748298883,-0.321528822184,0.610786318779
1555357970527139626,9598,1555357970527139626,world,-2.89801692963,-0.815359115601,0.796877384186,-0.70789539814,0.164388820529,-0.319124907255,0.608292520046
1555357970527181832,9599,1555357970527181832,world,-2.89778137207,-0.815248250961,0.796677350998,-0.708526015282,0.166145265102,-0.317979454994,0.607680559158
1555357970557233006,9600,1555357970557233006,world,-2.89841651917,-0.815413475037,0.797055244446,-0.706980645657,0.161269575357,-0.320351064205,0.609545588493
1555357970557309669,9601,1555357970557309669,world,-2.89870452881,-0.815403938293,0.797297716141,-0.705923557281,0.159037157893,-0.321457713842,0.610773444176
1555357970557333196,9602,1555357970557333196,world,-2.89874839783,-0.815421819687,0.797300338745,-0.705906569958,0.158753812313,-0.321785897017,0.610693871975
1555357970567725978,9603,1555357970567725978,world,-2.89801025391,-0.815260887146,0.79695391655,-0.707964420319,0.164102077484,-0.318764805794,0.608478367329
1555357970577067721,9604,1555357970577067721,world,-2.89772510529,-0.81525015831,0.796678066254,-0.708580195904,0.166254550219,-0.318079173565,0.607535302639
1555357970597813125,9605,1555357970597813125,world,-2.89771175385,-0.815257072449,0.796685934067,-0.708714902401,0.166533991694,-0.317949771881,0.607369542122
1555357970597870203,9606,1555357970597870203,world,-2.89849090576,-0.815356731415,0.797137498856,-0.706605494022,0.160465851426,-0.320609718561,0.610056519508
1555357970597890801,9607,1555357970597890801,world,-2.89875221252,-0.815448284149,0.797311067581,-0.705788612366,0.158740669489,-0.321712881327,0.610872089863
1555357970617770771,9608,1555357970617770771,world,-2.89879894257,-0.815426111221,0.797305822372,-0.705837309361,0.1582480371,-0.321347475052,0.611135780811
1555357970617841818,9609,1555357970617841818,world,-2.89801692963,-0.81537103653,0.796835899353,-0.707779705524,0.164557114244,-0.319384843111,0.608245253563
1555357970627285941,9610,1555357970627285941,world,-2.89777946472,-0.815274953842,0.796737194061,-0.708467364311,0.166189491749,-0.31823694706,0.60760217905
1555357970637726717,9611,1555357970637726717,world,-2.89842510223,-0.815424919128,0.797060489655,-0.706721186638,0.161426737905,-0.32095721364,0.609485924244
1555357970647069640,9612,1555357970647069640,world,-2.89868450165,-0.815454483032,0.797240257263,-0.705986022949,0.15947149694,-0.32164055109,0.610491573811
1555357970657443181,9613,1555357970657443181,world,-2.89873409271,-0.815475940704,0.797283649445,-0.706028282642,0.158964112401,-0.321387171745,0.610708475113
1555357970657484766,9614,1555357970657484766,world,-2.89798736572,-0.815376281738,0.796882152557,-0.707942485809,0.164691597223,-0.319338142872,0.608043849468
1555357970677067167,9615,1555357970677067167,world,-2.89773273468,-0.815292596817,0.796732187271,-0.708572804928,0.166435435414,-0.318318784237,0.607368886471
1555357970677117673,9616,1555357970677117673,world,-2.89775180817,-0.815267562866,0.796798706055,-0.708590805531,0.166330635548,-0.318110138178,0.607485890388
1555357970687488691,9617,1555357970687488691,world,-2.89848136902,-0.815393924713,0.797130584717,-0.706545293331,0.160643741488,-0.320836275816,0.609960258007
1555357970687527545,9618,1555357970687527545,world,-2.89873027802,-0.815447807312,0.797262430191,-0.705885589123,0.158922672272,-0.321968883276,0.610577762127
1555357970696834576,9619,1555357970696834576,world,-2.89877414703,-0.815448284149,0.797259092331,-0.705952525139,0.158524230123,-0.321387887001,0.610909998417
1555357970707208670,9620,1555357970707208670,world,-2.89803409576,-0.815371274948,0.796864509583,-0.70779299736,0.16429245472,-0.319323301315,0.608333587646
1555357970717680606,9621,1555357970717680606,world,-2.89780330658,-0.815240859985,0.796787977219,-0.708540081978,0.165800869465,-0.317931175232,0.607783555984
1555357970727102734,9622,1555357970727102734,world,-2.89844036102,-0.815432786942,0.79710149765,-0.706898927689,0.161139011383,-0.320525527,0.60958313942
1555357970727155317,9623,1555357970727155317,world,-2.8986825943,-0.815518379211,0.79727602005,-0.70599091053,0.158650130033,-0.320503026247,0.611297667027
1555357970737561330,9624,1555357970737561330,world,-2.89869022369,-0.815503835678,0.797231674194,-0.70582306385,0.159115344286,-0.321924716234,0.610623180866
1555357970746886675,9625,1555357970746886675,world,-2.89867687225,-0.815512895584,0.797157764435,-0.706175506115,0.159537628293,-0.321774154902,0.610184669495
1555357970757214813,9626,1555357970757214813,world,-2.89794254303,-0.815326213837,0.796783208847,-0.70811098814,0.164932876825,-0.31892606616,0.607998371124
1555357970767655687,9627,1555357970767655687,world,-2.89771175385,-0.815318346024,0.79675245285,-0.708729982376,0.166745245457,-0.318349421024,0.607084512711
1555357970777021234,9628,1555357970777021234,world,-2.89840507507,-0.815387010574,0.79712843895,-0.706759333611,0.161382690072,-0.320787340403,0.60954284668
1555357970777075383,9629,1555357970777075383,world,-2.89865493774,-0.815455913544,0.797263145447,-0.706101119518,0.159628793597,-0.3217433393,0.610263168812
1555357970796721366,9630,1555357970796721366,world,-2.89800739288,-0.815311670303,0.796976089478,-0.707998454571,0.164421737194,-0.318990498781,0.608234226704
1555357970796760617,9631,1555357970796760617,world,-2.89779472351,-0.815246105194,0.79672908783,-0.708542644978,0.166020676494,-0.317935317755,0.607718408108
1555357970807078047,9632,1555357970807078047,world,-2.89778137207,-0.815249681473,0.79671216011,-0.708561956882,0.166123747826,-0.317996531725,0.607635557652
1555357970817458250,9633,1555357970817458250,world,-2.89853477478,-0.815393209457,0.797120094299,-0.706544041634,0.160424456,-0.320805519819,0.610035598278
1555357970826744270,9634,1555357970826744270,world,-2.89876937866,-0.815468072891,0.79733133316,-0.705725312233,0.158757284284,-0.321942538023,0.610819816589
1555357970837084381,9635,1555357970837084381,world,-2.8987903595,-0.815476894379,0.797282934189,-0.705968856812,0.158434152603,-0.321617096663,0.610793828964
1555357970837133597,9636,1555357970837133597,world,-2.89801597595,-0.815336942673,0.796825170517,-0.707892894745,0.164096832275,-0.319156646729,0.608357727528
1555357970847459918,9637,1555357970847459918,world,-2.89776992798,-0.815286874771,0.796695709229,-0.708513617516,0.16592413187,-0.318257451057,0.607609987259
1555357970856779580,9638,1555357970856779580,world,-2.89839935303,-0.815451145172,0.797074556351,-0.706695318222,0.161345541477,-0.321111321449,0.609456300735
1555357970867219029,9639,1555357970867219029,world,-2.89869117737,-0.815431118011,0.797290086746,-0.70597833395,0.158975154161,-0.321526199579,0.610690116882
1555357970877619579,9640,1555357970877619579,world,-2.89872741699,-0.815478563309,0.797269582748,-0.706108689308,0.158874601126,-0.321323424578,0.610672295094
1555357970877665856,9641,1555357970877665856,world,-2.89799213409,-0.815341472626,0.796867609024,-0.707993686199,0.164391756058,-0.319046765566,0.608218252659
1555357970886950076,9642,1555357970886950076,world,-2.89774799347,-0.815320253372,0.796749830246,-0.708560049534,0.166414558887,-0.318323284388,0.607387185097
1555357970917147855,9643,1555357970917147855,world,-2.89842605591,-0.815446138382,0.797076463699,-0.706903457642,0.161402583122,-0.320320606232,0.60961574316
1555357970917215572,9645,1555357970917215572,world,-2.8987159729,-0.81552028656,0.797246932983,-0.705844342709,0.158494770527,-0.320824593306,0.611338555813
1555357970927544613,9646,1555357970927544613,world,-2.8986825943,-0.815438270569,0.797180652618,-0.706084370613,0.159169733524,-0.321494460106,0.61053365469
1555357970927584203,9647,1555357970927584203,world,-2.89797878265,-0.815310239792,0.79688334465,-0.708072960377,0.164829954505,-0.319016933441,0.608022987843
1555357970936966231,9648,1555357970936966231,world,-2.89840984344,-0.815411567688,0.796981811523,-0.70696824789,0.161636024714,-0.320696771145,0.609280943871
1555357970947480949,9649,1555357970947480949,world,-2.89789104462,-0.815259456635,0.796834468842,-0.708296179771,0.165466398001,-0.318604469299,0.607806384563
1555357970956959617,9650,1555357970956959617,world,-2.89844989777,-0.815318584442,0.797137498856,-0.706730663776,0.16077208519,-0.320552229881,0.609861075878
1555357970967271466,9651,1555357970967271466,world,-2.89865493774,-0.815393924713,0.797245025635,-0.706137001514,0.159349113703,-0.321379482746,0.610486507416
1555357970976713207,9652,1555357970976713207,world,-2.89798641205,-0.815310239792,0.796912193298,-0.708056330681,0.164496287704,-0.318905085325,0.608191490173
1555357970987111657,9653,1555357970987111657,world,-2.8977394104,-0.815273523331,0.796743392944,-0.708646774292,0.166311308742,-0.318298786879,0.607327222824
1555357970997502669,9654,1555357970997502669,world,-2.89772129059,-0.815281867981,0.796759128571,-0.708691060543,0.166387304664,-0.318098902702,0.607359230518
1555357970997545221,9655,1555357970997545221,world,-2.89848804474,-0.815387248993,0.797124385834,-0.706602394581,0.160603359342,-0.320705920458,0.609973311424
1555357971006886946,9656,1555357971006886946,world,-2.89875125885,-0.815427780151,0.797291517258,-0.705907702446,0.158666923642,-0.321601837873,0.610811948776
1555357971017299430,9657,1555357971017299430,world,-2.8987531662,-0.815479040146,0.797209501266,-0.705851197243,0.158842161298,-0.322187632322,0.610523045063
1555357971027705876,9658,1555357971027705876,world,-2.89872360229,-0.815489530563,0.797158241272,-0.706155121326,0.158953383565,-0.321678638458,0.610411167145
1555357971027751132,9659,1555357971027751132,world,-2.89797210693,-0.815360546112,0.79683303833,-0.708026885986,0.164735764265,-0.319152057171,0.608031213284
1555357971037113105,9660,1555357971037113105,world,-2.89845371246,-0.815392255783,0.797093391418,-0.706719815731,0.161071509123,-0.320720374584,0.609706044197
1555357971047555846,9661,1555357971047555846,world,-2.89861106873,-0.815465688705,0.797206640244,-0.706231057644,0.160040363669,-0.32164773345,0.610055446625
1555357971056897525,9662,1555357971056897525,world,-2.89865684509,-0.815446376801,0.797214031219,-0.706087589264,0.159680500627,-0.321653842926,0.610312342644
1555357971067295953,9663,1555357971067295953,world,-2.89793300629,-0.815281391144,0.79688000679,-0.708160102367,0.164917081594,-0.318674296141,0.608077526093
1555357971077642643,9664,1555357971077642643,world,-2.89770698547,-0.815227985382,0.796716213226,-0.708754956722,0.166467830539,-0.317728310823,0.607456803322
1555357971087076993,9665,1555357971087076993,world,-2.89770412445,-0.815273761749,0.796779632568,-0.708809554577,0.166759669781,-0.317919075489,0.607213020325
1555357971087141331,9666,1555357971087141331,world,-2.89845561981,-0.815373420715,0.797139644623,-0.706674337387,0.160930275917,-0.320717096329,0.609797894955
1555357971097587444,9667,1555357971097587444,world,-2.89870738983,-0.815471410751,0.797238349915,-0.705926418304,0.159298822284,-0.322139441967,0.610342621803
1555357971107040549,9668,1555357971107040549,world,-2.89877128601,-0.815459251404,0.797246217728,-0.705972254276,0.158506020904,-0.321651518345,0.610753238201
