%time,field.header.seq,field.header.stamp,field.header.frame_id,field.pose.position.x,field.pose.position.y,field.pose.position.z,field.pose.orientation.x,field.pose.orientation.y,field.pose.orientation.z,field.pose.orientation.w
1555358201086916871,10814,1555358201086916871,world,-2.89277935028,-0.813880205154,0.797254800797,-0.692575573921,0.208965912461,-0.365532934666,0.585711419582
1555358201097258120,10815,1555358201097258120,world,-2.89278125763,-0.81387758255,0.797247171402,-0.69255232811,0.208954438567,-0.365419149399,0.585813999176
1555358201107591468,10816,1555358201107591468,world,-2.89276313782,-0.813901185989,0.797143936157,-0.692510128021,0.209278821945,-0.365494251251,0.585701465607
1555358201107626553,10817,1555358201107626553,world,-2.89272975922,-0.813936710358,0.797120809555,-0.692593097687,0.209536373615,-0.365765690804,0.585341691971
1555358201116944905,10818,1555358201116944905,world,-2.89276695251,-0.81392455101,0.797248125076,-0.692465782166,0.209025502205,-0.365654945374,0.585743904114
1555358201127344057,10819,1555358201127344057,world,-2.89280605316,-0.813905000687,0.797345161438,-0.692659914494,0.208693221211,-0.365243703127,0.585889458656
1555358201137792505,10820,1555358201137792505,world,-2.89280891418,-0.813858509064,0.797305107117,-0.692673563957,0.208583727479,-0.365084350109,0.586011588573
1555358201147258026,10821,1555358201147258026,world,-2.8927526474,-0.813915252686,0.797132730484,-0.692630887032,0.209203198552,-0.365410983562,0.585637509823
1555358201157711864,10822,1555358201157711864,world,-2.89272499084,-0.813894987106,0.797097682953,-0.692649960518,0.209337607026,-0.365365803242,0.585595071316
1555358201157753061,10823,1555358201157753061,world,-2.89273071289,-0.813910484314,0.797196865082,-0.692659914494,0.209206059575,-0.365566879511,0.585504889488
1555358201167064381,10824,1555358201167064381,world,-2.89277362823,-0.813889503479,0.797337770462,-0.692666947842,0.208834022284,-0.365287750959,0.585803687572
1555358201177387182,10825,1555358201177387182,world,-2.89276409149,-0.813875198364,0.797284603119,-0.692665040493,0.20895960927,-0.365407913923,0.585686147213
1555358201187718567,10826,1555358201187718567,world,-2.89272499084,-0.813873767853,0.797144412994,-0.692608177662,0.209196045995,-0.365470081568,0.585630059242
1555358201197034721,10827,1555358201197034721,world,-2.89274215698,-0.813879489899,0.797126531601,-0.692625999451,0.209171578288,-0.36547601223,0.585613965988
1555358201207465075,10828,1555358201207465075,world,-2.89277553558,-0.81388926506,0.797207117081,-0.692661166191,0.209157600999,-0.365463078022,0.585585534573
1555358201216836739,10829,1555358201216836739,world,-2.89279556274,-0.813888549805,0.797291755676,-0.692568540573,0.208868905902,-0.365388154984,0.585844755173
1555358201227126249,10830,1555358201227126249,world,-2.89278125763,-0.813926458359,0.79726266861,-0.692559480667,0.209233745933,-0.365689396858,0.585537195206
1555358201227187272,10831,1555358201227187272,world,-2.8927822113,-0.813903570175,0.797218084335,-0.692541897297,0.209248811007,-0.365659505129,0.585571348667
1555358201237580719,10832,1555358201237580719,world,-2.89275455475,-0.813927412033,0.797154426575,-0.692515552044,0.209297031164,-0.36574229598,0.585533559322
1555358201246968348,10833,1555358201246968348,world,-2.89274597168,-0.813937425613,0.797185897827,-0.692536175251,0.209284797311,-0.365773230791,0.585494160652
1555358201257299928,10834,1555358201257299928,world,-2.89279174805,-0.813916683197,0.797250747681,-0.692648589611,0.208900183439,-0.365353912115,0.58576053381
1555358201257343981,10835,1555358201257343981,world,-2.89277076721,-0.8139128685,0.797261476517,-0.692623972893,0.20895691216,-0.365508139133,0.585673034191
1555358201267666089,10836,1555358201267666089,world,-2.89275550842,-0.813929796219,0.797220230103,-0.692612946033,0.209110155702,-0.365479260683,0.585649371147
1555358201277013450,10837,1555358201277013450,world,-2.89274978638,-0.813892841339,0.797157287598,-0.692682206631,0.209094136953,-0.365402549505,0.585621058941
1555358201287246963,10838,1555358201287246963,world,-2.89274501801,-0.813922166824,0.797162294388,-0.692667484283,0.209194779396,-0.365422010422,0.585590362549
1555358201297573439,10839,1555358201297573439,world,-2.89274311066,-0.813898086548,0.797240495682,-0.692604005337,0.20891341567,-0.365542858839,0.585690438747
1555358201306851913,10840,1555358201306851913,world,-2.89277076721,-0.81390953064,0.79726266861,-0.692625582218,0.20901311934,-0.365409165621,0.585712790489
1555358201306886582,10841,1555358201306886582,world,-2.89275741577,-0.813872337341,0.797214984894,-0.692571461201,0.208894446492,-0.365366369486,0.585845828056
1555358201317301090,10842,1555358201317301090,world,-2.89273357391,-0.81391620636,0.797149658203,-0.692648112774,0.209274083376,-0.365625828505,0.585457742214
1555358201327671569,10843,1555358201327671569,world,-2.89279460907,-0.813928842545,0.797173976898,-0.692441761494,0.209119454026,-0.365570217371,0.585791707039
1555358201337019434,10844,1555358201337019434,world,-2.89279747009,-0.813857793808,0.797267436981,-0.692554831505,0.208562269807,-0.365226447582,0.5860709548
1555358201347382135,10845,1555358201347382135,world,-2.89277553558,-0.813883066177,0.797254323959,-0.692586660385,0.208865508437,-0.365317106247,0.585868835449
1555358201356656351,10846,1555358201356656351,world,-2.89278411865,-0.813849449158,0.797245264053,-0.692503750324,0.208829119802,-0.36521294713,0.58604490757
1555358201356694747,10847,1555358201356694747,world,-2.89274406433,-0.81388425827,0.797169923782,-0.692560017109,0.209242060781,-0.365554839373,0.585617661476
1555358201367187744,10848,1555358201367187744,world,-2.89274597168,-0.813920497894,0.797158718109,-0.692705631256,0.209220692515,-0.365556359291,0.585452079773
1555358201387047970,10849,1555358201387047970,world,-2.89277935028,-0.813899755478,0.797233343124,-0.692651093006,0.209034278989,-0.365618497133,0.585544466972
1555358201387089006,10850,1555358201387089006,world,-2.89276695251,-0.81390786171,0.797235012054,-0.692580699921,0.209111437201,-0.365598201752,0.585612773895
1555358201397498528,10851,1555358201397498528,world,-2.89279842377,-0.813873291016,0.797263860703,-0.692592859268,0.208900973201,-0.365432977676,0.585776567459
1555358201406961082,10852,1555358201406961082,world,-2.89277362823,-0.813912630081,0.797168970108,-0.692635834217,0.209184721112,-0.365527063608,0.585565924644
1555358201407016889,10853,1555358201407016889,world,-2.89277172089,-0.81388092041,0.797165870667,-0.692516386509,0.209085300565,-0.365427047014,0.585805058479
1555358201417335811,10854,1555358201417335811,world,-2.89275741577,-0.813909053802,0.797169923782,-0.692614614964,0.209411278367,-0.36547973752,0.585539460182
1555358201427727244,10855,1555358201427727244,world,-2.89276313782,-0.813898324966,0.797210693359,-0.692648410797,0.209026813507,-0.365393877029,0.585690498352
1555358201437177436,10856,1555358201437177436,world,-2.89276123047,-0.813886165619,0.797242164612,-0.692607104778,0.208868831396,-0.36545214057,0.585759341717
1555358201447556275,10857,1555358201447556275,world,-2.89276599884,-0.813914060593,0.797251939774,-0.692587137222,0.209024593234,-0.365565776825,0.585656404495
1555358201456903103,10858,1555358201456903103,world,-2.89276504517,-0.813908100128,0.797220945358,-0.692563354969,0.209081962705,-0.365597039461,0.585644602776
1555358201456945519,10859,1555358201456945519,world,-2.89275550842,-0.81387424469,0.797161340714,-0.692586004734,0.209024563432,-0.365413099527,0.585753083229
1555358201467292920,10860,1555358201467292920,world,-2.89273452759,-0.813884735107,0.79719543457,-0.692609846592,0.208972468972,-0.365455538034,0.585717082024
1555358201477730367,10861,1555358201477730367,world,-2.89276313782,-0.813876867294,0.797261953354,-0.692653894424,0.208884179592,-0.365330696106,0.585774183273
1555358201487186860,10862,1555358201487186860,world,-2.89281463623,-0.813884735107,0.797293663025,-0.692676901817,0.208897188306,-0.365250766277,0.585792243481
1555358201497527254,10863,1555358201497527254,world,-2.89278411865,-0.813883781433,0.797251462936,-0.69265973568,0.208955898881,-0.365397393703,0.585700213909
1555358201506852245,10864,1555358201506852245,world,-2.89274215698,-0.813892602921,0.797145366669,-0.692517757416,0.209316775203,-0.36572933197,0.585531949997
1555358201506898219,10865,1555358201506898219,world,-2.89274597168,-0.813882112503,0.797095537186,-0.692466676235,0.209283620119,-0.365479081869,0.58576053381
1555358201517318557,10866,1555358201517318557,world,-2.89277362823,-0.813888549805,0.797208547592,-0.692528784275,0.209063008428,-0.365370303392,0.585833668709
1555358201527721005,10867,1555358201527721005,world,-2.89281463623,-0.813907623291,0.79730629921,-0.692647814751,0.208798781037,-0.365508496761,0.585700929165
1555358201537169883,10868,1555358201537169883,world,-2.89279460907,-0.813916683197,0.797304868698,-0.692596852779,0.208917707205,-0.365649074316,0.585631072521
1555358201547444463,10869,1555358201547444463,world,-2.89274787903,-0.813915014267,0.797151327133,-0.692570269108,0.209267750382,-0.365775495768,0.585458636284
1555358201556707844,10870,1555358201556707844,world,-2.89275169373,-0.813896894455,0.797105073929,-0.692496597767,0.209344521165,-0.365710049868,0.585559248924
1555358201567225538,10871,1555358201567225538,world,-2.89272212982,-0.813917636871,0.797162771225,-0.692573130131,0.209440782666,-0.365671545267,0.585458397865
1555358201567294975,10872,1555358201567294975,world,-2.89276981354,-0.813915014267,0.797256946564,-0.692665874958,0.209040999413,-0.365486651659,0.58560693264
1555358201577607909,10873,1555358201577607909,world,-2.89278411865,-0.813876390457,0.797307729721,-0.692633867264,0.20886400342,-0.365433901548,0.585740864277
1555358201586944932,10874,1555358201586944932,world,-2.89274311066,-0.81390786171,0.797223806381,-0.692569375038,0.20913399756,-0.365525782108,0.585663259029
1555358201597361392,10875,1555358201597361392,world,-2.89273166656,-0.813867092133,0.797129392624,-0.692569553852,0.209101989865,-0.365507274866,0.585686087608
1555358201607803303,10876,1555358201607803303,world,-2.89272689819,-0.813910484314,0.79714179039,-0.692631542683,0.209335237741,-0.365487247705,0.585542023182
1555358201607847115,10877,1555358201607847115,world,-2.89277839661,-0.813881158829,0.797256946564,-0.692637383938,0.208871454,-0.365401357412,0.585754334927
1555358201617206753,10878,1555358201617206753,world,-2.89278411865,-0.813908815384,0.797250270844,-0.692675411701,0.209022596478,-0.365438252687,0.585632443428
1555358201627545735,10879,1555358201627545735,world,-2.89276123047,-0.813887357712,0.797256469727,-0.6926176548,0.208884105086,-0.365360021591,0.585798740387
1555358201636810378,10880,1555358201636810378,world,-2.89275074005,-0.813911914825,0.797181606293,-0.692658722401,0.209160283208,-0.365457803011,0.585590720177
1555358201647223496,10881,1555358201647223496,world,-2.89274120331,-0.813897371292,0.797173976898,-0.692591965199,0.209064438939,-0.365474969149,0.585693240166
1555358201657602750,10882,1555358201657602750,world,-2.89276027679,-0.813919782639,0.797211885452,-0.692578077316,0.209066972136,-0.365401029587,0.585754871368
1555358201657644278,10883,1555358201657644278,world,-2.8928155899,-0.813873529434,0.797229766846,-0.692485868931,0.208912923932,-0.365345269442,0.585953593254
1555358201667070738,10884,1555358201667070738,world,-2.8927898407,-0.813902616501,0.797224521637,-0.692477464676,0.209034383297,-0.365467429161,0.585844039917
1555358201677528889,10885,1555358201677528889,world,-2.89277267456,-0.813911676407,0.797196626663,-0.692592799664,0.209101170301,-0.365600913763,0.585600554943
1555358201686862203,10886,1555358201686862203,world,-2.89275455475,-0.813875675201,0.797168254852,-0.692675352097,0.2091614604,-0.365339517593,0.585644483566
1555358201697282118,10887,1555358201697282118,world,-2.89271068573,-0.813942909241,0.797182321548,-0.692757129669,0.209411561489,-0.365708351135,0.585227966309
1555358201707684136,10888,1555358201707684136,world,-2.89278697968,-0.813867330551,0.797254800797,-0.692615091801,0.208791226149,-0.365205794573,0.585931122303
1555358201707723388,10889,1555358201707723388,world,-2.89277362823,-0.813871145248,0.797184705734,-0.69265550375,0.208903521299,-0.365318864584,0.585772931576
1555358201727307814,10890,1555358201727307814,world,-2.89275455475,-0.813867807388,0.797206163406,-0.692680597305,0.208939239383,-0.36548769474,0.585625171661
1555358201727346511,10891,1555358201727346511,world,-2.89276409149,-0.813902616501,0.797180175781,-0.692642211914,0.209218069911,-0.365599393845,0.585501194
1555358201737626425,10892,1555358201737626425,world,-2.89275169373,-0.81386423111,0.797214269638,-0.692642867565,0.208992868662,-0.365456074476,0.585670411587
1555358201746907211,10893,1555358201746907211,world,-2.89277553558,-0.813854932785,0.79721903801,-0.692633569241,0.208989828825,-0.36529263854,0.585784375668
1555358201757289758,10894,1555358201757289758,world,-2.89277172089,-0.813874483109,0.797213077545,-0.692607343197,0.209002047777,-0.365450590849,0.585712611675
1555358201757329444,10895,1555358201757329444,world,-2.89276409149,-0.813842058182,0.797206163406,-0.692559480667,0.20889864862,-0.365456104279,0.585802555084
1555358201767701732,10896,1555358201767701732,world,-2.89276599884,-0.813888311386,0.797161340714,-0.692585229874,0.209206685424,-0.365597486496,0.585573911667
1555358201787290613,10897,1555358201787290613,world,-2.89277458191,-0.813863754272,0.797198295593,-0.692586421967,0.209015995264,-0.365425676107,0.585747778416
1555358201797660180,10898,1555358201797660180,world,-2.89277458191,-0.813900470734,0.797242641449,-0.692490696907,0.209186270833,-0.365524351597,0.5857385993
1555358201797688737,10899,1555358201797688737,world,-2.89276123047,-0.813906908035,0.797221660614,-0.692517638206,0.209348037839,-0.365608036518,0.585596740246
1555358201807023470,10900,1555358201807023470,world,-2.89276123047,-0.813899040222,0.797177553177,-0.692564606667,0.209267750382,-0.365397036076,0.585701644421
1555358201817418713,10901,1555358201817418713,world,-2.89272117615,-0.813942193985,0.797119617462,-0.692552924156,0.209481075406,-0.365681827068,0.585461318493
1555358201836940924,10902,1555358201836940924,world,-2.89272880554,-0.813905000687,0.797124624252,-0.692604601383,0.209302261472,-0.365609079599,0.58550965786
1555358201836981862,10903,1555358201836981862,world,-2.8927822113,-0.813893318176,0.79728102684,-0.692600786686,0.209011256695,-0.365453034639,0.585715413094
1555358201837033738,10904,1555358201837033738,world,-2.89279651642,-0.813892126083,0.797318458557,-0.692599475384,0.208819121122,-0.365371316671,0.585836589336
1555358201847449911,10905,1555358201847449911,world,-2.89275360107,-0.813877344131,0.797219753265,-0.692659199238,0.208932355046,-0.365351825953,0.585737586021
1555358201856725741,10906,1555358201856725741,world,-2.89272403717,-0.813894033432,0.79710483551,-0.692603647709,0.209331542253,-0.365525990725,0.585552036762
1555358201867276669,10907,1555358201867276669,world,-2.89274024963,-0.813883781433,0.79712843895,-0.692505836487,0.209127426147,-0.365538835526,0.585732698441
1555358201867317397,10908,1555358201867317397,world,-2.89275741577,-0.813916444778,0.79723405838,-0.692518293858,0.209014490247,-0.365479141474,0.585795521736
1555358201877653596,10909,1555358201877653596,world,-2.89281272888,-0.813869714737,0.797342300415,-0.69255065918,0.208566695452,-0.365315407515,0.58601886034
1555358201886976130,10910,1555358201886976130,world,-2.892786026,-0.813892364502,0.797273397446,-0.692601919174,0.208931729198,-0.365369439125,0.585794687271
1555358201897374510,10911,1555358201897374510,world,-2.89272403717,-0.813878059387,0.797115325928,-0.692608773708,0.209315389395,-0.365562289953,0.585529267788
1555358201906774307,10912,1555358201906774307,world,-2.89273548126,-0.813905954361,0.797079324722,-0.69267064333,0.209371581674,-0.365632325411,0.5853921175
1555358201906827474,10913,1555358201906827474,world,-2.89277458191,-0.813865423203,0.797156095505,-0.692652225494,0.209144160151,-0.365548014641,0.585547924042
1555358201917201821,10914,1555358201917201821,world,-2.89281272888,-0.813883066177,0.79727101326,-0.692619800568,0.209020659328,-0.365465760231,0.585681676865
1555358201927664423,10915,1555358201927664423,world,-2.89284515381,-0.813842773438,0.797328948975,-0.692543745041,0.208632692695,-0.365430593491,0.585931777954
1555358201937041469,10916,1555358201937041469,world,-2.89279747009,-0.813836812973,0.797226190567,-0.692538559437,0.208973124623,-0.365636616945,0.585687994957
1555358201947477590,10917,1555358201947477590,world,-2.89275741577,-0.813845396042,0.797098875046,-0.692574799061,0.209260553122,-0.365502983332,0.585625946522
1555358201956737852,10918,1555358201956737852,world,-2.89276027679,-0.813854455948,0.797111272812,-0.692569315434,0.209112659097,-0.365344315767,0.585784316063
1555358201956794595,10919,1555358201956794595,world,-2.89277553558,-0.813893556595,0.797201156616,-0.69266140461,0.209192469716,-0.365589439869,0.58549374342
1555358201967120203,10920,1555358201967120203,world,-2.8927898407,-0.813875198364,0.797339677811,-0.692675352097,0.208778724074,-0.365378856659,0.585756540298
1555358201986703396,10921,1555358201986703396,world,-2.89278030396,-0.813874959946,0.797280311584,-0.692593336105,0.208794981241,-0.365554064512,0.585738241673
1555358201986747821,10922,1555358201986747821,world,-2.89274692535,-0.813856363297,0.797125816345,-0.692614555359,0.209053680301,-0.365516424179,0.585644483566
1555358201997090846,10923,1555358201997090846,world,-2.89272499084,-0.81390953064,0.797072887421,-0.692646086216,0.209467843175,-0.36571469903,0.585335373878
1555358202007374440,10924,1555358202007374440,world,-2.89276599884,-0.813887357712,0.797206878662,-0.692623436451,0.209146097302,-0.365588456392,0.585555911064
1555358202017649859,10925,1555358202017649859,world,-2.89283180237,-0.81383728981,0.797368526459,-0.692665100098,0.20865856111,-0.365177035332,0.585937261581
1555358202017698369,10926,1555358202017698369,world,-2.89281272888,-0.813819169998,0.79727268219,-0.692593574524,0.208776041865,-0.365272283554,0.585920572281
1555358202027069309,10927,1555358202027069309,world,-2.8927526474,-0.813838720322,0.797091960907,-0.692566633224,0.209383308887,-0.365505337715,0.585590362549
1555358202037467789,10928,1555358202037467789,world,-2.89275741577,-0.813828468323,0.797042369843,-0.692526400089,0.209371879697,-0.365549117327,0.585614562035
1555358202046796352,10929,1555358202046796352,world,-2.89278411865,-0.813858985901,0.79715013504,-0.692643582821,0.209368258715,-0.365552872419,0.585474908352
1555358202057119191,10930,1555358202057119191,world,-2.89283466339,-0.813816070557,0.797326803207,-0.692665100098,0.208800017834,-0.365453004837,0.585714817047
1555358202057173444,10931,1555358202057173444,world,-2.89282608032,-0.813823699951,0.797291278839,-0.692614734173,0.208863407373,-0.365550965071,0.585690677166
1555358202067603375,10932,1555358202067603375,world,-2.89277839661,-0.813842773438,0.79714679718,-0.692544996738,0.209276035428,-0.36557200551,0.585612654686
1555358202077122634,10933,1555358202077122634,world,-2.89273262024,-0.813865423203,0.797060728073,-0.692641556263,0.209403038025,-0.365652710199,0.585402607918
1555358202087626007,10934,1555358202087626007,world,-2.89274692535,-0.813889026642,0.797088861465,-0.692625105381,0.2094694525,-0.365674883127,0.585384488106
1555358202096997915,10935,1555358202096997915,world,-2.89280796051,-0.813850641251,0.797288179398,-0.692566394806,0.208737492561,-0.365300059319,0.58594918251
1555358202107402863,10936,1555358202107402863,world,-2.89273262024,-0.813848972321,0.79735827446,-0.692579209805,0.208638042212,-0.365870445967,0.585613429546
1555358202116735686,10937,1555358202116735686,world,-2.89273834229,-0.813873767853,0.797254800797,-0.69258660078,0.209046274424,-0.365770787001,0.585521399975
1555358202127123183,10938,1555358202127123183,world,-2.89272689819,-0.813861131668,0.79710149765,-0.692537844181,0.209325313568,-0.365644365549,0.58555829525
1555358202127193165,10939,1555358202127193165,world,-2.89268493652,-0.813865423203,0.797005176544,-0.69263279438,0.209808722138,-0.365670263767,0.585256755352
1555358202137461833,10940,1555358202137461833,world,-2.89276790619,-0.813824653625,0.797239780426,-0.692590475082,0.208994492888,-0.365282773972,0.585839748383
1555358202146677341,10941,1555358202146677341,world,-2.89280986786,-0.813811302185,0.797391176224,-0.69253385067,0.208810642362,-0.365232288837,0.58600372076
1555358202157021890,10942,1555358202157021890,world,-2.89279842377,-0.813805103302,0.797364473343,-0.692583918571,0.208758607507,-0.365304768085,0.585917890072
1555358202157059525,10943,1555358202157059525,world,-2.89273262024,-0.81383395195,0.797152996063,-0.692541182041,0.209171831608,-0.365462213755,0.58572280407
1555358202176768706,10944,1555358202176768706,world,-2.8926525116,-0.813910484314,0.796955108643,-0.692658007145,0.209884107113,-0.365717321634,0.585170388222
1555358202176811000,10945,1555358202176811000,world,-2.89269065857,-0.813905954361,0.797127723694,-0.692635595798,0.209406450391,-0.36570122838,0.585378050804
1555358202187255045,10946,1555358202187255045,world,-2.89277935028,-0.813914299011,0.797380685806,-0.69263792038,0.208732247353,-0.365348577499,0.585836172104
1555358202197667285,10947,1555358202197667285,world,-2.89279174805,-0.813918828964,0.797443389893,-0.69267398119,0.208418190479,-0.365246325731,0.585969090462
1555358202207026229,10948,1555358202207026229,world,-2.8927192688,-0.813960790634,0.797201633453,-0.692555725574,0.20930826664,-0.365529328585,0.585615038872
1555358202217479299,10949,1555358202217479299,world,-2.89266490936,-0.813933849335,0.797015190125,-0.692566454411,0.209519863129,-0.365471750498,0.585562586784
1555358202226754139,10950,1555358202226754139,world,-2.89266109467,-0.813984394073,0.797076463699,-0.692635774612,0.20958147943,-0.365746378899,0.585287094116
1555358202226790275,10951,1555358202226790275,world,-2.89277553558,-0.813890457153,0.797327518463,-0.69268143177,0.20870848,-0.365338623524,0.585799396038
1555358202237256454,10952,1555358202237256454,world,-2.89281368256,-0.813813209534,0.797404766083,-0.692664682865,0.208510756493,-0.365091592073,0.586043715477
1555358202247658886,10953,1555358202247658886,world,-2.89275074005,-0.81381893158,0.797239780426,-0.692622244358,0.209061458707,-0.365443617105,0.585677981377
1555358202257111674,10954,1555358202257111674,world,-2.89270973206,-0.81380033493,0.797055006027,-0.692513585091,0.209542706609,-0.365806043148,0.58540815115
1555358202257151984,10955,1555358202257151984,world,-2.89268398285,-0.813811779022,0.797026395798,-0.692566633224,0.209854483604,-0.365936636925,0.5851521492
1555358202267507359,10956,1555358202267507359,world,-2.89274311066,-0.813773870468,0.797245502472,-0.692537307739,0.209051787853,-0.365555286407,0.585712194443
1555358202276707351,10957,1555358202276707351,world,-2.89278888702,-0.813802719116,0.797383308411,-0.692604780197,0.208793997765,-0.365608334541,0.585691213608
1555358202287026242,10958,1555358202287026242,world,-2.8927488327,-0.813810110092,0.797332286835,-0.692619562149,0.208764776587,-0.365587234497,0.585697412491
1555358202297274165,10959,1555358202297274165,world,-2.8926525116,-0.813906431198,0.797103404999,-0.692701637745,0.209580779076,-0.365827471018,0.585158705711
1555358202307676020,10960,1555358202307676020,world,-2.89262866974,-0.813956975937,0.797045469284,-0.692709445953,0.209724828601,-0.365842223167,0.58508849144
1555358202307707058,10961,1555358202307707058,world,-2.89266014099,-0.813961982727,0.79714012146,-0.692583680153,0.209435120225,-0.365738689899,0.585405766964
1555358202317119970,10962,1555358202317119970,world,-2.89272212982,-0.813932657242,0.797346591949,-0.69259172678,0.208678022027,-0.365379363298,0.585890889168
1555358202327394709,10963,1555358202327394709,world,-2.89273643494,-0.813897609711,0.797402858734,-0.692559838295,0.20853818953,-0.365230500698,0.586071193218
1555358202336713346,10964,1555358202336713346,world,-2.89269924164,-0.813929080963,0.797234773636,-0.69258415699,0.209109976888,-0.365367114544,0.585753381252
1555358202347111458,10965,1555358202347111458,world,-2.89257526398,-0.813879013062,0.797061443329,-0.692584335804,0.209962487221,-0.365381389856,0.585439324379
1555358202357501582,10966,1555358202357501582,world,-2.8926115036,-0.813876390457,0.797074794769,-0.692631006241,0.209832236171,-0.365557789803,0.585320711136
1555358202357554138,10967,1555358202357554138,world,-2.89260005951,-0.813878059387,0.797235965729,-0.692614078522,0.209136039019,-0.366468518972,0.585020363331
1555358202366981806,10968,1555358202366981806,world,-2.89270877838,-0.813797473907,0.797389745712,-0.692580699921,0.208628937602,-0.365829706192,0.58564043045
1555358202377434281,10969,1555358202377434281,world,-2.89273834229,-0.81377363205,0.797301530838,-0.692551493645,0.208828225732,-0.365636765957,0.585724294186
1555358202386788845,10970,1555358202386788845,world,-2.89266872406,-0.813806533813,0.797089338303,-0.692573428154,0.209588065743,-0.365766823292,0.585345685482
1555358202397229960,10971,1555358202397229960,world,-2.89267539978,-0.813778162003,0.797075033188,-0.69255143404,0.209397375584,-0.365605503321,0.585540652275
1555358202407513524,10972,1555358202407513524,world,-2.8927192688,-0.813806056976,0.797196865082,-0.692606508732,0.209112122655,-0.365626007318,0.585564732552
1555358202407564185,10973,1555358202407564185,world,-2.89276504517,-0.813838720322,0.797345876694,-0.692537367344,0.208909034729,-0.36546126008,0.58582174778
1555358202427154679,10974,1555358202427154679,world,-2.89276981354,-0.813838005066,0.797291278839,-0.692594826221,0.208822131157,-0.365231901407,0.585927844048
1555358202427193405,10975,1555358202427193405,world,-2.89272403717,-0.813904762268,0.797114849091,-0.692700862885,0.209285318851,-0.365524053574,0.585454940796
1555358202437624923,10976,1555358202437624923,world,-2.89267921448,-0.813958644867,0.797086000443,-0.692566096783,0.209584385157,-0.365779489279,0.585347831249
1555358202447087917,10977,1555358202447087917,world,-2.89272880554,-0.813980102539,0.797205209732,-0.692589044571,0.209314584732,-0.365678310394,0.585480451584
1555358202457512731,10978,1555358202457512731,world,-2.892786026,-0.813946008682,0.79734826088,-0.692613124847,0.208624765277,-0.365348219872,0.58590388298
1555358202466891748,10979,1555358202466891748,world,-2.8927564621,-0.81395816803,0.797299146652,-0.692499220371,0.208941340446,-0.365490227938,0.585837244987
1555358202487737490,10980,1555358202487737490,world,-2.89275169373,-0.81397652626,0.797186613083,-0.692656040192,0.209102377295,-0.365383028984,0.585661172867
1555358202487779365,10981,1555358202487779365,world,-2.89271450043,-0.813966751099,0.797142505646,-0.692599058151,0.209420785308,-0.365523099899,0.585527420044
1555358202487823593,10982,1555358202487823593,world,-2.89268875122,-0.813939809799,0.797196149826,-0.692694365978,0.209338396788,-0.365754932165,0.585299432278
1555358202497256712,10983,1555358202497256712,world,-2.89272975922,-0.813868522644,0.79728937149,-0.692588865757,0.208951845765,-0.365407377481,0.585779309273
1555358202507688406,10984,1555358202507688406,world,-2.89270019531,-0.813851833344,0.797264575958,-0.692606389523,0.209103316069,-0.365652650595,0.585551440716
1555358202517015585,10985,1555358202517015585,world,-2.89269256592,-0.813809871674,0.797180652618,-0.692594766617,0.209159716964,-0.365671515465,0.58553314209
1555358202517056297,10986,1555358202517056297,world,-2.89258861542,-0.81383228302,0.797138929367,-0.692640185356,0.209981575608,-0.365437805653,0.585331141949
1555358202527504436,10987,1555358202527504436,world,-2.89265632629,-0.813810348511,0.797226905823,-0.69262868166,0.209306195378,-0.365734487772,0.585401415825
1555358202536833842,10988,1555358202536833842,world,-2.89272403717,-0.813777923584,0.797281265259,-0.69255900383,0.208806917071,-0.365449547768,0.585839748383
1555358202547186878,10989,1555358202547186878,world,-2.89271831512,-0.813808202744,0.797274112701,-0.692512273788,0.208844527602,-0.365498304367,0.585851192474
1555358202557621996,10990,1555358202557621996,world,-2.89267730713,-0.813819646835,0.797194719315,-0.692575991154,0.209124878049,-0.365611821413,0.585605025291
1555358202557663095,10991,1555358202557663095,world,-2.89269638062,-0.813900947571,0.797171831131,-0.692635655403,0.209220841527,-0.36569327116,0.585449397564
1555358202577492632,10992,1555358202577492632,world,-2.89271068573,-0.813914299011,0.797231435776,-0.692557394505,0.209012031555,-0.365663915873,0.585634827614
1555358202577534347,10993,1555358202577534347,world,-2.89271640778,-0.813946485519,0.797255992889,-0.692547917366,0.209154263139,-0.365649521351,0.585604131222
1555358202586876477,10994,1555358202586876477,world,-2.89273548126,-0.8139295578,0.79726600647,-0.692556619644,0.208921596408,-0.365556001663,0.585735321045
1555358202597269863,10995,1555358202597269863,world,-2.89273166656,-0.813940763474,0.797257184982,-0.692591428757,0.209136530757,-0.365447998047,0.585685014725
1555358202607715622,10996,1555358202607715622,world,-2.89273357391,-0.813976287842,0.797198057175,-0.692611277103,0.209447100759,-0.365537434816,0.585494637489
1555358202607756865,10997,1555358202607756865,world,-2.89271736145,-0.813946723938,0.797185659409,-0.692523062229,0.209271803498,-0.365624696016,0.585607171059
1555358202617184341,10998,1555358202617184341,world,-2.89271068573,-0.81395149231,0.797212123871,-0.692676782608,0.209223374724,-0.365638852119,0.585433721542
1555358202627579707,10999,1555358202627579707,world,-2.89265155792,-0.81384563446,0.797251462936,-0.692487776279,0.208870008588,-0.36608710885,0.585503458977
1555358202637010586,11000,1555358202637010586,world,-2.8926858902,-0.813866853714,0.797237634659,-0.692695558071,0.209049910307,-0.365685194731,0.585444629192
1555358202647461383,11001,1555358202647461383,world,-2.8926897049,-0.813827037811,0.797206640244,-0.692624807358,0.209012806416,-0.365546107292,0.585628509521
1555358202656753353,11002,1555358202656753353,world,-2.89266967773,-0.813863515854,0.797174453735,-0.692609786987,0.209401965141,-0.365656137466,0.585438489914
1555358202656791681,11003,1555358202656791681,world,-2.89269065857,-0.813835859299,0.797215938568,-0.692597687244,0.209103539586,-0.365464001894,0.585679411888
1555358202667180727,11004,1555358202667180727,world,-2.89270591736,-0.813869953156,0.797305345535,-0.692562103271,0.209007903934,-0.365505814552,0.58572936058
1555358202677499237,11005,1555358202677499237,world,-2.89269161224,-0.813905477524,0.797276735306,-0.692660629749,0.209057226777,-0.365586429834,0.58554494381
1555358202686834822,11006,1555358202686834822,world,-2.89270114899,-0.813900232315,0.797234773636,-0.692653775215,0.209107175469,-0.365614235401,0.585517823696
1555358202697187885,11007,1555358202697187885,world,-2.8926782608,-0.813942670822,0.797152519226,-0.692616581917,0.209379628301,-0.365702569485,0.585409343243
1555358202707627984,11008,1555358202707627984,world,-2.89270877838,-0.813917160034,0.797190666199,-0.692607223988,0.209148660302,-0.36539748311,0.585693478584
1555358202717087801,11009,1555358202717087801,world,-2.89272880554,-0.813920736313,0.79727101326,-0.692575216293,0.209185048938,-0.365567564964,0.58561205864
1555358202717129192,11010,1555358202717129192,world,-2.89274787903,-0.813891649246,0.797274112701,-0.692572295666,0.208957105875,-0.36547383666,0.58575552702
1555358202727585225,11011,1555358202727585225,world,-2.89274597168,-0.81392621994,0.797215461731,-0.6925380826,0.209239080548,-0.365708976984,0.585548520088
1555358202987118564,11012,1555358202987118564,world,-2.89275360107,-0.813868045807,0.797253608704,-0.692537546158,0.208764538169,-0.365407109261,0.585906744003
1555358202987192244,11013,1555358202987192244,world,-2.89273357391,-0.813928842545,0.797258615494,-0.692598819733,0.209075689316,-0.3656924963,0.585545301437
1555358202987244729,11015,1555358202987244729,world,-2.8927154541,-0.813916683197,0.797171115875,-0.69259005785,0.209307864308,-0.365540653467,0.585567593575
1555358202987296101,11016,1555358202987296101,world,-2.89270973206,-0.813903093338,0.797158718109,-0.692663192749,0.20928953588,-0.365523457527,0.585498332977
1555358202987348280,11018,1555358202987348280,world,-2.89274120331,-0.813902616501,0.797270536423,-0.692624330521,0.20912002027,-0.3655128479,0.585611343384
1555358202987373978,11019,1555358202987373978,world,-2.89273834229,-0.813876152039,0.797269582748,-0.692616462708,0.209041461349,-0.365447402,0.585689544678
1555358202987422722,11021,1555358202987422722,world,-2.89269638062,-0.813855886459,0.797160863876,-0.692624330521,0.209254726768,-0.365544676781,0.585543394089
1555358202987448913,11022,1555358202987448913,world,-2.89268875122,-0.813874959946,0.797180175781,-0.692533791065,0.209255710244,-0.365708261728,0.585548043251
1555358202987499020,11024,1555358202987499020,world,-2.89273262024,-0.81387257576,0.797293901443,-0.692629158497,0.20875389874,-0.365477234125,0.585758566856
1555358202987522743,11025,1555358202987522743,world,-2.89273452759,-0.813899278641,0.797251224518,-0.69260931015,0.208922624588,-0.36550283432,0.58570599556
1555358202987547607,11026,1555358202987547607,world,-2.89271450043,-0.813918590546,0.797210931778,-0.692538440228,0.209165662527,-0.365508288145,0.585699498653
1555358203197330379,11027,1555358203197330379,world,-2.89269542694,-0.813910961151,0.79715681076,-0.692661821842,0.20934548974,-0.365519315004,0.585482418537
1555358203197403373,11028,1555358203197403373,world,-2.89271640778,-0.813873529434,0.797195672989,-0.692622601986,0.209063917398,-0.365449756384,0.585673034191
1555358203197490826,11031,1555358203197490826,world,-2.89272785187,-0.813922643661,0.797236204147,-0.6926176548,0.209200963378,-0.365808010101,0.585406064987
1555358203197544734,11032,1555358203197544734,world,-2.89271640778,-0.813898086548,0.797171354294,-0.692525446415,0.209053575993,-0.365709453821,0.585629343987
1555358203197570717,11033,1555358203197570717,world,-2.8927192688,-0.813858509064,0.797138214111,-0.692631840706,0.20907343924,-0.365550339222,0.585595786572
1555358203197610203,11034,1555358203197610203,world,-2.89274501801,-0.813853263855,0.797236204147,-0.692607939243,0.20900799334,-0.365521579981,0.585665345192
1555358203197661138,11036,1555358203197661138,world,-2.89271640778,-0.813888311386,0.797272205353,-0.692511856556,0.209092572331,-0.365711480379,0.585630297661
1555358203197713883,11037,1555358203197713883,world,-2.89270114899,-0.813881397247,0.797200679779,-0.692520797253,0.209263056517,-0.365649193525,0.58559769392
1555358203197738686,11038,1555358203197738686,world,-2.89267063141,-0.813901901245,0.797132253647,-0.692592382431,0.209538564086,-0.365617871284,0.585433959961
1555358203197764211,11039,1555358203197764211,world,-2.89272499084,-0.813877344131,0.797219514847,-0.69261443615,0.209065213799,-0.365364849567,0.585735023022
1555358203197812939,11041,1555358203197812939,world,-2.89274406433,-0.813868284225,0.79728603363,-0.692514777184,0.208838298917,-0.365469634533,0.585868299007
1555358203197863870,11042,1555358203197863870,world,-2.8927192688,-0.813900709152,0.797222614288,-0.692543745041,0.209061548114,-0.365525364876,0.585719823837
1555358203197889888,11043,1555358203197889888,world,-2.89270782471,-0.813879489899,0.797181844711,-0.69259595871,0.209006652236,-0.365517258644,0.585682630539
1555358203197936965,11044,1555358203197936965,world,-2.8926858902,-0.813930988312,0.797132015228,-0.692595720291,0.209393128753,-0.365696907043,0.585432767868
1555358203197962578,11045,1555358203197962578,world,-2.89268779755,-0.813936233521,0.797198295593,-0.692662119865,0.20922459662,-0.365759193897,0.585375487804
1555358203197990153,11046,1555358203197990153,world,-2.89273071289,-0.813933372498,0.79727268219,-0.692631840706,0.209084585309,-0.365786015987,0.585444629192
1555358203198038745,11048,1555358203198038745,world,-2.89274311066,-0.813906908035,0.797235488892,-0.692474365234,0.209103807807,-0.365372896194,0.585881948471
1555358203216738389,11049,1555358203216738389,world,-2.89274311066,-0.813819646835,0.797175168991,-0.69248187542,0.208858564496,-0.365362107754,0.585967004299
1555358203216812404,11050,1555358203216812404,world,-2.89262104034,-0.813835144043,0.797146081924,-0.692577421665,0.209826350212,-0.365447670221,0.585454821587
1555358203227135233,11051,1555358203227135233,world,-2.89270401001,-0.813826084137,0.797211647034,-0.692610859871,0.209217444062,-0.365454852581,0.585628688335
1555358203227206846,11052,1555358203227206846,world,-2.89271640778,-0.813857316971,0.797239780426,-0.69258505106,0.209151864052,-0.365603595972,0.585589766502
1555358203237629550,11053,1555358203237629550,world,-2.89273834229,-0.813856840134,0.797251701355,-0.692515134811,0.208994656801,-0.365526407957,0.585776865482
1555358203246970506,11054,1555358203246970506,world,-2.89271736145,-0.813852787018,0.79714679718,-0.692425072193,0.209063604474,-0.365665823221,0.585771679878
1555358203257364617,11055,1555358203257364617,world,-2.89272117615,-0.813875436783,0.797144412994,-0.692424356937,0.209211364388,-0.365710645914,0.585691809654
1555358203257436985,11056,1555358203257436985,world,-2.89273834229,-0.81388092041,0.797229290009,-0.692514896393,0.208979055285,-0.365538358688,0.585775136948
1555358203266774623,11057,1555358203266774623,world,-2.89274311066,-0.813920974731,0.797292470932,-0.692743599415,0.208953693509,-0.365719586611,0.585400700569
1555358203277157293,11058,1555358203277157293,world,-2.89274978638,-0.813909769058,0.797280073166,-0.692592561245,0.20902261138,-0.365602225065,0.58562797308
1555358203296716382,11059,1555358203296716382,world,-2.89270210266,-0.813911676407,0.797179222107,-0.692589759827,0.20929120481,-0.365646123886,0.58550786972
1555358203307085924,11060,1555358203307085924,world,-2.89267063141,-0.813930511475,0.797114372253,-0.692640125751,0.209485650063,-0.365701109171,0.585344433784
1555358203307124723,11061,1555358203307124723,world,-2.89272594452,-0.813892126083,0.797181606293,-0.692586004734,0.209231212735,-0.365559607744,0.585587859154
1555358203537748534,11062,1555358203537748534,world,-2.89274406433,-0.813904523849,0.797291994095,-0.692578792572,0.209021613002,-0.365534305573,0.585686922073
1555358203537791905,11063,1555358203537791905,world,-2.89273166656,-0.813871145248,0.797278642654,-0.692584991455,0.208973035216,-0.365508198738,0.585713386536
1555358203537844119,11064,1555358203537844119,world,-2.89271068573,-0.813894271851,0.797206640244,-0.692559540272,0.209214687347,-0.365574747324,0.585615515709
1555358203537916611,11067,1555358203537916611,world,-2.89270973206,-0.813881158829,0.797253370285,-0.69252884388,0.209058955312,-0.365704119205,0.585626780987
1555358203537942563,11068,1555358203537942563,world,-2.89272594452,-0.813872098923,0.797271728516,-0.692505121231,0.209117993712,-0.365604877472,0.585695743561
1555358203537996124,11070,1555358203537996124,world,-2.8926858902,-0.813893318176,0.797149658203,-0.692563772202,0.209545776248,-0.365721344948,0.58540058136
1555358203538062985,11071,1555358203538062985,world,-2.89267349243,-0.813883543015,0.797135353088,-0.692508399487,0.209427863359,-0.365734428167,0.585500180721
1555358203538091401,11072,1555358203538091401,world,-2.89271259308,-0.81386423111,0.79719543457,-0.692489862442,0.209150955081,-0.36563539505,0.585682868958
1555358203538116870,11073,1555358203538116870,world,-2.89274978638,-0.813864946365,0.797281503677,-0.692592740059,0.208899095654,-0.365418851376,0.585786283016
1555358203538143236,11074,1555358203538143236,world,-2.89274311066,-0.813852548599,0.79728770256,-0.692547619343,0.208818927407,-0.36553350091,0.585796713829
1555358203538189828,11075,1555358203538189828,world,-2.89270782471,-0.813916444778,0.797161340714,-0.692664265633,0.209319248796,-0.365783035755,0.58532422781
1555358203538243055,11076,1555358203538243055,world,-2.89272785187,-0.813868284225,0.797157287598,-0.692536473274,0.209107413888,-0.365558326244,0.585691392422
1555358203538273757,11077,1555358203538273757,world,-2.89271736145,-0.813881874084,0.797160863876,-0.69250369072,0.209206983447,-0.365741491318,0.585580348969
1555358203538296519,11078,1555358203538296519,world,-2.89273262024,-0.813883304596,0.797211408615,-0.692575991154,0.20907010138,-0.36561408639,0.585623145103
1555358203538321530,11079,1555358203538321530,world,-2.89274024963,-0.813850164413,0.797298908234,-0.692581772804,0.208715990186,-0.365531504154,0.585794150829
1555358203538346034,11080,1555358203538346034,world,-2.89271640778,-0.813896894455,0.797251462936,-0.69259095192,0.209127172828,-0.365602135658,0.585592508316
1555358203538371631,11081,1555358203538371631,world,-2.89268875122,-0.813854217529,0.797145843506,-0.692567706108,0.209151521325,-0.365616500378,0.585602462292
1555358203538413643,11082,1555358203538413643,world,-2.89267253876,-0.813888549805,0.797119140625,-0.692486643791,0.209397152066,-0.365857183933,0.5854601264
1555358203538447028,11083,1555358203538447028,world,-2.89263534546,-0.813848495483,0.797192335129,-0.692419588566,0.209724798799,-0.36531201005,0.585762619972
1555358203546730826,11084,1555358203546730826,world,-2.89280223846,-0.813824892044,0.797309160233,-0.692627906799,0.208483144641,-0.365418195724,0.585893392563
1555358203557178723,11085,1555358203557178723,world,-2.89278125763,-0.813860654831,0.797311067581,-0.692665040493,0.208724230528,-0.365496844053,0.585714519024
1555358203557219353,11086,1555358203557219353,world,-2.89274787903,-0.81386256218,0.797218799591,-0.692600548267,0.209019199014,-0.365707546473,0.585554003716
1555358203557275700,11087,1555358203557275700,world,-2.89272594452,-0.813828468323,0.797111034393,-0.692496776581,0.209208592772,-0.365654230118,0.585642337799
1555358203576787571,11088,1555358203576787571,world,-2.89270114899,-0.813879966736,0.797120094299,-0.692555725574,0.209373667836,-0.365596920252,0.585549473763
1555358203576850769,11089,1555358203576850769,world,-2.8927526474,-0.813832759857,0.797283887863,-0.692592203617,0.208773314953,-0.365303069353,0.58590400219
1555358203587215074,11090,1555358203587215074,world,-2.89277648926,-0.813848018646,0.797345876694,-0.692588567734,0.208823725581,-0.365369081497,0.585849046707
1555358203597609133,11091,1555358203597609133,world,-2.89271259308,-0.813868284225,0.79726266861,-0.692504644394,0.209049507976,-0.365783929825,0.585608959198
1555358203606942994,11092,1555358203606942994,world,-2.89270210266,-0.813893318176,0.797127962112,-0.692451834679,0.209228053689,-0.365901887417,0.585533797741
1555358203617394850,11093,1555358203617394850,world,-2.89269828796,-0.813862323761,0.797107934952,-0.692533493042,0.209213301539,-0.365716934204,0.585558176041
1555358203617466347,11094,1555358203617466347,world,-2.89273929596,-0.813879966736,0.797239780426,-0.69251203537,0.209126040339,-0.365535020828,0.585728168488
1555358203637098270,11095,1555358203637098270,world,-2.89277172089,-0.813870429993,0.797355890274,-0.692520678043,0.208819940686,-0.365442186594,0.585885167122
1555358203637172862,11096,1555358203637172862,world,-2.89274692535,-0.813855409622,0.79728269577,-0.692495524883,0.20889505744,-0.365515559912,0.585842311382
1555358203697054869,11097,1555358203697054869,world,-2.89269447327,-0.81388258934,0.797119855881,-0.69247341156,0.209466382861,-0.365778446198,0.585500240326
1555358203697129273,11098,1555358203697129273,world,-2.89260482788,-0.813894510269,0.797040462494,-0.692606806755,0.209493771195,-0.366336643696,0.58498352766
1555358203697193566,11100,1555358203697193566,world,-2.8927230835,-0.813917160034,0.797258615494,-0.692637979984,0.209301233292,-0.365893512964,0.585292696953
1555358203697214216,11101,1555358203697214216,world,-2.89277458191,-0.813878774643,0.797301054001,-0.692511916161,0.208943024278,-0.36546844244,0.585835158825
1555358203697237963,11102,1555358203697237963,world,-2.89273643494,-0.813879728317,0.797171592712,-0.692432463169,0.209145084023,-0.365586429834,0.585783362389
1555358203697258711,11103,1555358203697258711,world,-2.89269828796,-0.813913106918,0.79706788063,-0.692468523979,0.209661737084,-0.365858018398,0.585386455059
1555358203707575749,11104,1555358203707575749,world,-2.89276599884,-0.813857555389,0.797197818756,-0.692493677139,0.209200128913,-0.365399599075,0.585808038712
1555358203707650486,11105,1555358203707650486,world,-2.89277553558,-0.813892841339,0.797291278839,-0.69260340929,0.209223881364,-0.365489393473,0.58561360836
1555358203727273897,11106,1555358203727273897,world,-2.89277839661,-0.813861608505,0.797333717346,-0.692578077316,0.20880381763,-0.365377545357,0.585863351822
1555358203977651277,11107,1555358203977651277,world,-2.8927192688,-0.813885450363,0.797214508057,-0.692523181438,0.209123581648,-0.365563482046,0.585698306561
1555358203977744301,11109,1555358203977744301,world,-2.89269161224,-0.813863515854,0.797094106674,-0.692465245724,0.209446653724,-0.365794152021,0.585507273674
1555358203977799330,11110,1555358203977799330,world,-2.89272975922,-0.813883781433,0.797252416611,-0.692542612553,0.20913310349,-0.365620881319,0.585636019707
1555358203977885387,11113,1555358203977885387,world,-2.89267730713,-0.81389093399,0.797115325928,-0.692458808422,0.209552198648,-0.365798085928,0.585474669933
1555358203977923658,11114,1555358203977923658,world,-2.89269256592,-0.813869476318,0.797076463699,-0.692464113235,0.209352716804,-0.365655660629,0.585628509521
1555358203977982602,11116,1555358203977982602,world,-2.89277839661,-0.81388425827,0.797390222549,-0.692549347878,0.208772197366,-0.365358293056,0.585920512676
1555358203978020138,11117,1555358203978020138,world,-2.89276409149,-0.813859701157,0.79735660553,-0.692454576492,0.208789631724,-0.365351676941,0.586030483246
1555358203978048946,11118,1555358203978048946,world,-2.89269542694,-0.813887119293,0.797138690948,-0.692506551743,0.209479987621,-0.365625619888,0.585551738739
1555358203978097380,11119,1555358203978097380,world,-2.89266777039,-0.813894987106,0.797082185745,-0.692429840565,0.209483876824,-0.36570468545,0.585591673851
1555358203978125295,11120,1555358203978125295,world,-2.89269924164,-0.813930988312,0.797154664993,-0.692590415478,0.209241956472,-0.365682333708,0.585502326488
1555358203978152284,11121,1555358203978152284,world,-2.89274311066,-0.813895940781,0.797305822372,-0.692439615726,0.208968773484,-0.365788608789,0.585711598396
1555358203978180113,11122,1555358203978180113,world,-2.89275550842,-0.813882350922,0.797323465347,-0.692459344864,0.208965957165,-0.365712046623,0.585737228394
1555358203978225611,11123,1555358203978225611,world,-2.89273548126,-0.81387424469,0.797237157822,-0.692460715771,0.209140568972,-0.365735501051,0.585658490658
1555358203978254309,11124,1555358203978254309,world,-2.89268302917,-0.813915014267,0.797054290771,-0.69247418642,0.209791734815,-0.366058379412,0.585207819939
1555358204197084751,11125,1555358204197084751,world,-2.89272880554,-0.813873529434,0.797097444534,-0.692524254322,0.209270790219,-0.365696817636,0.585561156273
1555358204197128528,11126,1555358204197128528,world,-2.89277935028,-0.813874483109,0.797253370285,-0.692554056644,0.209002807736,-0.365560442209,0.585706591606
1555358204197180909,11127,1555358204197180909,world,-2.89281177521,-0.813861846924,0.797358751297,-0.692529737949,0.208676591516,-0.36550989747,0.585883259773
1555358204197289136,11132,1555358204197289136,world,-2.89277362823,-0.81382727623,0.79731798172,-0.69259172678,0.208632841706,-0.365335613489,0.585934281349
1555358204197335487,11133,1555358204197335487,world,-2.89273548126,-0.813869953156,0.797221422195,-0.692571103573,0.209068328142,-0.365507572889,0.585696160793
1555358204197380732,11135,1555358204197380732,world,-2.89267349243,-0.813925266266,0.797160387039,-0.69263625145,0.209422588348,-0.365701079369,0.585371732712
1555358204197405704,11136,1555358204197405704,world,-2.89270496368,-0.81387925148,0.797223806381,-0.692527532578,0.209127724171,-0.365562558174,0.585692167282
1555358204197445324,11138,1555358204197445324,world,-2.89270877838,-0.813875198364,0.797244787216,-0.69243901968,0.209083229303,-0.365628093481,0.585771739483
1555358204197483356,11139,1555358204197483356,world,-2.89273643494,-0.813904285431,0.797248363495,-0.692608118057,0.209197923541,-0.365729808807,0.585467338562
1555358204197507111,11140,1555358204197507111,world,-2.89276504517,-0.813880205154,0.797235965729,-0.692491352558,0.209114983678,-0.365613371134,0.585707783699
1555358204197546874,11141,1555358204197546874,world,-2.89276599884,-0.813886642456,0.797229528427,-0.692491531372,0.209117814898,-0.365584850311,0.58572435379
1555358204197569846,11142,1555358204197569846,world,-2.89276504517,-0.813812494278,0.797211647034,-0.692393541336,0.208880215883,-0.36537155509,0.586057960987
1555358204197608305,11143,1555358204197608305,world,-2.89274024963,-0.813855409622,0.797197580338,-0.692537546158,0.208983883262,-0.365486979485,0.585778713226
1555358204197631135,11144,1555358204197631135,world,-2.89272499084,-0.813905954361,0.797231912613,-0.692504942417,0.209223762155,-0.365642219782,0.585634827614
1555358204197650151,11145,1555358204197650151,world,-2.89273929596,-0.813891887665,0.79721903801,-0.692621946335,0.209237918258,-0.365665197372,0.585477113724
1555358204197693057,11146,1555358204197693057,world,-2.89276599884,-0.8138859272,0.79722738266,-0.692575037479,0.209143772721,-0.36568108201,0.585556149483
1555358204207016036,11147,1555358204207016036,world,-2.89275836945,-0.813858032227,0.797266483307,-0.692513763905,0.20906843245,-0.365412145853,0.58582341671
1555358204217422996,11148,1555358204217422996,world,-2.8927564621,-0.813881874084,0.797223329544,-0.69252038002,0.209181547165,-0.365532398224,0.585700273514
1555358204226715606,11149,1555358204226715606,world,-2.89274978638,-0.813871860504,0.797150611877,-0.692531049252,0.209258764982,-0.365631908178,0.585597932339
1555358204226753948,11150,1555358204226753948,world,-2.89276885986,-0.813863992691,0.797171354294,-0.692584693432,0.209153920412,-0.365608543158,0.585586488247
1555358204237169129,11151,1555358204237169129,world,-2.89278030396,-0.813880443573,0.797265291214,-0.692553937435,0.2089882195,-0.365620225668,0.585674703121
1555358204256912798,11152,1555358204256912798,world,-2.89280796051,-0.813846349716,0.797279596329,-0.692557871342,0.20875248313,-0.365549117327,0.585798561573
1555358204256954146,11153,1555358204256954146,world,-2.8928194046,-0.813790559769,0.7972407341,-0.692556798458,0.208728224039,-0.36542519927,0.585885703564
1555358204267433384,11154,1555358204267433384,world,-2.89274215698,-0.813856124878,0.79715180397,-0.692497968674,0.209185898304,-0.365769267082,0.585577249527
1555358204276767558,11155,1555358204276767558,world,-2.8927230835,-0.813870668411,0.797135591507,-0.692555904388,0.209390029311,-0.365628957748,0.585523366928
1555358204276807739,11156,1555358204276807739,world,-2.89272975922,-0.813854455948,0.797236442566,-0.692503094673,0.209130421281,-0.365469992161,0.585777699947
1555358204287078459,11157,1555358204287078459,world,-2.8927154541,-0.813904523849,0.797301769257,-0.692473471165,0.209023952484,-0.36552670598,0.585815548897
1555358204297416274,11158,1555358204297416274,world,-2.89262104034,-0.813942193985,0.797242879868,-0.692510008812,0.209119513631,-0.366143643856,0.585352599621
1555358204477024739,11159,1555358204477024739,world,-2.89264297485,-0.813983440399,0.797233343124,-0.692586421967,0.20922242105,-0.365792036057,0.585445404053
1555358204477066553,11160,1555358204477066553,world,-2.89266300201,-0.814034700394,0.797229290009,-0.692447960377,0.209304869175,-0.36557033658,0.585718035698
1555358204477094073,11162,1555358204477094073,world,-2.8927116394,-0.81404542923,0.797346830368,-0.692486345768,0.208884418011,-0.364897042513,0.586242318153
1555358204477116304,11163,1555358204477116304,world,-2.89269924164,-0.814073562622,0.797299385071,-0.692542850971,0.209235921502,-0.365346103907,0.585770487785
1555358204477142244,11165,1555358204477142244,world,-2.8926858902,-0.813989639282,0.797220230103,-0.692545831203,0.209247276187,-0.365508288145,0.585661768913
1555358204477161511,11166,1555358204477161511,world,-2.89269828796,-0.813910484314,0.797210216522,-0.692455232143,0.209246248007,-0.365489810705,0.585780799389
1555358204477173383,11167,1555358204477173383,world,-2.89271450043,-0.813823223114,0.797265529633,-0.692521810532,0.208986386657,-0.365452647209,0.585817813873
1555358204477191378,11168,1555358204477191378,world,-2.89274787903,-0.813797712326,0.797273874283,-0.692460596561,0.209107995033,-0.365530997515,0.585797905922
1555358204477211843,11169,1555358204477211843,world,-2.89273738861,-0.813781738281,0.797260761261,-0.692441940308,0.209092304111,-0.365638852119,0.585758209229
1555358204477224152,11170,1555358204477224152,world,-2.89270687103,-0.813805103302,0.797205924988,-0.692378997803,0.209437832236,-0.365712046623,0.585663557053
1555358204477241917,11171,1555358204477241917,world,-2.89268302917,-0.813846111298,0.797188997269,-0.692340672016,0.209487572312,-0.365724593401,0.585683226585
1555358204477255063,11172,1555358204477255063,world,-2.89267444611,-0.813927412033,0.797247409821,-0.692533969879,0.209303125739,-0.365695595741,0.585538864136
1555358204477272409,11173,1555358204477272409,world,-2.89270782471,-0.813952922821,0.797332048416,-0.692548811436,0.208865478635,-0.365278989077,0.585937380791
1555358204477285525,11174,1555358204477285525,world,-2.89270591736,-0.814012050629,0.797324419022,-0.692452728748,0.208865776658,-0.365321308374,0.586024403572
1555358204477302865,11175,1555358204477302865,world,-2.89267063141,-0.81404542923,0.797261953354,-0.692404568195,0.208998933434,-0.365282326937,0.58605825901
1555358204477316050,11176,1555358204477316050,world,-2.89265632629,-0.814054965973,0.79724240303,-0.692404091358,0.209104627371,-0.365387231112,0.585955679417
1555358204477334197,11177,1555358204477334197,world,-2.89267349243,-0.814021587372,0.797312259674,-0.692470788956,0.208770260215,-0.365174293518,0.5861287117
1555358204477346273,11178,1555358204477346273,world,-2.89263916016,-0.814006090164,0.79732298851,-0.692565798759,0.208888664842,-0.365458548069,0.585797011852
1555358204477363714,11179,1555358204477363714,world,-2.89266014099,-0.813933372498,0.797333240509,-0.692523956299,0.208872064948,-0.365423679352,0.585874319077
1555358204477377105,11180,1555358204477377105,world,-2.89264392853,-0.813869714737,0.797255277634,-0.692480385303,0.2090292871,-0.365516334772,0.585811913013
1555358204487800377,11181,1555358204487800377,world,-2.89263057709,-0.813835382462,0.79722237587,-0.692478835583,0.209188014269,-0.365776270628,0.585594832897
1555358204497256255,11182,1555358204497256255,world,-2.89257526398,-0.813808441162,0.797225475311,-0.692489683628,0.209039390087,-0.366505295038,0.585178971291
1555358204507722546,11183,1555358204507722546,world,-2.8926525116,-0.813749074936,0.797296762466,-0.6925522089,0.208934441209,-0.365851342678,0.585551440716
1555358204507801400,11184,1555358204507801400,world,-2.8926820755,-0.813743829727,0.79732131958,-0.692529499531,0.208839595318,-0.365509778261,0.585825562477
1555358204517247996,11185,1555358204517247996,world,-2.89267063141,-0.813806772232,0.797233104706,-0.692544698715,0.209041163325,-0.365511894226,0.585734367371
1555358204527708459,11186,1555358204527708459,world,-2.89267158508,-0.813880205154,0.797214508057,-0.692510604858,0.209177061915,-0.365408301353,0.585790872574
1555358204537120082,11187,1555358204537120082,world,-2.89271354675,-0.813952445984,0.797235488892,-0.692507505417,0.209030538797,-0.36524900794,0.585946142673
1555358204547522888,11188,1555358204547522888,world,-2.89275836945,-0.814011335373,0.797277450562,-0.692544221878,0.208716914058,-0.364975214005,0.586184978485
1555358204556856540,11189,1555358204556856540,world,-2.89277267456,-0.814080476761,0.797336339951,-0.692403554916,0.208782240748,-0.365111112595,0.586243391037
1555358204556915768,11190,1555358204556915768,world,-2.89276027679,-0.814132213593,0.797304868698,-0.692457914352,0.209116861224,-0.365373492241,0.585896253586
1555358204577697853,11191,1555358204577697853,world,-2.89276885986,-0.814102888107,0.797261953354,-0.69242477417,0.209073886275,-0.365275382996,0.586011886597
1555358204577740191,11192,1555358204577740191,world,-2.89271354675,-0.81411242485,0.797174930573,-0.692437171936,0.209410831332,-0.365525364876,0.58572101593
1555358204587004041,11193,1555358204587004041,world,-2.89273548126,-0.81405377388,0.797253608704,-0.692496716976,0.209068864584,-0.365363568068,0.585873782635
1555358204597423216,11194,1555358204597423216,world,-2.89275360107,-0.813964366913,0.797337770462,-0.692440748215,0.208825290203,-0.365252017975,0.586096286774
1555358204606702680,11195,1555358204606702680,world,-2.89269924164,-0.813988685608,0.797282934189,-0.692515671253,0.209175959229,-0.365606933832,0.585661292076
1555358204617140591,11196,1555358204617140591,world,-2.89267539978,-0.813910007477,0.797251701355,-0.692478001118,0.209086254239,-0.365362912416,0.585889935493
1555358204627596188,11197,1555358204627596188,world,-2.89266395569,-0.813878297806,0.797212600708,-0.692569255829,0.209066271782,-0.365322351456,0.585814714432
1555358204627643829,11198,1555358204627643829,world,-2.89264202118,-0.813879013062,0.797289133072,-0.692473888397,0.209052547812,-0.365401029587,0.585883140564
1555358204647263721,11199,1555358204647263721,world,-2.89264392853,-0.813853979111,0.797329902649,-0.692504942417,0.208917573094,-0.365467697382,0.585852980614
1555358204647315030,11200,1555358204647315030,world,-2.89264392853,-0.813872098923,0.797321557999,-0.692492067814,0.209198206663,-0.365494757891,0.585751116276
1555358204657641272,11201,1555358204657641272,world,-2.89261436462,-0.813879728317,0.797234535217,-0.692529141903,0.209283202887,-0.365588754416,0.585618436337
1555358204657684892,11202,1555358204657684892,world,-2.89264011383,-0.813912630081,0.797220468521,-0.692579805851,0.209319368005,-0.365445286036,0.585635066032
1555358204667064151,11203,1555358204667064151,world,-2.89266777039,-0.813888072968,0.797277927399,-0.692491054535,0.208964213729,-0.365381479263,0.585906505585
1555358204677451612,11204,1555358204677451612,world,-2.89267921448,-0.813950061798,0.797270536423,-0.692519128323,0.209136217833,-0.365445703268,0.585771977901
1555358204686773130,11205,1555358204686773130,world,-2.89272403717,-0.813957214355,0.797281503677,-0.692425847054,0.208938673139,-0.365440905094,0.585955560207
1555358204697227945,11206,1555358204697227945,world,-2.89273929596,-0.813989162445,0.797283172607,-0.692492544651,0.208922877908,-0.365407973528,0.585903048515
1555358204707674344,11207,1555358204707674344,world,-2.89274311066,-0.814058303833,0.797271728516,-0.692473173141,0.20907817781,-0.365491390228,0.585818529129
1555358204707718309,11208,1555358204707718309,world,-2.8927564621,-0.814037322998,0.797251939774,-0.692364990711,0.208949282765,-0.365257650614,0.586138129234
1555358204717011556,11209,1555358204717011556,world,-2.89273262024,-0.814044475555,0.797242879868,-0.692412376404,0.209034204483,-0.365294218063,0.586029052734
1555358204727331164,11210,1555358204727331164,world,-2.89273643494,-0.814024448395,0.797269582748,-0.692457258701,0.208966866136,-0.365270286798,0.586014866829
1555358204737682890,11211,1555358204737682890,world,-2.89271068573,-0.814028501511,0.797297477722,-0.692552626133,0.209069207311,-0.365349203348,0.585816502571
1555358204747040721,11212,1555358204747040721,world,-2.89266300201,-0.81395983696,0.797281265259,-0.692506611347,0.209135964513,-0.365482121706,0.585764050484
1555358204757487719,11213,1555358204757487719,world,-2.89263439178,-0.813926458359,0.797249317169,-0.692577660084,0.209328189492,-0.365516215563,0.58559024334
