%time,field.header.seq,field.header.stamp,field.header.frame_id,field.pose.position.x,field.pose.position.y,field.pose.position.z,field.pose.orientation.x,field.pose.orientation.y,field.pose.orientation.z,field.pose.orientation.w
1555358617696658666,17143,1555358617696658666,world,-2.90545272827,-0.817666053772,0.797311306,-0.715004146099,0.10684017092,-0.273334980011,0.634540915489
1555358617717256239,17144,1555358617717256239,world,-2.90581130981,-0.817431926727,0.797143936157,-0.717182815075,0.101381547749,-0.268819749355,0.634906828403
1555358617717328856,17145,1555358617717328856,world,-2.90591621399,-0.817319393158,0.797057390213,-0.718074202538,0.0995780676603,-0.26700425148,0.634950757027
1555358617727713130,17146,1555358617727713130,world,-2.90516853333,-0.817132949829,0.796768188477,-0.720062553883,0.106153957546,-0.265228331089,0.632372736931
1555358617737155204,17147,1555358617737155204,world,-2.9056558609,-0.81728219986,0.796945810318,-0.718893826008,0.101592920721,-0.266178786755,0.634050130844
1555358617747582014,17148,1555358617747582014,world,-2.90585327148,-0.817272663116,0.797044277191,-0.718395352364,0.0993428602815,-0.266204476357,0.634960174561
1555358617747647185,17149,1555358617747647185,world,-2.90483188629,-0.817476272583,0.797117710114,-0.717484414577,0.110685616732,-0.270804017782,0.632163107395
1555358617757030902,17150,1555358617757030902,world,-2.905585289,-0.817399501801,0.797124862671,-0.718020558357,0.10278622061,-0.268229901791,0.633982896805
1555358617767435474,17151,1555358617767435474,world,-2.90586566925,-0.817351341248,0.797112226486,-0.718169093132,0.0997606366873,-0.266799688339,0.634900689125
1555358617776702178,17152,1555358617776702178,world,-2.90518379211,-0.81710934639,0.796782255173,-0.719871342182,0.105918377638,-0.265260249376,0.632616400719
1555358617787051573,17153,1555358617787051573,world,-2.90492916107,-0.81706404686,0.796699047089,-0.720324993134,0.10802860558,-0.264849752188,0.63191485405
1555358617797380266,17154,1555358617797380266,world,-2.90512561798,-0.817636966705,0.797152519226,-0.715764045715,0.109478756785,-0.272780060768,0.633472502232
1555358617797450001,17155,1555358617797450001,world,-2.90579795837,-0.817414522171,0.797168970108,-0.717300117016,0.101459741592,-0.268991500139,0.634688973427
1555358617817029547,17156,1555358617817029547,world,-2.90602397919,-0.817315340042,0.797138690948,-0.717899560928,0.0982707515359,-0.266809999943,0.635433375835
1555358617817100677,17157,1555358617817100677,world,-2.90529155731,-0.81711435318,0.796790599823,-0.719847500324,0.104611217976,-0.264665842056,0.633109807968
1555358617827481953,17158,1555358617827481953,world,-2.90501213074,-0.817008018494,0.796641349792,-0.720426738262,0.107018716633,-0.264230757952,0.632229685783
1555358617836811575,17159,1555358617836811575,world,-2.90577030182,-0.817238330841,0.796982288361,-0.718761980534,0.100717656314,-0.266064673662,0.634386897087
1555358617847161282,17160,1555358617847161282,world,-2.90602111816,-0.817342758179,0.797179460526,-0.718243777752,0.0985108986497,-0.266562819481,0.635110855103
1555358617847233719,17161,1555358617847233719,world,-2.90604877472,-0.817334890366,0.797174692154,-0.7179453969,0.0983423441648,-0.267150551081,0.635227382183
1555358617866972038,17162,1555358617866972038,world,-2.90522003174,-0.817178487778,0.796772241592,-0.719506621361,0.10559271276,-0.265804082155,0.632857382298
1555358617877358318,17163,1555358617877358318,world,-2.90496349335,-0.817098617554,0.796683311462,-0.719934403896,0.107794344425,-0.265267699957,0.632224559784
1555358617877400334,17164,1555358617877400334,world,-2.90570163727,-0.817311286926,0.797022104263,-0.718409717083,0.101553820074,-0.266951620579,0.634280145168
1555358617907406013,17165,1555358617907406013,world,-2.90589618683,-0.817357301712,0.797158718109,-0.717929065228,0.0998115167022,-0.267318278551,0.63494604826
1555358617907461397,17166,1555358617907461397,world,-2.90597057343,-0.817342281342,0.797149419785,-0.71793705225,0.0986729115248,-0.266515105963,0.635452389717
1555358617916663355,17167,1555358617916663355,world,-2.90520572662,-0.81712770462,0.796849966049,-0.71945309639,0.105713918805,-0.265766233206,0.632913947105
1555358617916731095,17168,1555358617916731095,world,-2.90494632721,-0.817076206207,0.796755075455,-0.719863831997,0.107992053032,-0.265432566404,0.632201910019
1555358617916747329,17169,1555358617916747329,world,-2.90558815002,-0.817335367203,0.796981811523,-0.718387126923,0.102536864579,-0.267260998487,0.63401722908
1555358617927142731,17170,1555358617927142731,world,-2.9059009552,-0.817339897156,0.797150611877,-0.717918634415,0.0997150242329,-0.267389982939,0.634942829609
1555358617937596756,17171,1555358617937596756,world,-2.90494823456,-0.817528963089,0.797207593918,-0.716888010502,0.110229998827,-0.271587103605,0.632583200932
1555358617947039501,17172,1555358617947039501,world,-2.9056892395,-0.817377328873,0.797156572342,-0.717515945435,0.101786576211,-0.268505454063,0.634598433971
1555358617957510271,17173,1555358617957510271,world,-2.90518665314,-0.817141771317,0.796793699265,-0.719444990158,0.105858288705,-0.266001045704,0.632800459862
1555358617957579423,17174,1555358617957579423,world,-2.90504169464,-0.817070245743,0.796709060669,-0.72011333704,0.107133418322,-0.264972805977,0.632256805897
1555358617966982025,17175,1555358617966982025,world,-2.90573596954,-0.817267894745,0.796999454498,-0.71865439415,0.101012058556,-0.266136825085,0.634431779385
1555358617977488393,17176,1555358617977488393,world,-2.90602779388,-0.817319869995,0.79713845253,-0.718147158623,0.098360106349,-0.266695231199,0.635187864304
1555358617986841635,17177,1555358617986841635,world,-2.90609169006,-0.817306280136,0.797166347504,-0.717927157879,0.0978469178081,-0.26708522439,0.635351896286
1555358617997271422,17178,1555358617997271422,world,-2.90526008606,-0.81718993187,0.796806097031,-0.719448149204,0.105272307992,-0.26586574316,0.632951498032
1555358617997313544,17179,1555358617997313544,world,-2.90495872498,-0.817130804062,0.796673536301,-0.719962835312,0.107928954065,-0.265195906162,0.632199406624
1555358618007687926,17180,1555358618007687926,world,-2.90495109558,-0.817129135132,0.796767950058,-0.720018386841,0.108166702092,-0.265284210443,0.63205832243
1555358618027427603,17181,1555358618027427603,world,-2.90577220917,-0.817294597626,0.797155857086,-0.718433320522,0.100728876889,-0.266528904438,0.634562551975
1555358618027466226,17182,1555358618027466226,world,-2.90603065491,-0.817333221436,0.797238588333,-0.71779280901,0.0982463359833,-0.267267823219,0.635365307331
1555358618036801753,17183,1555358618036801753,world,-2.90528392792,-0.817197799683,0.796894073486,-0.719223082066,0.104885533452,-0.266074597836,0.633183717728
1555358618047208895,17184,1555358618047208895,world,-2.90573120117,-0.817279338837,0.796962738037,-0.717983841896,0.100736550987,-0.266932398081,0.634900391102
1555358618066744942,17185,1555358618066744942,world,-2.90480232239,-0.817513227463,0.797076940536,-0.716915309429,0.110812328756,-0.271050214767,0.63268083334
1555358618066811519,17186,1555358618066811519,world,-2.90559101105,-0.817418575287,0.797166824341,-0.717624843121,0.102689534426,-0.268388599157,0.634379386902
1555358618066839950,17187,1555358618066839950,world,-2.90593147278,-0.817345619202,0.797234296799,-0.718037605286,0.0991591364145,-0.267323970795,0.634923160076
1555358618077174598,17188,1555358618077174598,world,-2.90526485443,-0.817155361176,0.796872615814,-0.719698250294,0.105262346566,-0.265407800674,0.632861018181
1555358618077244561,17189,1555358618077244561,world,-2.90519428253,-0.817629814148,0.797082662582,-0.715736508369,0.108725212514,-0.272527396679,0.633742034435
1555358618086754954,17190,1555358618086754954,world,-2.90471363068,-0.817592859268,0.797069787979,-0.716556787491,0.112687654793,-0.272572755814,0.632101118565
1555358618097061163,17191,1555358618097061163,world,-2.90573692322,-0.817367315292,0.797143220901,-0.717890977859,0.10161486268,-0.267977029085,0.634425222874
1555358618127119937,17192,1555358618127119937,world,-2.90601730347,-0.817272663116,0.797174453735,-0.718503713608,0.0980156734586,-0.265688240528,0.635259866714
1555358618127158964,17193,1555358618127158964,world,-2.90610599518,-0.817211389542,0.797117948532,-0.718515992165,0.0968844071031,-0.265308350325,0.635578215122
1555358618127235661,17194,1555358618127235661,world,-2.90530872345,-0.817078828812,0.796744585037,-0.720138430595,0.10445266217,-0.264341205359,0.632940888405
1555358618127258647,17195,1555358618127258647,world,-2.90468883514,-0.81737780571,0.79686999321,-0.71817111969,0.111911527812,-0.269858390093,0.631571531296
1555358618137642147,17196,1555358618137642147,world,-2.9056186676,-0.817344903946,0.796998739243,-0.718201637268,0.102177582681,-0.26775380969,0.634077429771
1555358618147040894,17197,1555358618147040894,world,-2.90595912933,-0.817324399948,0.797130346298,-0.718221247196,0.0986227914691,-0.266677588224,0.635070681572
1555358618157453076,17198,1555358618157453076,world,-2.90604305267,-0.817323923111,0.797185659409,-0.718283593655,0.0980544984341,-0.266553044319,0.635140538216
1555358618166666936,17199,1555358618166666936,world,-2.9052066803,-0.817095756531,0.796839952469,-0.719884634018,0.105004034936,-0.264319866896,0.63314718008
1555358618177069096,17200,1555358618177069096,world,-2.90462207794,-0.817425489426,0.79691362381,-0.717919409275,0.112287722528,-0.269923120737,0.631763160229
1555358618187470012,17201,1555358618187470012,world,-2.90477657318,-0.81715965271,0.796686887741,-0.719703912735,0.10930468142,-0.265694081783,0.632048606873
1555358618187515944,17202,1555358618187515944,world,-2.90573787689,-0.817248106003,0.797020673752,-0.718553245068,0.100536517799,-0.266289114952,0.634557902813
1555358618196753415,17203,1555358618196753415,world,-2.90600967407,-0.817316293716,0.797207832336,-0.718340396881,0.097699560225,-0.26593914628,0.635388255119
1555358618207075710,17204,1555358618207075710,world,-2.90610027313,-0.81730890274,0.797210693359,-0.718096852303,0.0972668677568,-0.266684353352,0.635417640209
1555358618217488992,17205,1555358618217488992,world,-2.90527915955,-0.817133903503,0.79678106308,-0.719645321369,0.104700349271,-0.265555351973,0.632952570915
1555358618226779089,17206,1555358618226779089,world,-2.9049539566,-0.817147254944,0.796560287476,-0.72010910511,0.107672721148,-0.265305817127,0.632030308247
1555358618237168454,17207,1555358618237168454,world,-2.904961586,-0.817140340805,0.796705245972,-0.720047473907,0.108130410314,-0.265382647514,0.631990194321
1555358618247498890,17208,1555358618247498890,world,-2.90572929382,-0.817321538925,0.797141313553,-0.718577325344,0.100998587906,-0.266214698553,0.634488642216
1555358618247536922,17209,1555358618247536922,world,-2.90602970123,-0.81737780571,0.797262907028,-0.717880010605,0.098502330482,-0.267198741436,0.635256230831
1555358618256929159,17210,1555358618256929159,world,-2.90527534485,-0.81721329689,0.796883106232,-0.71930462122,0.10511316359,-0.265551954508,0.633272707462
1555358618267305759,17211,1555358618267305759,world,-2.90497112274,-0.81714963913,0.796642065048,-0.719836711884,0.107463307679,-0.26501122117,0.63249963522
1555358618277683146,17212,1555358618277683146,world,-2.90495109558,-0.817153215408,0.796630144119,-0.719885468483,0.107828117907,-0.265805542469,0.632048666477
1555358618287110558,17213,1555358618287110558,world,-2.90575695038,-0.817304134369,0.797111988068,-0.718306064606,0.100423887372,-0.266581326723,0.634732842445
1555358618287149681,17214,1555358618287149681,world,-2.90602970123,-0.817377090454,0.797295808792,-0.717783749104,0.0981365665793,-0.266713380814,0.63562554121
1555358618306773993,17215,1555358618306773993,world,-2.90611171722,-0.817365169525,0.797255277634,-0.717508971691,0.0976325124502,-0.267538517714,0.63566660881
1555358618317226661,17216,1555358618317226661,world,-2.90521240234,-0.817182540894,0.796814918518,-0.719313144684,0.105356581509,-0.265887767076,0.633081555367
1555358618317267892,17217,1555358618317267892,world,-2.90494441986,-0.817132949829,0.796592473984,-0.719908058643,0.107944846153,-0.265914976597,0.631956875324
1555358618327617298,17218,1555358618327617298,world,-2.9056968689,-0.817279815674,0.797002792358,-0.718275010586,0.101197063923,-0.267219811678,0.634376645088
1555358618337053014,17219,1555358618337053014,world,-2.90594863892,-0.817372560501,0.797252178192,-0.717838644981,0.0990645587444,-0.267412990332,0.635125279427
1555358618347382013,17220,1555358618347382013,world,-2.90601444244,-0.817368507385,0.797265768051,-0.71772134304,0.0985896959901,-0.267275869846,0.635389566422
1555358618347426734,17221,1555358618347426734,world,-2.90518188477,-0.817170619965,0.796891689301,-0.719341516495,0.105908840895,-0.266057163477,0.632886052132
1555358618357795291,17222,1555358618357795291,world,-2.90485954285,-0.817156076431,0.796588897705,-0.720083236694,0.108526401222,-0.265164911747,0.631973028183
1555358618367082300,17223,1555358618367082300,world,-2.90486240387,-0.817150592804,0.79661655426,-0.720060050488,0.108795590699,-0.265486299992,0.631818115711
1555358618377459623,17224,1555358618377459623,world,-2.90567779541,-0.817303657532,0.797087907791,-0.718383014202,0.101628527045,-0.267054766417,0.634254872799
1555358618377498125,17225,1555358618377498125,world,-2.90600967407,-0.817407608032,0.797299385071,-0.717783272266,0.0987255349755,-0.267533510923,0.635189950466
1555358618386765647,17226,1555358618386765647,world,-2.90548706055,-0.817780971527,0.797456264496,-0.71464496851,0.106010429561,-0.273700833321,0.634926855564
1555358618417669022,17227,1555358618417669022,world,-2.90509700775,-0.817311763763,0.796846628189,-0.718457996845,0.107645563781,-0.267832040787,0.632848024368
1555358618417712683,17229,1555358618417712683,world,-2.90568351746,-0.817320346832,0.797061920166,-0.717953026295,0.101609535515,-0.267637252808,0.634499371052
1555358618426925098,17230,1555358618426925098,world,-2.90598869324,-0.817291736603,0.797225952148,-0.718412160873,0.0983770415187,-0.266315460205,0.635045051575
1555358618437276560,17231,1555358618437276560,world,-2.90611457825,-0.817220687866,0.797209739685,-0.718399047852,0.0970517471433,-0.265764534473,0.635494232178
1555358618437299821,17232,1555358618437299821,world,-2.90533065796,-0.817088127136,0.796779155731,-0.719905436039,0.10444252193,-0.264789581299,0.633020043373
1555358618456758298,17233,1555358618456758298,world,-2.90499019623,-0.817038059235,0.796615362167,-0.720366477966,0.107090480626,-0.264432519674,0.632201910019
1555358618456818368,17234,1555358618456818368,world,-2.90463733673,-0.817407846451,0.796920061111,-0.717854142189,0.112377092242,-0.270295232534,0.63166230917
1555358618496970766,17235,1555358618496970766,world,-2.90568828583,-0.817350387573,0.79715013504,-0.717949450016,0.101704873145,-0.26801097393,0.634330332279
1555358618497014322,17236,1555358618497014322,world,-2.90603923798,-0.817333936691,0.797249555588,-0.718008339405,0.098067715764,-0.266769886017,0.635358631611
1555358618497062649,17237,1555358618497062649,world,-2.90536117554,-0.817164182663,0.796923875809,-0.719528913498,0.104252777994,-0.265623480082,0.633130073547
1555358618517597026,17238,1555358618517597026,world,-2.90508556366,-0.817067861557,0.796727180481,-0.720042228699,0.106604442,-0.265036225319,0.632400453091
1555358618517649223,17239,1555358618517649223,world,-2.9049949646,-0.817100286484,0.79661488533,-0.720110833645,0.107375994325,-0.265095740557,0.632167100906
1555358618517686473,17241,1555358618517686473,world,-2.90577793121,-0.817389011383,0.797255754471,-0.71771812439,0.101043887436,-0.268210589886,0.634613275528
1555358618527053620,17242,1555358618527053620,world,-2.90612983704,-0.817355871201,0.797263145447,-0.717758476734,0.0975168794394,-0.267134666443,0.635572493076
1555358618537305451,17243,1555358618537305451,world,-2.90540790558,-0.817177534103,0.796856164932,-0.719419002533,0.103854767978,-0.265369683504,0.63342666626
1555358618537375151,17244,1555358618537375151,world,-2.90511417389,-0.817109107971,0.796569347382,-0.720097005367,0.106585599482,-0.265184104443,0.632279336452
1555358618547652360,17245,1555358618547652360,world,-2.90505695343,-0.8171043396,0.796647071838,-0.720024108887,0.10723721981,-0.265531569719,0.632106244564
1555358618557039104,17246,1555358618557039104,world,-2.90583133698,-0.81730556488,0.797108411789,-0.718381464481,0.100322328508,-0.266857236624,0.634547710419
1555358618567318812,17247,1555358618567318812,world,-2.9060792923,-0.817344665527,0.797275543213,-0.717934012413,0.0978027656674,-0.266425251961,0.635627985001
1555358618577656866,17248,1555358618577656866,world,-2.90536212921,-0.817172288895,0.796956300735,-0.719240665436,0.104524642229,-0.26589512825,0.633298635483
1555358618577685772,17249,1555358618577685772,world,-2.90473747253,-0.817459821701,0.796947240829,-0.717360794544,0.111873857677,-0.271183907986,0.631931245327
1555358618587076802,17250,1555358618587076802,world,-2.90491008759,-0.817230224609,0.796701431274,-0.71916949749,0.109051264822,-0.267125934362,0.632097125053
1555358618606673155,17251,1555358618606673155,world,-2.9058380127,-0.817285060883,0.797107458115,-0.718324244022,0.100309200585,-0.267021507025,0.634545445442
1555358618606745684,17252,1555358618606745684,world,-2.90613174438,-0.817327022552,0.797289133072,-0.718006014824,0.0974570736289,-0.266883045435,0.635407745838
1555358618617180535,17253,1555358618617180535,world,-2.90613174438,-0.817315816879,0.797229766846,-0.717906713486,0.0967951267958,-0.266526579857,0.635770559311
1555358618636744543,17254,1555358618636744543,world,-2.90531826019,-0.817137479782,0.796787977219,-0.719476401806,0.104486726224,-0.265189498663,0.633333146572
1555358618647081825,17255,1555358618647081825,world,-2.90469074249,-0.81743311882,0.796898603439,-0.717646062374,0.11192753911,-0.270454466343,0.631910324097
1555358618647149906,17256,1555358618647149906,world,-2.90562057495,-0.817394733429,0.797055721283,-0.717800974846,0.102278552949,-0.268250256777,0.634304881096
1555358618657553552,17257,1555358618657553552,world,-2.90597724915,-0.817336559296,0.797206401825,-0.717995584011,0.0989147871733,-0.267066925764,0.635116875172
1555358618657615417,17258,1555358618657615417,world,-2.90606975555,-0.817296266556,0.797240018845,-0.718114316463,0.0978333950043,-0.266471624374,0.635400176048
1555358618666904212,17259,1555358618666904212,world,-2.90525627136,-0.817141294479,0.796821594238,-0.719725012779,0.105203039944,-0.265278786421,0.632894515991
1555358618677249432,17260,1555358618677249432,world,-2.90496349335,-0.81710100174,0.796570777893,-0.720183908939,0.10793748498,-0.265135556459,0.631971418858
1555358618687594836,17261,1555358618687594836,world,-2.90494346619,-0.817058324814,0.79662322998,-0.720204293728,0.108156867325,-0.2649962008,0.631969094276
1555358618696938969,17262,1555358618696938969,world,-2.90575122833,-0.81730890274,0.797048807144,-0.718455851078,0.101181253791,-0.26683434844,0.634336709976
1555358618707326369,17263,1555358618707326369,world,-2.90600967407,-0.817341804504,0.797302722931,-0.718082666397,0.0984676033258,-0.266490608454,0.635330021381
1555358618707353542,17264,1555358618707353542,world,-2.90530109406,-0.817187547684,0.796970367432,-0.719328820705,0.105063334107,-0.26593965292,0.633090734482
1555358618717658917,17265,1555358618717658917,world,-2.90505027771,-0.817128896713,0.796663045883,-0.719862639904,0.107377171516,-0.265778362751,0.632162749767
1555358618726915639,17266,1555358618726915639,world,-2.90463924408,-0.817467927933,0.796877384186,-0.717509448528,0.112703174353,-0.271522551775,0.631469547749
1555358618737289422,17267,1555358618737289422,world,-2.90495491028,-0.81725025177,0.796879768372,-0.719066798687,0.108891151845,-0.267571270466,0.632053256035
1555358618747680671,17268,1555358618747680671,world,-2.90586566925,-0.817292690277,0.797217130661,-0.718193233013,0.0999688059092,-0.267008751631,0.634752810001
1555358618747718030,17269,1555358618747718030,world,-2.9061460495,-0.817342281342,0.797243833542,-0.717823028564,0.0971199497581,-0.267062038183,0.635590910912
1555358618757091951,17270,1555358618757091951,world,-2.90540122986,-0.817167043686,0.796806812286,-0.719402611256,0.103933379054,-0.265642106533,0.633318185806
1555358618767449188,17271,1555358618767449188,world,-2.90508651733,-0.817126750946,0.796578168869,-0.719952583313,0.106562420726,-0.265342622995,0.632381379604
1555358618776781473,17272,1555358618776781473,world,-2.90503883362,-0.817183256149,0.796701431274,-0.719818234444,0.107292443514,-0.265597581863,0.632303714752
1555358618787161752,17273,1555358618787161752,world,-2.9058265686,-0.817300081253,0.797147274017,-0.718327581882,0.100052855909,-0.266706317663,0.634714603424
1555358618787202516,17274,1555358618787202516,world,-2.90610027313,-0.81739616394,0.797267198563,-0.717724144459,0.0979178249836,-0.267153203487,0.63554173708
1555358618797633536,17275,1555358618797633536,world,-2.90609169006,-0.81733250618,0.797185182571,-0.717572569847,0.0974640250206,-0.266472935677,0.636067986488
1555358618817460831,17276,1555358618817460831,world,-2.90492630005,-0.817519903183,0.797008991241,-0.716959118843,0.109654761851,-0.270561248064,0.633041977882
1555358618817501794,17277,1555358618817501794,world,-2.90452671051,-0.817557573318,0.797001123428,-0.716707527637,0.11386346072,-0.272640883923,0.631690084934
1555358618826983962,17278,1555358618826983962,world,-2.90561294556,-0.817387580872,0.797127246857,-0.717714905739,0.102632179856,-0.268675476313,0.634165287018
1555358618837425488,17279,1555358618837425488,world,-2.90597438812,-0.81730556488,0.797219991684,-0.718375265598,0.0983652547002,-0.266104966402,0.635176718235
1555358618837467502,17280,1555358618837467502,world,-2.90610980988,-0.817267894745,0.797177553177,-0.71837168932,0.0973753556609,-0.266020685434,0.635368525982
1555358618846692131,17281,1555358618846692131,world,-2.90524673462,-0.817111492157,0.796678066254,-0.72003954649,0.104885429144,-0.264409124851,0.63295352459
1555358618857030434,17282,1555358618857030434,world,-2.90465545654,-0.817383289337,0.796847105026,-0.717983424664,0.112099170685,-0.269817590714,0.631768941879
1555358618867364591,17283,1555358618867364591,world,-2.90556049347,-0.817328929901,0.796998500824,-0.718064069748,0.102401696146,-0.267462700605,0.634319901466
1555358618877811129,17284,1555358618877811129,world,-2.90598964691,-0.817270755768,0.797190904617,-0.718177735806,0.0986267104745,-0.266734361649,0.635095596313
1555358618877852477,17285,1555358618877852477,world,-2.90607643127,-0.817300796509,0.797218799591,-0.71823233366,0.0977819561958,-0.26648542285,0.63526892662
1555358618887301321,17286,1555358618887301321,world,-2.90530395508,-0.817149162292,0.796834468842,-0.719800233841,0.105065591633,-0.265463680029,0.632754266262
1555358618907099473,17287,1555358618907099473,world,-2.90500545502,-0.817086935043,0.79661822319,-0.720227122307,0.107640124857,-0.265240520239,0.631928861141
1555358618907139018,17288,1555358618907139018,world,-2.90486717224,-0.817099094391,0.79657292366,-0.720304369926,0.108091793954,-0.264715582132,0.631983816624
1555358618917471728,17289,1555358618917471728,world,-2.90573310852,-0.817308425903,0.797020673752,-0.718470513821,0.101025342941,-0.266716569662,0.634394347668
1555358618926735760,17290,1555358618926735760,world,-2.9060344696,-0.817350149155,0.797262191772,-0.717944383621,0.0985674709082,-0.267316043377,0.63512390852
1555358618937129123,17291,1555358618937129123,world,-2.90609550476,-0.817391872406,0.797258853912,-0.717692017555,0.0982358679175,-0.267479002476,0.635391950607
1555358618947511829,17292,1555358618947511829,world,-2.90526676178,-0.817202329636,0.796840190887,-0.719272255898,0.105605967343,-0.266169309616,0.632968127728
1555358618956815454,17293,1555358618956815454,world,-2.90467166901,-0.817459821701,0.796897411346,-0.717535853386,0.112642541528,-0.271276533604,0.631556034088
1555358618956869257,17294,1555358618956869257,world,-2.90485954285,-0.817198753357,0.796758651733,-0.719275891781,0.109318256378,-0.266836732626,0.632052063942
1555358618967172155,17295,1555358618967172155,world,-2.90575313568,-0.817326545715,0.797103643417,-0.718434929848,0.101028978825,-0.267055630684,0.634291470051
1555358618977561068,17296,1555358618977561068,world,-2.90609931946,-0.81735253334,0.797244787216,-0.718060791492,0.0981667041779,-0.266761809587,0.635287463665
1555358618986891041,17297,1555358618986891041,world,-2.90612411499,-0.817316293716,0.797161102295,-0.717837691307,0.0974680632353,-0.266700804234,0.63567262888
1555358618997159860,17298,1555358618997159860,world,-2.90495204926,-0.817503929138,0.796986818314,-0.717188358307,0.109634757042,-0.271169006824,0.632525503635
1555358618997199534,17299,1555358618997199534,world,-2.9048948288,-0.817162275314,0.796693086624,-0.719390034676,0.108655378222,-0.266422748566,0.632211089134
1555358619007505000,17300,1555358619007505000,world,-2.90571117401,-0.817259550095,0.797011137009,-0.718555092812,0.101030044258,-0.26641240716,0.634425699711
1555358619016842448,17301,1555358619016842448,world,-2.90601539612,-0.817309856415,0.797196388245,-0.718306779861,0.0984885022044,-0.266362667084,0.635127067566
1555358619027165176,17302,1555358619027165176,world,-2.90606975555,-0.817342996597,0.797188997269,-0.718069493771,0.0979839861393,-0.266640514135,0.635356783867
1555358619047757161,17303,1555358619047757161,world,-2.9049243927,-0.817511796951,0.797077655792,-0.717232346535,0.109903715551,-0.270936816931,0.632528424263
1555358619047826647,17304,1555358619047826647,world,-2.90451431274,-0.817530155182,0.796983718872,-0.717060983181,0.113877296448,-0.272213220596,0.631470859051
1555358619047853756,17305,1555358619047853756,world,-2.90479660034,-0.81719326973,0.796708106995,-0.719584345818,0.10925822705,-0.26599368453,0.632066905499
1555358619077630572,17306,1555358619077630572,world,-2.90574169159,-0.817251443863,0.797038078308,-0.718827009201,0.100324913859,-0.265412777662,0.634648501873
1555358619077698563,17307,1555358619077698563,world,-2.9060754776,-0.817307949066,0.797149896622,-0.718426883221,0.0975442528725,-0.266127377748,0.63523542881
1555358619077726812,17308,1555358619077726812,world,-2.90609836578,-0.817282676697,0.797085285187,-0.71831381321,0.0969932451844,-0.265632212162,0.635654985905
1555358619087368654,17309,1555358619087368654,world,-2.90530967712,-0.817085266113,0.796704530716,-0.719866335392,0.104700520635,-0.264955431223,0.632952451706
1555358619096660746,17310,1555358619096660746,world,-2.90498065948,-0.817023515701,0.796595573425,-0.720333099365,0.107228785753,-0.264404863119,0.632228136063
1555358619096706417,17311,1555358619096706417,world,-2.9057226181,-0.817195892334,0.796985387802,-0.718640565872,0.101074039936,-0.266625195742,0.634232521057
1555358619127694867,17312,1555358619127694867,world,-2.90599441528,-0.817279100418,0.797173500061,-0.717893064022,0.0989951342344,-0.267217606306,0.635156929493
1555358619127752635,17314,1555358619127752635,world,-2.90489959717,-0.81747341156,0.797080278397,-0.716976463795,0.110520079732,-0.271572172642,0.632438600063
1555358619137193117,17315,1555358619137193117,world,-2.90484905243,-0.817213058472,0.796765565872,-0.719284057617,0.109699353576,-0.26727733016,0.631790757179
1555358619147664633,17316,1555358619147664633,world,-2.90493297577,-0.817137718201,0.796742677689,-0.720032334328,0.10841267556,-0.265749067068,0.631805121899
1555358619147706944,17317,1555358619147706944,world,-2.90579128265,-0.81725525856,0.797069311142,-0.718559086323,0.100281044841,-0.266297578812,0.634588241577
1555358619157150111,17318,1555358619157150111,world,-2.90605926514,-0.817330360413,0.797130346298,-0.718009352684,0.0979049131274,-0.266891509295,0.635331690311
1555358619176823062,17319,1555358619176823062,world,-2.90551662445,-0.817737817764,0.797344923019,-0.714995086193,0.105729214847,-0.273405134678,0.634707093239
1555358619176865721,17320,1555358619176865721,world,-2.9050989151,-0.817330598831,0.796904563904,-0.718650460243,0.107353806496,-0.267677485943,0.632744371891
1555358619187357757,17321,1555358619187357757,world,-2.90499591827,-0.817141056061,0.796738624573,-0.720013201237,0.107588395476,-0.26533305645,0.632142603397
1555358619237168474,17322,1555358619237168474,world,-2.90575122833,-0.817238807678,0.797003030777,-0.718708455563,0.100165292621,-0.265877425671,0.634613454342
1555358619247617524,17323,1555358619247617524,world,-2.90600395203,-0.817246437073,0.797102451324,-0.718221068382,0.0977451503277,-0.266260057688,0.635381817818
1555358619247659253,17324,1555358619247659253,world,-2.90605068207,-0.81729054451,0.797141551971,-0.718044340611,0.0977730378509,-0.266728579998,0.635380804539
1555358619247699657,17325,1555358619247699657,world,-2.90598392487,-0.817294597626,0.797112226486,-0.717948198318,0.0983561351895,-0.266827404499,0.635357797146
1555358619247740954,17327,1555358619247740954,world,-2.90485286713,-0.81703877449,0.796699285507,-0.72015863657,0.108124136925,-0.264537751675,0.632218778133
1555358619247782216,17328,1555358619247782216,world,-2.90565681458,-0.817183017731,0.797002315521,-0.718480587006,0.101172782481,-0.265915125608,0.634696006775
1555358619267424913,17329,1555358619267424913,world,-2.90592193604,-0.817301750183,0.797117948532,-0.718036711216,0.0994214192033,-0.267181068659,0.634943366051
1555358619267492674,17331,1555358619267492674,world,-2.90487194061,-0.817512989044,0.797109603882,-0.717111587524,0.110860474408,-0.271738022566,0.632154643536
1555358619276804669,17332,1555358619276804669,world,-2.90482616425,-0.817185878754,0.796780586243,-0.71927022934,0.109536074102,-0.26693457365,0.631979584694
1555358619287264973,17333,1555358619287264973,world,-2.90494346619,-0.817075490952,0.796743154526,-0.720016121864,0.108265697956,-0.265149086714,0.632100760937
1555358619297745130,17334,1555358619297745130,world,-2.9057970047,-0.817260980606,0.797032356262,-0.718646287918,0.100563690066,-0.266183197498,0.634492754936
1555358619297784533,17335,1555358619297784533,world,-2.90609359741,-0.817301511765,0.797158479691,-0.718046188354,0.0977902263403,-0.266583114862,0.635437130928
1555358619307152866,17336,1555358619307152866,world,-2.90503120422,-0.817487001419,0.797139644623,-0.717034041882,0.109171785414,-0.271073549986,0.632821381092
1555358619317502073,17337,1555358619317502073,world,-2.90470027924,-0.817503452301,0.797097206116,-0.716781556606,0.11291269213,-0.272274076939,0.63193488121
1555358619337233924,17338,1555358619337233924,world,-2.90497016907,-0.817181825638,0.796822786331,-0.719287037849,0.108583845198,-0.266605019569,0.63226377964
1555358619337275065,17339,1555358619337275065,world,-2.90590763092,-0.817239046097,0.797043561935,-0.718596041203,0.0997791737318,-0.266163438559,0.63468170166
1555358619337333645,17340,1555358619337333645,world,-2.90616798401,-0.817247390747,0.797099590302,-0.718284606934,0.0966792926192,-0.265421718359,0.635823607445
1555358619347738122,17341,1555358619347738122,world,-2.90617370605,-0.817301750183,0.79708814621,-0.718047618866,0.0967602655292,-0.266246765852,0.635734081268
1555358619357168370,17342,1555358619357168370,world,-2.90538597107,-0.817101478577,0.796808004379,-0.719613194466,0.104251407087,-0.26499530673,0.633297801018
1555358619367621923,17343,1555358619367621923,world,-2.90510940552,-0.817087888718,0.796736478806,-0.720107555389,0.106890060008,-0.264741957188,0.63240134716
1555358619377073414,17344,1555358619377073414,world,-2.90577888489,-0.817252397537,0.796993732452,-0.718485891819,0.100638277829,-0.26656588912,0.634501814842
1555358619387466841,17345,1555358619387466841,world,-2.90549373627,-0.817700147629,0.79735827446,-0.714951813221,0.106727421284,-0.273708939552,0.634457826614
1555358619396703590,17346,1555358619396703590,world,-2.90587234497,-0.817448377609,0.797199010849,-0.716949820518,0.100785940886,-0.269328027964,0.635049283504
1555358619396741004,17347,1555358619396741004,world,-2.90601062775,-0.817310094833,0.797127246857,-0.717898726463,0.0984634831548,-0.267045289278,0.635305523872
1555358619417480794,17348,1555358619417480794,world,-2.90521335602,-0.817098379135,0.796775341034,-0.719933152199,0.105171851814,-0.264387816191,0.633035778999
1555358619437100033,17349,1555358619437100033,world,-2.9046497345,-0.817406177521,0.796977519989,-0.718040108681,0.112273000181,-0.269879609346,0.63164716959
1555358619437139444,17350,1555358619437139444,world,-2.90563392639,-0.817322492599,0.797069311142,-0.718082427979,0.102183267474,-0.267386227846,0.634366452694
1555358619437197226,17351,1555358619437197226,world,-2.9059343338,-0.817297458649,0.797104597092,-0.71824324131,0.0992558151484,-0.266734987497,0.634923219681
1555358619447642156,17352,1555358619447642156,world,-2.90603065491,-0.817267417908,0.797106266022,-0.718190968037,0.0979103669524,-0.266381680965,0.635339319706
1555358619487000806,17353,1555358619487000806,world,-2.90490818024,-0.817443370819,0.797058582306,-0.71739333868,0.109931133687,-0.270708352327,0.632439017296
1555358619487040095,17354,1555358619487040095,world,-2.90486335754,-0.817100763321,0.796703100204,-0.719771265984,0.108746431768,-0.265612721443,0.632102370262
1555358619487090780,17355,1555358619487090780,world,-2.90496635437,-0.817047834396,0.79669213295,-0.720338284969,0.107715554535,-0.264649450779,0.632037103176
1555358619487133067,17357,1555358619487133067,world,-2.90602397919,-0.817286729813,0.797154426575,-0.718178272247,0.0980043783784,-0.266847372055,0.635143756866
1555358619497499739,17358,1555358619497499739,world,-2.9049987793,-0.817474842072,0.797096729279,-0.717144548893,0.109150186181,-0.271002799273,0.632730305195
1555358619497540904,17359,1555358619497540904,world,-2.90494728088,-0.817195653915,0.796716213226,-0.719385683537,0.108354195952,-0.266924798489,0.632056057453
1555358619536946193,17360,1555358619536946193,world,-2.90497207642,-0.817110300064,0.79668211937,-0.720115482807,0.107356116176,-0.2649115026,0.632242143154
1555358619536984888,17361,1555358619536984888,world,-2.90584468842,-0.817268848419,0.797085285187,-0.718581259251,0.0998997017741,-0.265988498926,0.634752750397
1555358619537053772,17362,1555358619537053772,world,-2.90610408783,-0.817328214645,0.797203540802,-0.71797400713,0.0974052026868,-0.266585707664,0.635576546192
1555358619537074991,17363,1555358619537074991,world,-2.90533924103,-0.817157506943,0.796858549118,-0.71942782402,0.104092724621,-0.265556722879,0.633299231529
1555358619547528362,17364,1555358619547528362,world,-2.90506362915,-0.817078351974,0.796647310257,-0.719917297363,0.106647238135,-0.26516571641,0.632481276989
1555358619556927122,17365,1555358619556927122,world,-2.90577220917,-0.817274570465,0.79696559906,-0.718350172043,0.100520215929,-0.266279637814,0.634794473648
1555358619556957199,17366,1555358619556957199,world,-2.90603160858,-0.81733083725,0.797184705734,-0.71779769659,0.0983432605863,-0.266914725304,0.635493278503
1555358619567322991,17367,1555358619567322991,world,-2.90603733063,-0.817382097244,0.797228097916,-0.717720091343,0.0982439666986,-0.267423510551,0.635382354259
1555358619587122717,17368,1555358619587122717,world,-2.90601158142,-0.817326068878,0.797154664993,-0.717701435089,0.0983612686396,-0.26742118597,0.635386168957
1555358619587199554,17369,1555358619587199554,world,-2.9052028656,-0.817182779312,0.796760320663,-0.719421446323,0.105958014727,-0.266047239304,0.632791042328
1555358619587228927,17370,1555358619587228927,world,-2.904920578,-0.817128658295,0.796664953232,-0.719970464706,0.108603976667,-0.265590041876,0.631909489632
1555358619597570321,17371,1555358619597570321,world,-2.90563583374,-0.817275762558,0.796977043152,-0.718478798866,0.101909220219,-0.266393184662,0.634379565716
1555358619606930289,17372,1555358619606930289,world,-2.90593338013,-0.817319869995,0.797162771225,-0.717994391918,0.0993847846985,-0.26707687974,0.635040700436
1555358619627636790,17373,1555358619627636790,world,-2.90598583221,-0.817337751389,0.797167062759,-0.717794597149,0.0987793579698,-0.267314136028,0.635261237621
1555358619627704583,17374,1555358619627704583,world,-2.9059715271,-0.817383050919,0.797097206116,-0.717733383179,0.0992403551936,-0.267785280943,0.635060012341
1555358619627733040,17375,1555358619627733040,world,-2.90513515472,-0.817152023315,0.796758651733,-0.719540476799,0.106408968568,-0.266063630581,0.632573127747
1555358619647552277,17376,1555358619647552277,world,-2.90458297729,-0.817481994629,0.796954870224,-0.717590689659,0.113456003368,-0.271147459745,0.631403625011
1555358619647623569,17377,1555358619647623569,world,-2.90553951263,-0.817386865616,0.797142505646,-0.717897593975,0.103196576238,-0.268340528011,0.634008586407
1555358619657053040,17378,1555358619657053040,world,-2.90591430664,-0.817342042923,0.797207832336,-0.718025803566,0.0993264764547,-0.267064034939,0.635019719601
1555358619667443649,17379,1555358619667443649,world,-2.90524578094,-0.817168712616,0.796834230423,-0.719610154629,0.105329655111,-0.265405535698,0.632950842381
1555358619676720646,17380,1555358619676720646,world,-2.90500354767,-0.81712937355,0.796649456024,-0.720157802105,0.107593856752,-0.264911919832,0.632153391838
1555358619687045783,17381,1555358619687045783,world,-2.90499782562,-0.817091226578,0.796658992767,-0.720072388649,0.107763953507,-0.265146464109,0.632123410702
1555358619697378061,17382,1555358619697378061,world,-2.90579128265,-0.817297458649,0.797045707703,-0.718338370323,0.10057092458,-0.266541272402,0.634689748287
1555358619706705652,17383,1555358619706705652,world,-2.90603065491,-0.817360401154,0.797211170197,-0.717803001404,0.0981068015099,-0.2669737041,0.635498940945
1555358619717154366,17384,1555358619717154366,world,-2.90501976013,-0.817519187927,0.797184467316,-0.716862618923,0.109429456294,-0.271350592375,0.632852256298
1555358619717200272,17385,1555358619717200272,world,-2.90498638153,-0.817208528519,0.796786308289,-0.719124376774,0.108396179974,-0.266796946526,0.632400035858
1555358619757612715,17386,1555358619757612715,world,-2.90501499176,-0.817132472992,0.796682834625,-0.719868004322,0.107355259359,-0.26539310813,0.632322251797
1555358619757653960,17387,1555358619757653960,world,-2.90582466125,-0.817280769348,0.797037363052,-0.718458771706,0.100069500506,-0.266017526388,0.634852647781
1555358619757727963,17389,1555358619757727963,world,-2.90562152863,-0.817707777023,0.797344446182,-0.71477162838,0.105150967836,-0.273473858833,0.635025024414
1555358619767064516,17390,1555358619767064516,world,-2.90519618988,-0.817226886749,0.79687166214,-0.718613982201,0.106869764626,-0.267367124557,0.632998883724
1555358619767106535,17391,1555358619767106535,world,-2.9047460556,-0.817453145981,0.79697227478,-0.717620134354,0.111896619201,-0.270790636539,0.631801486015
1555358619777445564,17392,1555358619777445564,world,-2.90572929382,-0.817327022552,0.79706788063,-0.718102097511,0.101065456867,-0.267203509808,0.634600222111
1555358619786688966,17393,1555358619786688966,world,-2.90602684021,-0.817278385162,0.797127246857,-0.718305587769,0.0977238789201,-0.265599519014,0.635565876961
1555358619797022806,17394,1555358619797022806,world,-2.9061164856,-0.817257404327,0.797092199326,-0.71831536293,0.0970019474626,-0.265981942415,0.635505437851
1555358619797093766,17395,1555358619797093766,world,-2.90608024597,-0.817284107208,0.797068834305,-0.718248486519,0.0975193455815,-0.266254991293,0.635387718678
1555358619807432514,17396,1555358619807432514,world,-2.90518760681,-0.817115068436,0.796719074249,-0.720035433769,0.105310313404,-0.26435354352,0.632910728455
1555358619816756135,17397,1555358619816756135,world,-2.90465545654,-0.817409515381,0.79692530632,-0.717952132225,0.112720310688,-0.270405054092,0.631442785263
1555358619837605010,17398,1555358619837605010,world,-2.90562915802,-0.817296981812,0.797080755234,-0.718072533607,0.102271996439,-0.267501980066,0.634314656258
1555358619837645972,17399,1555358619837645972,world,-2.9059343338,-0.81733584404,0.797119140625,-0.718083918095,0.0992565006018,-0.267316639423,0.634858608246
1555358619837716002,17400,1555358619837716002,world,-2.90605545044,-0.817282676697,0.797148704529,-0.71811413765,0.0980971306562,-0.266752839088,0.635241627693
1555358619847049204,17401,1555358619847049204,world,-2.90489387512,-0.817467212677,0.797014713287,-0.717379450798,0.110170327127,-0.270938128233,0.632314682007
1555358619866729472,17402,1555358619866729472,world,-2.90486907959,-0.817204713821,0.796673536301,-0.719538807869,0.109244629741,-0.266774237156,0.631792008877
1555358619866766989,17403,1555358619866766989,world,-2.9057264328,-0.817195415497,0.796939849854,-0.718570172787,0.100974433124,-0.266050577164,0.634569346905
1555358619877214527,17404,1555358619877214527,world,-2.9059753418,-0.817310333252,0.797099351883,-0.718330979347,0.0988121405244,-0.266701549292,0.634907305241
1555358619877255856,17405,1555358619877255856,world,-2.90600013733,-0.817242860794,0.797147512436,-0.71823734045,0.0976264700294,-0.265489697456,0.635703921318
1555358619887727032,17406,1555358619887727032,world,-2.90523052216,-0.817114591599,0.796774625778,-0.719745993614,0.105146713555,-0.265241205692,0.632895767689
1555358619897140551,17407,1555358619897140551,world,-2.90494728088,-0.81708240509,0.796648979187,-0.720135867596,0.10781583935,-0.265219956636,0.632011413574
1555358619907559157,17408,1555358619907559157,world,-2.90570545197,-0.817237615585,0.796988725662,-0.718478262424,0.101249478757,-0.26655703783,0.634417057037
1555358619916895083,17409,1555358619916895083,world,-2.90597724915,-0.817317962646,0.797161102295,-0.717998325825,0.0990767925978,-0.267270058393,0.635003149509
1555358619946869402,17410,1555358619946869402,world,-2.9059677124,-0.817336797714,0.797181367874,-0.717914164066,0.0987913310528,-0.266965150833,0.635271012783
1555358619957219551,17411,1555358619957219551,world,-2.90520000458,-0.817167043686,0.796871185303,-0.719482421875,0.105781160295,-0.265819936991,0.632846832275
1555358619957260272,17412,1555358619957260272,world,-2.90488910675,-0.817101478577,0.796708583832,-0.720108032227,0.108243405819,-0.264901340008,0.632103681564
1555358619957304617,17413,1555358619957304617,world,-2.90489959717,-0.817122936249,0.796713352203,-0.720047175884,0.108665116131,-0.265422165394,0.631882250309
1555358619957326873,17414,1555358619957326873,world,-2.90573692322,-0.8172519207,0.79704284668,-0.718192517757,0.100986532867,-0.266781032085,0.634688317776
1555358619967667336,17415,1555358619967667336,world,-2.90604400635,-0.817341566086,0.797187566757,-0.717650592327,0.0984972268343,-0.267515420914,0.635383009911
1555358619976966611,17416,1555358619976966611,world,-2.90608978271,-0.817360639572,0.797180891037,-0.717450976372,0.098032169044,-0.267551988363,0.635664701462
1555358619987301655,17417,1555358619987301655,world,-2.90606403351,-0.817346096039,0.797139883041,-0.717553794384,0.0982099324465,-0.267395585775,0.635587155819
1555358619987341479,17418,1555358619987341479,world,-2.90490531921,-0.817500352859,0.797058105469,-0.716945648193,0.110638864338,-0.27168944478,0.632402420044
1555358620026818478,17419,1555358620026818478,world,-2.90452003479,-0.817539453506,0.797095298767,-0.716720938683,0.114461399615,-0.272623509169,0.631574511528
1555358620026856431,17420,1555358620026856431,world,-2.90558624268,-0.817387342453,0.797092437744,-0.717787981033,0.102933891118,-0.26829329133,0.634195387363
1555358620026909767,17421,1555358620026909767,world,-2.90591621399,-0.817314863205,0.797087907791,-0.718320727348,0.0989426448941,-0.266356855631,0.635043025017
1555358620026930770,17422,1555358620026930770,world,-2.90604877472,-0.817285299301,0.797053098679,-0.71830457449,0.0978498011827,-0.266075134277,0.635348677635
1555358620037328904,17423,1555358620037328904,world,-2.90525054932,-0.817106723785,0.796690940857,-0.719944298267,0.104846723378,-0.264678180218,0.632955551147
1555358620047668299,17424,1555358620047668299,world,-2.90500068665,-0.817062139511,0.79665851593,-0.720423460007,0.107464954257,-0.264469861984,0.632057666779
1555358620047741052,17425,1555358620047741052,world,-2.90568161011,-0.817222833633,0.796996355057,-0.718830347061,0.101096883416,-0.265614211559,0.634437918663
1555358620056740318,17426,1555358620056740318,world,-2.9060049057,-0.817288398743,0.797165870667,-0.71819871664,0.09848998487,-0.266160130501,0.635333955288
1555358620067029037,17427,1555358620067029037,world,-2.90603351593,-0.817320823669,0.797141313553,-0.717865586281,0.0984927043319,-0.267154306173,0.635292649269
1555358620077387222,17428,1555358620077387222,world,-2.90522670746,-0.817103624344,0.796766996384,-0.719561159611,0.105557791889,-0.265899717808,0.632761120796
1555358620086861857,17429,1555358620086861857,world,-2.904920578,-0.817076444626,0.796635866165,-0.719992041588,0.107957027853,-0.264664143324,0.632384121418
1555358620097224317,17430,1555358620097224317,world,-2.90559959412,-0.817260026932,0.796996355057,-0.718446075916,0.101997151971,-0.266508370638,0.634354174137
1555358620097246787,17431,1555358620097246787,world,-2.90592765808,-0.817319869995,0.797191858292,-0.718022823334,0.0993302688003,-0.267225027084,0.634954750538
1555358620107545271,17432,1555358620107545271,world,-2.90601539612,-0.81733751297,0.79718375206,-0.717782020569,0.0986732542515,-0.267355471849,0.635274469852
1555358620116860962,17433,1555358620116860962,world,-2.90520477295,-0.817150592804,0.796751022339,-0.71938341856,0.105774104595,-0.266107410192,0.632839739323
1555358620127112366,17434,1555358620127112366,world,-2.90463638306,-0.817403078079,0.796922445297,-0.717421352863,0.112845636904,-0.271044760942,0.631749272346
1555358620147763197,17435,1555358620147763197,world,-2.90563774109,-0.81737947464,0.797114610672,-0.717662811279,0.102688379586,-0.268338948488,0.634357511997
1555358620147825214,17436,1555358620147825214,world,-2.90600585938,-0.817314863205,0.797226428986,-0.717884302139,0.0988429933786,-0.267088651657,0.635244786739
1555358620147852940,17437,1555358620147852940,world,-2.90606594086,-0.817316770554,0.797175884247,-0.717984735966,0.098234988749,-0.267137676477,0.635204851627
1555358620157218405,17438,1555358620157218405,world,-2.90519523621,-0.817116737366,0.796738386154,-0.719721853733,0.105283394456,-0.264803677797,0.633083581924
1555358620167691846,17439,1555358620167691846,world,-2.90467739105,-0.817405223846,0.7969186306,-0.717724382877,0.112265378237,-0.27031865716,0.631819605827
1555358620177109325,17440,1555358620177109325,world,-2.9048948288,-0.817170858383,0.796828508377,-0.719486355782,0.109387733042,-0.266873657703,0.631784856319
1555358620187407355,17441,1555358620187407355,world,-2.90577793121,-0.817316293716,0.79710483551,-0.718476831913,0.101136542857,-0.266847014427,0.634314775467
1555358620187450359,17442,1555358620187450359,world,-2.90605926514,-0.817267417908,0.797148942947,-0.718038022518,0.0978203192353,-0.266692847013,0.635395646095
1555358620206940993,17443,1555358620206940993,world,-2.90535545349,-0.817117929459,0.796824455261,-0.719593346119,0.104400277138,-0.265417218208,0.633119106293
1555358620217292230,17444,1555358620217292230,world,-2.90508937836,-0.817072153091,0.796700239182,-0.720064222813,0.106710128486,-0.264885157347,0.632420957088
1555358620217333171,17445,1555358620217333171,world,-2.9058265686,-0.817244291306,0.796998977661,-0.718394160271,0.100311614573,-0.266411364079,0.634722411633
1555358620227800162,17446,1555358620227800162,world,-2.90604019165,-0.817348718643,0.797145605087,-0.717833638191,0.0984435901046,-0.267143934965,0.635340809822
1555358620237158213,17447,1555358620237158213,world,-2.90604400635,-0.817353248596,0.797182559967,-0.717716634274,0.0980512797832,-0.267251133919,0.635488629341
1555358620247497166,17448,1555358620247497166,world,-2.90594482422,-0.817351579666,0.797115564346,-0.717754423618,0.0992797464132,-0.267448276281,0.635172188282
1555358620247535909,17449,1555358620247535909,world,-2.90483283997,-0.817475557327,0.797033071518,-0.717179000378,0.111177705228,-0.2713367939,0.632194697857
1555358620256879641,17450,1555358620256879641,world,-2.90485477448,-0.817219495773,0.796781539917,-0.719359278679,0.109943516552,-0.267094671726,0.631739675999
1555358620277629284,17451,1555358620277629284,world,-2.90567874908,-0.817245960236,0.797011852264,-0.718524873257,0.10162717849,-0.26680341363,0.63420021534
1555358620277675998,17452,1555358620277675998,world,-2.90597629547,-0.81728386879,0.797118663788,-0.718235313892,0.0988049507141,-0.266771882772,0.634986877441
1555358620287004687,17453,1555358620287004687,world,-2.90601062775,-0.817240953445,0.797093629837,-0.718066215515,0.0980709046125,-0.266019850969,0.63560706377
1555358620297455787,17454,1555358620297455787,world,-2.90490722656,-0.817446947098,0.797031402588,-0.717249631882,0.110083989799,-0.270694106817,0.632581412792
1555358620327529224,17455,1555358620327529224,world,-2.90453910828,-0.817487955093,0.797043561935,-0.71706867218,0.113767400384,-0.271535038948,0.631774008274
1555358620336934576,17456,1555358620336934576,world,-2.90561389923,-0.817292690277,0.797094583511,-0.717973947525,0.102277033031,-0.267594963312,0.634386241436
1555358620337018288,17459,1555358620337018288,world,-2.90526866913,-0.817081212997,0.796733379364,-0.719885349274,0.104704067111,-0.264884918928,0.632959783077
1555358620347440959,17460,1555358620347440959,world,-2.90498065948,-0.817023277283,0.796638011932,-0.720446646214,0.107308924198,-0.264480262995,0.632053434849
1555358620356746979,17461,1555358620356746979,world,-2.90492343903,-0.817087650299,0.796713113785,-0.720434129238,0.108128070831,-0.264672011137,0.631847918034
1555358620356791542,17462,1555358620356791542,world,-2.90573596954,-0.817280769348,0.797088861465,-0.718612074852,0.100862421095,-0.266449481249,0.63437217474
1555358620367133181,17463,1555358620367133181,world,-2.90601730347,-0.81735086441,0.797166109085,-0.717859625816,0.0982565805316,-0.267044246197,0.635382175446
1555358620377485960,17464,1555358620377485960,world,-2.90529537201,-0.817153453827,0.796837329865,-0.719368517399,0.105011105537,-0.265990227461,0.633033156395
1555358620386775761,17465,1555358620386775761,world,-2.90507411957,-0.817147016525,0.796718835831,-0.719748079777,0.107100233436,-0.2657084167,0.632369577885
1555358620386830951,17466,1555358620386830951,world,-2.90577030182,-0.817308664322,0.797021150589,-0.718251109123,0.100668400526,-0.266991496086,0.634584009647
1555358620407456545,17467,1555358620407456545,world,-2.90598869324,-0.817350387573,0.797155618668,-0.717817306519,0.0986598432064,-0.267032772303,0.635372459888
1555358620407510750,17468,1555358620407510750,world,-2.90606307983,-0.817351102829,0.797222137451,-0.717681229115,0.0980802997947,-0.267089486122,0.635591924191
1555358620416745091,17469,1555358620416745091,world,-2.90547657013,-0.817723989487,0.79734826088,-0.714759528637,0.106548003852,-0.273689597845,0.634712815285
1555358620427211562,17470,1555358620427211562,world,-2.90474700928,-0.817605495453,0.797121763229,-0.716229259968,0.112960107625,-0.273048430681,0.632218599319
1555358620437568904,17471,1555358620437568904,world,-2.90484809875,-0.817182779312,0.796753406525,-0.719461381435,0.109614640474,-0.266687780619,0.631852507591
1555358620457349525,17472,1555358620457349525,world,-2.90462303162,-0.817392587662,0.796981096268,-0.718032717705,0.112454257905,-0.269538372755,0.631769120693
1555358620457416792,17473,1555358620457416792,world,-2.90573978424,-0.817274808884,0.7971367836,-0.718383848667,0.100916914642,-0.266672670841,0.634528338909
1555358620457444986,17474,1555358620457444986,world,-2.90610694885,-0.817218065262,0.797168254852,-0.718445956707,0.0968511030078,-0.265017718077,0.635783553123
1555358620466755742,17475,1555358620466755742,world,-2.90502166748,-0.817408561707,0.797040700912,-0.717552781105,0.108157947659,-0.26923841238,0.633190751076
1555358620477110590,17476,1555358620477110590,world,-2.90464782715,-0.817455053329,0.796975374222,-0.717271745205,0.112262509763,-0.271388888359,0.631875455379
1555358620487450486,17477,1555358620487450486,world,-2.90571022034,-0.817278623581,0.797014474869,-0.718116402626,0.101485967636,-0.26731979847,0.634468019009
1555358620487519245,17478,1555358620487519245,world,-2.90602874756,-0.817234754562,0.797092437744,-0.718504726887,0.097886249423,-0.265969574451,0.635161042213
1555358620507062918,17479,1555358620507062918,world,-2.90612888336,-0.817257404327,0.797135591507,-0.718544304371,0.096886254847,-0.265829265118,0.635328292847
1555358620526789402,17480,1555358620526789402,world,-2.90536022186,-0.817043781281,0.796793937683,-0.720026433468,0.104088254273,-0.264350175858,0.63312458992
1555358620526830630,17481,1555358620526830630,world,-2.90502262115,-0.817046403885,0.796575069427,-0.720587491989,0.106931231916,-0.263853192329,0.632219076157
1555358620526877794,17482,1555358620526877794,world,-2.90498065948,-0.817034721375,0.796597719193,-0.720382392406,0.107396714389,-0.264343172312,0.632169127464
1555358620537310406,17483,1555358620537310406,world,-2.90580940247,-0.817245006561,0.797031879425,-0.718538999557,0.100351788104,-0.266324579716,0.634588420391
1555358620547716836,17484,1555358620547716836,world,-2.90608215332,-0.817320585251,0.797242641449,-0.717940270901,0.0979702994227,-0.266885191202,0.635402202606
1555358620557155665,17485,1555358620557155665,world,-2.90533065796,-0.817160367966,0.796924352646,-0.719372928143,0.104735299945,-0.265915840864,0.633104979992
1555358620557220408,17486,1555358620557220408,world,-2.90476036072,-0.817450761795,0.796961545944,-0.717494785786,0.111799366772,-0.270808398724,0.631953299046
1555358620567566531,17487,1555358620567566531,world,-2.90460777283,-0.817493200302,0.797043323517,-0.716744661331,0.113678902388,-0.272160500288,0.631888329983
1555358620577018473,17488,1555358620577018473,world,-2.90573310852,-0.817393302917,0.797149419785,-0.717454016209,0.102003663778,-0.268488287926,0.634640872478
1555358620587294250,17489,1555358620587294250,world,-2.90612220764,-0.817284107208,0.797247886658,-0.718021690845,0.0975060015917,-0.266578912735,0.635510146618
1555358620607098471,17490,1555358620607098471,world,-2.90620517731,-0.81724691391,0.797152519226,-0.717992842197,0.0965970158577,-0.266145378351,0.635863184929
1555358620607139691,17491,1555358620607139691,world,-2.90533447266,-0.817060232162,0.796736478806,-0.719802260399,0.104091592133,-0.265060484409,0.63308173418
1555358620607196966,17492,1555358620607196966,world,-2.90504455566,-0.817086935043,0.796629190445,-0.720225095749,0.10703676939,-0.265169352293,0.632063508034
1555358620617538126,17493,1555358620617538126,world,-2.90576457977,-0.817244768143,0.796991825104,-0.718546867371,0.100502446294,-0.266258776188,0.634583353996
1555358620626946201,17494,1555358620626946201,world,-2.90598106384,-0.817299604416,0.797148942947,-0.718045651913,0.0985187888145,-0.266910225153,0.635187864304
1555358620637384405,17495,1555358620637384405,world,-2.90603733063,-0.817299842834,0.797156333923,-0.71790844202,0.0980672389269,-0.26697409153,0.635385811329
1555358620657110410,17496,1555358620657110410,world,-2.9059677124,-0.817241668701,0.797100543976,-0.717889368534,0.0987476706505,-0.266761064529,0.635391414165
1555358620657171414,17498,1555358620657171414,world,-2.90490245819,-0.817069768906,0.796723842621,-0.720083892345,0.108435072005,-0.265098154545,0.632016003132
1555358620676760913,17499,1555358620676760913,world,-2.90565681458,-0.817254304886,0.797019958496,-0.718387007713,0.101953864098,-0.26679584384,0.634307205677
1555358620676816611,17500,1555358620676816611,world,-2.90586662292,-0.817276477814,0.797150850296,-0.717953801155,0.0992699712515,-0.266591727734,0.635308206081
1555358620687134148,17501,1555358620687134148,world,-2.90599155426,-0.817344903946,0.797138214111,-0.717736363411,0.0990237891674,-0.267305970192,0.635292410851
1555358620717059115,17502,1555358620717059115,world,-2.90599346161,-0.817269802094,0.797122478485,-0.717745423317,0.0987408161163,-0.267169952393,0.635383486748
1555358620717134842,17505,1555358620717134842,world,-2.90564346313,-0.817248106003,0.797042131424,-0.718491792679,0.101748406887,-0.26659783721,0.634304761887
1555358620727466201,17506,1555358620727466201,world,-2.90595149994,-0.817353010178,0.797181606293,-0.717917561531,0.099555850029,-0.267181098461,0.63505679369
1555358620736680380,17507,1555358620736680380,world,-2.90515518188,-0.817134618759,0.796868085861,-0.719540596008,0.105872988701,-0.265194565058,0.633027672768
1555358620757421108,17508,1555358620757421108,world,-2.90465068817,-0.817473173141,0.796960353851,-0.717606365681,0.112624078989,-0.2711378932,0.631538748741
1555358620766723190,17509,1555358620766723190,world,-2.90483283997,-0.817188024521,0.796790361404,-0.719304800034,0.109633855522,-0.266925394535,0.631927132607
1555358620766795770,17511,1555358620766795770,world,-2.90591239929,-0.817463874817,0.797233581543,-0.717083871365,0.100392140448,-0.269280642271,0.634980499744
1555358620777177822,17512,1555358620777177822,world,-2.90611076355,-0.817304134369,0.797170162201,-0.717873990536,0.0970775038004,-0.266771703959,0.63566160202
1555358620817578808,17513,1555358620817578808,world,-2.90535068512,-0.817126274109,0.796787261963,-0.719790101051,0.103989824653,-0.265108913183,0.633092164993
1555358620817685107,17517,1555358620817685107,world,-2.90602684021,-0.817307710648,0.797201156616,-0.718098580837,0.0981305763125,-0.266227900982,0.635474324226
1555358620827075478,17518,1555358620827075478,world,-2.9052400589,-0.817139863968,0.796873569489,-0.719582974911,0.105272784829,-0.265605062246,0.632907569408
1555358620847819626,17519,1555358620847819626,world,-2.90497303009,-0.817089319229,0.796699523926,-0.720087528229,0.108061470091,-0.265628367662,0.631853103638
1555358620847885018,17520,1555358620847885018,world,-2.90491390228,-0.81707406044,0.796661376953,-0.720096170902,0.108480073512,-0.265400469303,0.631867289543
1555358620847907323,17521,1555358620847907323,world,-2.90571498871,-0.817264080048,0.797008037567,-0.718297183514,0.101060345769,-0.266382783651,0.634725272655
1555358620857163916,17522,1555358620857163916,world,-2.90601921082,-0.817303180695,0.797181367874,-0.717653036118,0.0985488891602,-0.267188102007,0.635509908199
1555358620876731325,17523,1555358620876731325,world,-2.90608882904,-0.817353248596,0.797211647034,-0.717581808567,0.0981263071299,-0.267646700144,0.635462701321
1555358620897458613,17524,1555358620897458613,world,-2.90602588654,-0.817315340042,0.797142505646,-0.717603802681,0.0983185768127,-0.267606437206,0.635424971581
1555358620906862157,17525,1555358620906862157,world,-2.90519618988,-0.817138910294,0.796714782715,-0.719518065453,0.106003932655,-0.266180992126,0.632617294788
1555358620906904727,17526,1555358620906904727,world,-2.90493106842,-0.817073345184,0.796647071838,-0.720016360283,0.108454458416,-0.265597194433,0.631879985332
1555358620927622374,17527,1555358620927622374,world,-2.90565490723,-0.817245721817,0.797044992447,-0.71844792366,0.101682506502,-0.266771882772,0.634291768074
1555358620927711528,17530,1555358620927711528,world,-2.9052028656,-0.817179679871,0.796787261963,-0.719381690025,0.105833642185,-0.265842318535,0.632943212986
1555358620936978950,17531,1555358620936978950,world,-2.90492630005,-0.817070007324,0.79666519165,-0.719957351685,0.108259297907,-0.265445262194,0.632044494152
1555358620967064087,17532,1555358620967064087,world,-2.90567016602,-0.817274093628,0.797006368637,-0.71836745739,0.101804673672,-0.266907781363,0.634306252003
1555358620967100588,17533,1555358620967100588,world,-2.90590572357,-0.817323207855,0.797178506851,-0.717980146408,0.099246583879,-0.266741633415,0.635219395161
1555358620967157332,17534,1555358620967157332,world,-2.90601348877,-0.8172955513,0.797193527222,-0.717819392681,0.0985459312797,-0.267251729965,0.635295629501
