%time,field.header.seq,field.header.stamp,field.header.frame_id,field.pose.position.x,field.pose.position.y,field.pose.position.z,field.pose.orientation.x,field.pose.orientation.y,field.pose.orientation.z,field.pose.orientation.w
1555358758447358487,18359,1555358758447358487,world,-2.90074253082,-0.815844535828,0.797221899033,-0.710133314133,0.141149714589,-0.308113783598,0.617133080959
1555358758447404248,18360,1555358758447404248,world,-2.90020942688,-0.815746307373,0.797013521194,-0.711476683617,0.145167961717,-0.307106912136,0.615152478218
1555358758457759210,18361,1555358758457759210,world,-2.90006160736,-0.815739393234,0.796963691711,-0.711918652058,0.14664748311,-0.30674892664,0.614468455315
1555358758467027549,18362,1555358758467027549,world,-2.89998245239,-0.815701961517,0.797003984451,-0.712128102779,0.146854966879,-0.306299030781,0.614400744438
1555358758467050422,18363,1555358758467050422,world,-2.89997386932,-0.815742015839,0.796970844269,-0.71201479435,0.147032663226,-0.306463420391,0.614407420158
1555358758477292364,18364,1555358758477292364,world,-2.8999786377,-0.815722942352,0.796927452087,-0.711994409561,0.146827220917,-0.306571573019,0.614426314831
1555358758487639814,18365,1555358758487639814,world,-2.89999675751,-0.815768480301,0.796933889389,-0.712043702602,0.146867960691,-0.306632310152,0.61432915926
1555358758496911225,18366,1555358758496911225,world,-2.90078353882,-0.815930128098,0.797225236893,-0.710181713104,0.140517026186,-0.308121174574,0.617218196392
1555358758507153740,18367,1555358758507153740,world,-2.90023040771,-0.815823078156,0.797072410583,-0.711447954178,0.145046636462,-0.307188898325,0.615173399448
1555358758517456409,18368,1555358758517456409,world,-2.90002155304,-0.815770864487,0.797001600266,-0.711894631386,0.146814584732,-0.306756108999,0.614452779293
1555358758526754982,18369,1555358758526754982,world,-2.89995574951,-0.815747261047,0.796951532364,-0.712085306644,0.147192925215,-0.306504040956,0.614267170429
1555358758537094991,18370,1555358758537094991,world,-2.89995384216,-0.815719842911,0.796935796738,-0.712049663067,0.147360995412,-0.30650305748,0.614268541336
1555358758537122838,18371,1555358758537122838,world,-2.89996242523,-0.815766572952,0.796947717667,-0.712133765221,0.147193357348,-0.306702315807,0.61411178112
1555358758547480868,18372,1555358758547480868,world,-2.90000724792,-0.815715789795,0.796982288361,-0.712069153786,0.146820306778,-0.306435585022,0.614409208298
1555358758556698615,18373,1555358758556698615,world,-2.90001106262,-0.81574678421,0.796978473663,-0.712044835091,0.146767318249,-0.306625008583,0.614355564117
1555358758567052021,18374,1555358758567052021,world,-2.90002441406,-0.815732955933,0.79695892334,-0.712027072906,0.146642133594,-0.306477040052,0.614479660988
1555358758577517223,18375,1555358758577517223,world,-2.90003299713,-0.815760374069,0.796946763992,-0.711936354637,0.146561443806,-0.306592077017,0.614546716213
1555358758577557951,18376,1555358758577557951,world,-2.90081214905,-0.815918445587,0.797259569168,-0.710122406483,0.140286743641,-0.308259963989,0.617269456387
1555358758597317268,18377,1555358758597317268,world,-2.90024662018,-0.815798282623,0.7970495224,-0.711390137672,0.144775032997,-0.307146728039,0.615325331688
1555358758607731371,18378,1555358758607731371,world,-2.90006256104,-0.815751552582,0.796984910965,-0.711930930614,0.146498337388,-0.306604892015,0.614561617374
1555358758607797698,18379,1555358758607797698,world,-2.89996814728,-0.815718412399,0.796960830688,-0.712138414383,0.147112131119,-0.306337326765,0.614308059216
1555358758617192249,18380,1555358758617192249,world,-2.89996147156,-0.815762996674,0.796922206879,-0.712164342403,0.147200122476,-0.306696414948,0.614077568054
1555358758627546921,18381,1555358758627546921,world,-2.89998149872,-0.815727710724,0.796973705292,-0.712052881718,0.147000402212,-0.306535035372,0.614335358143
1555358758636818525,18382,1555358758636818525,world,-2.89999389648,-0.815769433975,0.796967029572,-0.711991250515,0.147006124258,-0.306704938412,0.614320635796
1555358758636889561,18383,1555358758636889561,world,-2.9000043869,-0.815750360489,0.796966552734,-0.71199965477,0.14675758779,-0.306666821241,0.614389300346
1555358758657711993,18384,1555358758657711993,world,-2.90003395081,-0.815724134445,0.797016620636,-0.711909174919,0.146638512611,-0.306562632322,0.614574611187
1555358758657784800,18385,1555358758657784800,world,-2.90002918243,-0.815753936768,0.796974182129,-0.711954414845,0.146446570754,-0.306706368923,0.61449611187
1555358758667136487,18386,1555358758667136487,world,-2.90002822876,-0.815759658813,0.796949625015,-0.7118948102,0.146854445338,-0.306815207005,0.614413619041
1555358758686751369,18387,1555358758686751369,world,-2.90004062653,-0.815760850906,0.796963691711,-0.711840987206,0.146804556251,-0.306680053473,0.614555299282
1555358758686820373,18388,1555358758686820373,world,-2.90002918243,-0.815774202347,0.796977043152,-0.711899280548,0.146475613117,-0.306675076485,0.614568710327
1555358758686847237,18389,1555358758686847237,world,-2.90082645416,-0.815900087357,0.797297477722,-0.710102200508,0.140074163675,-0.308072954416,0.617434322834
1555358758697285051,18390,1555358758697285051,world,-2.90026950836,-0.815803289413,0.797028541565,-0.711434304714,0.144530087709,-0.307077378035,0.615366399288
1555358758707658499,18391,1555358758707658499,world,-2.90001773834,-0.815759420395,0.796918153763,-0.711860716343,0.14681878686,-0.306762397289,0.614488005638
1555358758717032316,18392,1555358758717032316,world,-2.89993953705,-0.815742969513,0.796920061111,-0.71210283041,0.147285178304,-0.306604385376,0.614174604416
1555358758737620776,18393,1555358758737620776,world,-2.90073108673,-0.815889120102,0.797255992889,-0.710339784622,0.140830472112,-0.30804720521,0.617001771927
1555358758737659052,18394,1555358758737659052,world,-2.90016651154,-0.815741300583,0.797083854675,-0.711582839489,0.145086869597,-0.306744456291,0.615229606628
1555358758777636840,18395,1555358758777636840,world,-2.89997291565,-0.815773248672,0.796949625015,-0.712050795555,0.147350355983,-0.306818783283,0.614112257957
1555358758777704748,18396,1555358758777704748,world,-2.89989471436,-0.815725564957,0.796899557114,-0.712259948254,0.147519826889,-0.306484669447,0.613995730877
1555358758777728005,18397,1555358758777728005,world,-2.8999080658,-0.815758705139,0.796874523163,-0.712203145027,0.147506445646,-0.306534320116,0.614040195942
1555358758777775286,18398,1555358758777775286,world,-2.90073490143,-0.815895557404,0.797239780426,-0.710366070271,0.140851050615,-0.308013617992,0.616983532906
1555358758777803694,18399,1555358758777803694,world,-2.90022182465,-0.815759897232,0.797086954117,-0.711575746536,0.145020067692,-0.306751042604,0.615250408649
1555358758777824966,18400,1555358758777824966,world,-2.89998435974,-0.815757036209,0.796955108643,-0.711997151375,0.147078022361,-0.30658441782,0.614356637001
1555358758797478960,18401,1555358758797478960,world,-2.8999004364,-0.815733194351,0.796887874603,-0.712190687656,0.147531941533,-0.306474685669,0.614078223705
1555358758817095692,18402,1555358758817095692,world,-2.89991760254,-0.815763950348,0.796882152557,-0.712171375751,0.14748968184,-0.30667078495,0.614012897015
1555358758817131330,18403,1555358758817131330,world,-2.8999376297,-0.815746307373,0.796954154968,-0.712094068527,0.147675201297,-0.306559026241,0.614113688469
1555358758817189725,18404,1555358758817189725,world,-2.89997768402,-0.815726995468,0.797003984451,-0.712026715279,0.14718310535,-0.306485712528,0.614346623421
1555358758827512871,18405,1555358758827512871,world,-2.89998149872,-0.815760135651,0.796960115433,-0.711997747421,0.146954476833,-0.306958526373,0.614198625088
1555358758836791498,18406,1555358758836791498,world,-2.90001487732,-0.8157081604,0.79697394371,-0.711924254894,0.146550193429,-0.306549340487,0.614584743977
1555358758847122220,18407,1555358758847122220,world,-2.90002727509,-0.815736532211,0.796942234039,-0.711894214153,0.146560147405,-0.306546837091,0.614618360996
1555358758857369797,18408,1555358758857369797,world,-2.90003871918,-0.815753936768,0.796980381012,-0.711814045906,0.146708592772,-0.306749790907,0.614574611187
1555358758857410550,18409,1555358758857410550,world,-2.90002250671,-0.815737485886,0.797009706497,-0.711945414543,0.146479055285,-0.306553930044,0.614574849606
1555358758887221336,18410,1555358758887221336,world,-2.90005588531,-0.815722703934,0.797008037567,-0.711864769459,0.146277278662,-0.306375682354,0.614805340767
1555358758887264630,18411,1555358758887264630,world,-2.90005111694,-0.815742969513,0.796990156174,-0.71189558506,0.146386191249,-0.306583732367,0.614639937878
1555358758887321607,18412,1555358758887321607,world,-2.90006923676,-0.815771579742,0.796961307526,-0.711876213551,0.14640930295,-0.306756436825,0.614570736885
1555358758897557051,18413,1555358758897557051,world,-2.90005683899,-0.815714597702,0.796973466873,-0.711831152439,0.14663168788,-0.30679744482,0.614549279213
1555358758906801450,18414,1555358758906801450,world,-2.90003871918,-0.815769672394,0.796961307526,-0.711950719357,0.146637931466,-0.306869417429,0.614373505116
1555358758906860453,18415,1555358758906860453,world,-2.90005397797,-0.815758228302,0.797014713287,-0.711876928806,0.146479874849,-0.306658327579,0.614601969719
1555358758917156878,18416,1555358758917156878,world,-2.90005874634,-0.815759181976,0.796992540359,-0.71184784174,0.146402806044,-0.306691229343,0.614637732506
1555358758927437236,18417,1555358758927437236,world,-2.9000711441,-0.815754652023,0.796983480453,-0.711902618408,0.146281421185,-0.30647790432,0.614709615707
1555358758927475546,18418,1555358758927475546,world,-2.90005970001,-0.815786361694,0.796943902969,-0.711904108524,0.146244674921,-0.306646764278,0.614632248878
1555358758936968373,18419,1555358758936968373,world,-2.90008640289,-0.815760374069,0.79695391655,-0.71184438467,0.146254703403,-0.30670389533,0.614670693874
1555358758947263792,18420,1555358758947263792,world,-2.90007686615,-0.815721750259,0.797005414963,-0.71183180809,0.146203637123,-0.306519389153,0.614789247513
1555358758957636677,18421,1555358758957636677,world,-2.90005111694,-0.815751314163,0.796951293945,-0.711865723133,0.146410658956,-0.306649833918,0.614635765553
1555358758966911398,18422,1555358758966911398,world,-2.90005874634,-0.81572508812,0.797000408173,-0.71187287569,0.146258980036,-0.306668102741,0.614654421806
1555358758966956863,18423,1555358758966956863,world,-2.90005111694,-0.815744400024,0.796974420547,-0.71183013916,0.146584510803,-0.306944608688,0.614488363266
1555358758977443270,18424,1555358758977443270,world,-2.90005397797,-0.815744638443,0.79695892334,-0.711760282516,0.146436870098,-0.306708574295,0.614722251892
1555358758986750271,18425,1555358758986750271,world,-2.9000377655,-0.815727233887,0.796953439713,-0.711794197559,0.146748751402,-0.30678409338,0.614570975304
1555358759047562102,18426,1555358759047562102,world,-2.90005207062,-0.815747022629,0.797005414963,-0.711825966835,0.146620795131,-0.30683490634,0.614539325237
1555358759047603915,18427,1555358759047603915,world,-2.90083026886,-0.815910816193,0.797307014465,-0.710183858871,0.140173718333,-0.308259308338,0.617224812508
1555358759047689310,18429,1555358759047689310,world,-2.90002632141,-0.815775156021,0.79693031311,-0.711926102638,0.146626651287,-0.30689701438,0.614390790462
1555358759047731976,18430,1555358759047731976,world,-2.89997005463,-0.815702915192,0.796903133392,-0.712090194225,0.147180452943,-0.306390285492,0.614321231842
1555358759047777686,18432,1555358759047777686,world,-2.89998912811,-0.815724134445,0.796979427338,-0.7120616436,0.146948158741,-0.306476324797,0.614366948605
1555358759057219926,18433,1555358759057219926,world,-2.90000915527,-0.815715789795,0.796981096268,-0.712013244629,0.146818816662,-0.306443661451,0.614470183849
1555358759067600916,18434,1555358759067600916,world,-2.90001106262,-0.815724849701,0.796911001205,-0.712008476257,0.146808728576,-0.306539744139,0.614430308342
1555358759097732109,18435,1555358759097732109,world,-2.90002346039,-0.815755605698,0.796917438507,-0.711920917034,0.146712973714,-0.306888371706,0.614380657673
1555358759097773239,18436,1555358759097773239,world,-2.9000787735,-0.815736055374,0.796984910965,-0.711896240711,0.146603807807,-0.306739032269,0.614509701729
1555358759097821577,18437,1555358759097821577,world,-2.90007305145,-0.815721273422,0.797034263611,-0.711869120598,0.14650195837,-0.306567400694,0.614651143551
1555358759097845918,18438,1555358759097845918,world,-2.90006160736,-0.81575512886,0.796994924545,-0.711852669716,0.146684810519,-0.306844562292,0.614488303661
1555358759117654330,18439,1555358759117654330,world,-2.90003681183,-0.815725803375,0.796951055527,-0.711905300617,0.146763056517,-0.306712329388,0.614474654198
1555358759117696162,18440,1555358759117696162,world,-2.90005207062,-0.815742969513,0.79691362381,-0.711830198765,0.146534234285,-0.306896030903,0.614524483681
1555358759137212673,18441,1555358759137212673,world,-2.90005970001,-0.81573176384,0.796974420547,-0.711820960045,0.146541401744,-0.306773275137,0.614594638348
1555358759137256333,18442,1555358759137256333,world,-2.90008926392,-0.815705537796,0.797048330307,-0.711801290512,0.146595001221,-0.306691765785,0.61464548111
1555358759137298353,18443,1555358759137298353,world,-2.9000711441,-0.815698862076,0.797030925751,-0.711804866791,0.146642148495,-0.306751728058,0.61460018158
1555358759177183858,18444,1555358759177183858,world,-2.90004062653,-0.815722465515,0.796935796738,-0.711880207062,0.146817982197,-0.307101964951,0.614295959473
1555358759177254720,18445,1555358759177254720,world,-2.90004634857,-0.815680980682,0.796877861023,-0.71192997694,0.146486744285,-0.306952446699,0.614391982555
1555358759177299244,18447,1555358759177299244,world,-2.90086841583,-0.815830945969,0.797294378281,-0.710067391396,0.140116721392,-0.3084012568,0.61730080843
1555358759177330799,18448,1555358759177330799,world,-2.90109062195,-0.815853595734,0.79741191864,-0.709480345249,0.138278320432,-0.308391809464,0.618394136429
1555358759187722423,18449,1555358759187722423,world,-2.90026378632,-0.815737247467,0.797027826309,-0.711440622807,0.144899830222,-0.306768059731,0.615426540375
1555358759197158173,18450,1555358759197158173,world,-2.89995670319,-0.815740346909,0.79685997963,-0.712180137634,0.14730297029,-0.306299597025,0.614232838154
1555358759207582152,18451,1555358759207582152,world,-2.8998298645,-0.815796136856,0.796882867813,-0.712297201157,0.148088172078,-0.3063801229,0.613867938519
1555358759217038093,18452,1555358759217038093,world,-2.89987468719,-0.815810680389,0.796956777573,-0.712297201157,0.147758767009,-0.306245595217,0.614014446735
1555358759227507634,18453,1555358759227507634,world,-2.90070152283,-0.81597328186,0.797285795212,-0.710476219654,0.141042947769,-0.307509541512,0.617064237595
1555358759227560758,18454,1555358759227560758,world,-2.90012931824,-0.815875291824,0.797045946121,-0.711643218994,0.145566120744,-0.306826770306,0.615005612373
1555358759236928411,18455,1555358759236928411,world,-2.89994812012,-0.815838098526,0.796897888184,-0.712142586708,0.147363603115,-0.306793421507,0.6140152812
1555358759247316933,18456,1555358759247316933,world,-2.89988613129,-0.815764665604,0.796897172928,-0.712217509747,0.147678807378,-0.306580036879,0.613959252834
1555358759257722808,18457,1555358759257722808,world,-2.89989471436,-0.815731287003,0.796911001205,-0.712147116661,0.147526532412,-0.306759387255,0.613987982273
1555358759267074020,18458,1555358759267074020,world,-2.90072059631,-0.815785169601,0.797248125076,-0.710253894329,0.141233786941,-0.308015435934,0.617024362087
1555358759267110638,18459,1555358759267110638,world,-2.90016841888,-0.815617322922,0.797074317932,-0.711521804333,0.145553514361,-0.306856989861,0.615134000778
1555358759277488425,18460,1555358759277488425,world,-2.89997291565,-0.815589904785,0.796927213669,-0.711992144585,0.147344097495,-0.306651890278,0.614265084267
1555358759286828246,18461,1555358759286828246,world,-2.89990997314,-0.815553665161,0.796887636185,-0.712152421474,0.147722899914,-0.306413859129,0.614107072353
1555358759347015136,18462,1555358759347015136,world,-2.89992523193,-0.815629005432,0.796891927719,-0.712066233158,0.147639170289,-0.306642502546,0.614113032818
1555358759347055951,18463,1555358759347055951,world,-2.89992713928,-0.81564950943,0.796979188919,-0.712087988853,0.14724701643,-0.306385010481,0.614310443401
1555358759347115920,18464,1555358759347115920,world,-2.90000152588,-0.815755605698,0.797014474869,-0.712011933327,0.146936818957,-0.306573092937,0.614379048347
1555358759347157927,18466,1555358759347157927,world,-2.90001773834,-0.815803050995,0.796950101852,-0.712036073208,0.146496608853,-0.30645647645,0.614514410496
1555358759347202291,18467,1555358759347202291,world,-2.89998626709,-0.815842866898,0.79691529274,-0.711978375912,0.146632745862,-0.306675344706,0.614439547062
1555358759357521151,18468,1555358759357521151,world,-2.89998722076,-0.815825462341,0.796997308731,-0.711965322495,0.146503567696,-0.306505680084,0.614570140839
1555358759357572984,18469,1555358759357572984,world,-2.90003013611,-0.815804243088,0.79705619812,-0.711950778961,0.14641225338,-0.306590199471,0.61456656456
1555358759366908679,18470,1555358759366908679,world,-2.90081119537,-0.81586098671,0.797333717346,-0.710099995136,0.139948874712,-0.307868033648,0.617567539215
1555358759366946802,18471,1555358759366946802,world,-2.90019226074,-0.815794467926,0.796964883804,-0.711412549019,0.14491276443,-0.307388335466,0.61514621973
1555358759387645540,18472,1555358759387645540,world,-2.89994239807,-0.815657377243,0.796889066696,-0.711877405643,0.146921738982,-0.306732594967,0.614458918571
1555358759396997551,18473,1555358759396997551,world,-2.89989948273,-0.815650701523,0.796955823898,-0.712025880814,0.147784456611,-0.306789815426,0.614051222801
1555358759397037159,18474,1555358759397037159,world,-2.90068435669,-0.815833330154,0.797302484512,-0.710256516933,0.141526252031,-0.308218896389,0.616852641106
1555358759407478836,18475,1555358759407478836,world,-2.90012550354,-0.815708398819,0.797100782394,-0.711614370346,0.145429506898,-0.306938707829,0.615015387535
1555358759416822182,18476,1555358759416822182,world,-2.89993286133,-0.815738201141,0.796923398972,-0.711955368519,0.147358268499,-0.306836515665,0.614212095737
1555358759427221479,18477,1555358759427221479,world,-2.89986610413,-0.815711736679,0.79689002037,-0.712190270424,0.147676810622,-0.306493550539,0.614034473896
1555358759427275209,18478,1555358759427275209,world,-2.89991188049,-0.815768957138,0.796927213669,-0.712179720402,0.147345855832,-0.306482285261,0.614131867886
1555358759437703932,18479,1555358759437703932,world,-2.90078353882,-0.815936803818,0.797277927399,-0.710414886475,0.140735551715,-0.307652980089,0.617133677006
1555358759447096896,18480,1555358759447096896,world,-2.90102672577,-0.816009044647,0.797378063202,-0.70977127552,0.138888418674,-0.308165609837,0.618036091328
1555358759457550205,18481,1555358759457550205,world,-2.90023994446,-0.815908670425,0.797013282776,-0.711557269096,0.145228400826,-0.306927144527,0.615134835243
1555358759467021690,18482,1555358759467021690,world,-2.89996242523,-0.8158826828,0.79686665535,-0.71224963665,0.147647306323,-0.306560903788,0.613939106464
1555358759477401287,18483,1555358759477401287,world,-2.89989566803,-0.815846920013,0.796869754791,-0.712382316589,0.148182362318,-0.306212425232,0.613830089569
1555358759477438410,18484,1555358759477438410,world,-2.89992523193,-0.815846443176,0.796913385391,-0.71230918169,0.147869125009,-0.306290119886,0.613951861858
1555358759486731093,18485,1555358759486731093,world,-2.90074729919,-0.815912723541,0.797262430191,-0.710402607918,0.140932455659,-0.307553082705,0.617152512074
1555358759497074951,18486,1555358759497074951,world,-2.90018558502,-0.815815210342,0.797044992447,-0.711631476879,0.145304068923,-0.306788086891,0.615100383759
1555358759507399231,18487,1555358759507399231,world,-2.89994430542,-0.815747737885,0.796961069107,-0.712158620358,0.147141650319,-0.30647110939,0.61421084404
1555358759516652704,18488,1555358759516652704,world,-2.89989376068,-0.815688610077,0.796918869019,-0.712205052376,0.147492453456,-0.306377440691,0.614119589329
1555358759526942830,18489,1555358759526942830,world,-2.89986896515,-0.81568145752,0.796903371811,-0.712252676487,0.147467523813,-0.306489706039,0.614014387131
1555358759526981275,18490,1555358759526981275,world,-2.89987182617,-0.815672397614,0.796926021576,-0.712090969086,0.147523447871,-0.306579172611,0.61414372921
1555358759537322599,18491,1555358759537322599,world,-2.8998966217,-0.815671205521,0.796991586685,-0.711963355541,0.147508636117,-0.306818366051,0.614175796509
1555358759547720686,18492,1555358759547720686,world,-2.89994907379,-0.815675497055,0.797003269196,-0.712024748325,0.14712305367,-0.306495785713,0.614358186722
1555358759557045371,18493,1555358759557045371,world,-2.89995670319,-0.815707445145,0.796964645386,-0.712001681328,0.146803855896,-0.30645430088,0.614481925964
1555358759567374573,18494,1555358759567374573,world,-2.89994525909,-0.815752983093,0.796914815903,-0.711938023567,0.146858096123,-0.30677819252,0.614381074905
1555358759577730243,18495,1555358759577730243,world,-2.89999580383,-0.81579208374,0.796930074692,-0.711936593056,0.146719142795,-0.306753724813,0.614428222179
1555358759577770241,18496,1555358759577770241,world,-2.90005779266,-0.815808057785,0.797027587891,-0.711928725243,0.14643381536,-0.306361883879,0.614700734615
1555358759587252111,18497,1555358759587252111,world,-2.90009498596,-0.815844535828,0.797054767609,-0.711891651154,0.146435201168,-0.306515693665,0.614666700363
1555358759597622185,18498,1555358759597622185,world,-2.90006923676,-0.81586265564,0.796984672546,-0.711907148361,0.146464705467,-0.306772947311,0.614513397217
1555358759627739289,18499,1555358759627739289,world,-2.90006065369,-0.815867424011,0.79692530632,-0.711925268173,0.146336138248,-0.306772112846,0.614523410797
1555358759627819583,18500,1555358759627819583,world,-2.90005970001,-0.815867424011,0.796967506409,-0.711923599243,0.146485984325,-0.306774616241,0.614488363266
1555358759627882219,18501,1555358759627882219,world,-2.90085697174,-0.815979719162,0.797298669815,-0.710098266602,0.139933645725,-0.308128088713,0.617443263531
1555358759637329257,18502,1555358759637329257,world,-2.90108203888,-0.816015481949,0.797358751297,-0.709578275681,0.138524621725,-0.308733940125,0.618055820465
1555358759647792617,18503,1555358759647792617,world,-2.9002866745,-0.815789461136,0.797053098679,-0.711361885071,0.144770622253,-0.307069569826,0.615397512913
1555358759647834540,18504,1555358759647834540,world,-2.89994716644,-0.815732002258,0.79690861702,-0.712111830711,0.147376775742,-0.306591004133,0.614148795605
1555358759667537882,18505,1555358759667537882,world,-2.89987373352,-0.815679550171,0.796942949295,-0.712328135967,0.148126959801,-0.306298673153,0.613863289356
1555358759667577975,18506,1555358759667577975,world,-2.89984416962,-0.815659284592,0.796941041946,-0.712303578854,0.147991478443,-0.306178510189,0.613984405994
1555358759667634223,18507,1555358759667634223,world,-2.89984989166,-0.815685987473,0.796907901764,-0.712216317654,0.147731617093,-0.30641362071,0.614031016827
1555358759676954981,18508,1555358759676954981,world,-2.89992141724,-0.815684556961,0.79694890976,-0.71207088232,0.147266224027,-0.306335568428,0.614350318909
1555358759697723725,18509,1555358759697723725,world,-2.89995574951,-0.815743923187,0.796969175339,-0.712065935135,0.147099912167,-0.306591957808,0.614268004894
1555358759697773414,18510,1555358759697773414,world,-2.89998722076,-0.815786123276,0.797013044357,-0.712011039257,0.146967023611,-0.306566178799,0.614376187325
1555358759707195958,18511,1555358759707195958,world,-2.89998054504,-0.815774679184,0.796964168549,-0.712009608746,0.146832004189,-0.306340247393,0.614522993565
1555358759717662350,18512,1555358759717662350,world,-2.9000005722,-0.815845489502,0.796919345856,-0.71194678545,0.146643325686,-0.306694686413,0.614463925362
1555358759727066165,18513,1555358759727066165,world,-2.90003013611,-0.815805435181,0.796992540359,-0.711912035942,0.146457478404,-0.3066585958,0.614566504955
1555358759737519177,18514,1555358759737519177,world,-2.90009307861,-0.815851449966,0.797048568726,-0.711911737919,0.146427482367,-0.306579649448,0.614613413811
1555358759737563186,18515,1555358759737563186,world,-2.90086174011,-0.81599855423,0.797332763672,-0.710073292255,0.139991730452,-0.308087229729,0.617479085922
1555358759746991099,18516,1555358759746991099,world,-2.90028572083,-0.815859079361,0.797038078308,-0.711443006992,0.144660696387,-0.30697286129,0.615377902985
1555358759757383000,18517,1555358759757383000,world,-2.90006160736,-0.815793037415,0.796924591064,-0.711858153343,0.146633028984,-0.306653231382,0.614589631557
1555358759766672348,18518,1555358759766672348,world,-2.8999786377,-0.815765380859,0.796926259995,-0.712012827396,0.147199839354,-0.306545525789,0.614328682423
1555358759776988488,18519,1555358759776988488,world,-2.89999675751,-0.815726041794,0.796952724457,-0.712063908577,0.147381424904,-0.306478589773,0.614259421825
1555358759777030718,18520,1555358759777030718,world,-2.89997577667,-0.815684318542,0.796975135803,-0.712025284767,0.147279322147,-0.306563585997,0.614286363125
1555358759797632720,18521,1555358759797632720,world,-2.89994621277,-0.815678119659,0.796897649765,-0.712068080902,0.14711868763,-0.306711524725,0.614201247692
1555358759797684619,18522,1555358759797684619,world,-2.89999675751,-0.81563782692,0.796887159348,-0.711987197399,0.146890968084,-0.306537687778,0.614436268806
1555358759807170420,18523,1555358759807170420,world,-2.90001869202,-0.815657615662,0.796973705292,-0.711961269379,0.146887108684,-0.306638807058,0.614416718483
1555358759817581797,18524,1555358759817581797,world,-2.90001106262,-0.815731525421,0.796988964081,-0.711911141872,0.147063806653,-0.306910425425,0.614296972752
1555358759827033356,18525,1555358759827033356,world,-2.90001964569,-0.81572675705,0.797019958496,-0.711967349052,0.146487697959,-0.30660828948,0.614520251751
1555358759837407656,18526,1555358759837407656,world,-2.90003013611,-0.815732240677,0.796982288361,-0.711914002895,0.146385386586,-0.306685954332,0.614567816257
1555358759837435884,18527,1555358759837435884,world,-2.90004444122,-0.815762042999,0.796974658966,-0.711813509464,0.146521776915,-0.306758224964,0.614615559578
1555358759846730280,18528,1555358759846730280,world,-2.90005588531,-0.815794706345,0.796987056732,-0.711911320686,0.146332800388,-0.306617945433,0.614617288113
1555358759857169283,18529,1555358759857169283,world,-2.90007209778,-0.81583404541,0.797003746033,-0.71188980341,0.146325796843,-0.306671917439,0.614616990089
1555358759867498308,18530,1555358759867498308,world,-2.90007209778,-0.815840005875,0.797016143799,-0.711836218834,0.146343931556,-0.306608766317,0.614706218243
1555358759876824302,18531,1555358759876824302,world,-2.90004634857,-0.815829515457,0.796957731247,-0.71187710762,0.146353602409,-0.306764364243,0.614578962326
1555358759876902355,18532,1555358759876902355,world,-2.90006923676,-0.815838813782,0.796920061111,-0.711855113506,0.146479055285,-0.30680295825,0.614555299282
1555358759897507237,18533,1555358759897507237,world,-2.90008735657,-0.815794944763,0.796964645386,-0.711814403534,0.146324038506,-0.306584358215,0.614748477936
1555358759897572311,18534,1555358759897572311,world,-2.90010070801,-0.815788507462,0.797006607056,-0.711836636066,0.146456748247,-0.306675851345,0.6146453619
1555358759906950169,18535,1555358759906950169,world,-2.90012264252,-0.815737009048,0.79706120491,-0.711863577366,0.14621374011,-0.306480586529,0.61476957798
1555358759917349479,18536,1555358759917349479,world,-2.90011882782,-0.815718173981,0.797005176544,-0.711780011654,0.146562561393,-0.306570023298,0.614738643169
1555358759917391115,18537,1555358759917391115,world,-2.90006637573,-0.81572675705,0.796960353851,-0.711777448654,0.146733641624,-0.306762337685,0.614604711533
1555358759937111650,18538,1555358759937111650,world,-2.90005397797,-0.815721511841,0.79693031311,-0.711768269539,0.146935686469,-0.306858509779,0.614519059658
1555358759937152575,18539,1555358759937152575,world,-2.9000787735,-0.815726995468,0.79696893692,-0.711788356304,0.146738007665,-0.306832700968,0.614555895329
1555358759947490603,18540,1555358759947490603,world,-2.90005493164,-0.815681934357,0.797050714493,-0.711876928806,0.146352559328,-0.306578099728,0.6146723032
1555358759956812273,18541,1555358759956812273,world,-2.90005779266,-0.815715789795,0.79704284668,-0.711815476418,0.146668478847,-0.306723922491,0.614595353603
1555358759967163967,18542,1555358759967163967,world,-2.90001583099,-0.815745830536,0.796971082687,-0.711934328079,0.146445870399,-0.30680847168,0.614468574524
1555358759977483463,18543,1555358759977483463,world,-2.90002346039,-0.81574845314,0.796921491623,-0.71196359396,0.14629124105,-0.30664524436,0.614553153515
1555358759986753982,18544,1555358759986753982,world,-2.90005493164,-0.815781831741,0.796936273575,-0.711931288242,0.146245032549,-0.306843101978,0.61450278759
1555358759997166296,18545,1555358759997166296,world,-2.9008398056,-0.8159096241,0.797297716141,-0.710017859936,0.139895707369,-0.3081189394,0.617548882961
1555358760007626006,18546,1555358760007626006,world,-2.90029144287,-0.815803050995,0.797134160995,-0.711373746395,0.144571200013,-0.306941479445,0.615494430065
1555358760016936002,18547,1555358760016936002,world,-2.90002822876,-0.815771579742,0.797003030777,-0.711950719357,0.146626010537,-0.306575208902,0.614523231983
1555358760016975270,18548,1555358760016975270,world,-2.8999671936,-0.815762519836,0.796904563904,-0.712036728859,0.147209405899,-0.30646571517,0.614338576794
1555358760027325445,18549,1555358760027325445,world,-2.90000629425,-0.815738677979,0.79686331749,-0.712041497231,0.147282242775,-0.306495517492,0.61430066824
1555358760047144330,18550,1555358760047144330,world,-2.9007692337,-0.815899372101,0.797188997269,-0.710208237171,0.140787541866,-0.308158010244,0.617107570171
1555358760047186425,18551,1555358760047186425,world,-2.90024089813,-0.815808534622,0.797083854675,-0.71142578125,0.14507073164,-0.307040721178,0.615267336369
1555358760057645425,18552,1555358760057645425,world,-2.90081310272,-0.815867424011,0.797326803207,-0.710205078125,0.140703767538,-0.308089107275,0.61716479063
1555358760057694515,18553,1555358760057694515,world,-2.90018939972,-0.815751552582,0.797028541565,-0.711616158485,0.145759403706,-0.306885361671,0.614961862564
1555358760067026072,18554,1555358760067026072,world,-2.89994239807,-0.815683841705,0.796870231628,-0.712119400501,0.147611990571,-0.306409358978,0.614174365997
1555358760077473520,18555,1555358760077473520,world,-2.89985179901,-0.81569480896,0.796859264374,-0.712254941463,0.14793998003,-0.306381613016,0.613951981068
1555358760077514490,18556,1555358760077514490,world,-2.89988422394,-0.815701723099,0.79695892334,-0.712219357491,0.147967368364,-0.306227564812,0.614063501358
1555358760087163325,18557,1555358760087163325,world,-2.90068721771,-0.815907478333,0.797315597534,-0.710378885269,0.141473308206,-0.308075368404,0.616795659065
1555358760097562624,18558,1555358760097562624,world,-2.90012931824,-0.815794944763,0.797083616257,-0.711694896221,0.145676419139,-0.306872606277,0.614896774292
1555358760106894898,18559,1555358760106894898,world,-2.89992713928,-0.815775871277,0.796865224838,-0.71212375164,0.147307217121,-0.306617468596,0.614138543606
1555358760117289579,18560,1555358760117289579,world,-2.89985275269,-0.815775632858,0.796807289124,-0.712271511555,0.147730901837,-0.306559681892,0.613894224167
1555358760117339842,18561,1555358760117339842,world,-2.89991092682,-0.815785646439,0.796912431717,-0.712198615074,0.147591561079,-0.306653648615,0.613965332508
1555358760127645963,18562,1555358760127645963,world,-2.90077400208,-0.815890789032,0.797346591949,-0.710396051407,0.140470728278,-0.307522684336,0.61728054285
1555358760147258570,18563,1555358760147258570,world,-2.9009771347,-0.815936088562,0.797389745712,-0.709795415401,0.138621836901,-0.308220118284,0.618041217327
1555358760147309880,18564,1555358760147309880,world,-2.90020751953,-0.815822601318,0.796949625015,-0.711621403694,0.145204246044,-0.306954562664,0.615052580833
1555358760166927901,18565,1555358760166927901,world,-2.89992237091,-0.815714120865,0.796819210052,-0.712278842926,0.14741808176,-0.306301295757,0.614089846611
1555358760167002495,18567,1555358760167002495,world,-2.90069198608,-0.8158826828,0.797277927399,-0.710545182228,0.14179122448,-0.307794868946,0.616670966148
1555358760186694461,18568,1555358760186694461,world,-2.90094089508,-0.815896749496,0.797393798828,-0.709915876389,0.139468863606,-0.308032035828,0.617805957794
1555358760197064610,18569,1555358760197064610,world,-2.90015506744,-0.815731048584,0.79699754715,-0.711620271206,0.145932540298,-0.306680321693,0.615018367767
1555358760207420151,18570,1555358760207420151,world,-2.89985942841,-0.815678834915,0.796816110611,-0.712225437164,0.148254007101,-0.306310743093,0.613945662975
1555358760207458513,18571,1555358760207458513,world,-2.89978027344,-0.815739631653,0.796790122986,-0.71242749691,0.148687303066,-0.306700646877,0.613411784172
1555358760216716257,18572,1555358760216716257,world,-2.89981651306,-0.815680027008,0.79692530632,-0.712414264679,0.148221641779,-0.306144714355,0.613817453384
1555358760227121603,18573,1555358760227121603,world,-2.90067577362,-0.815834999084,0.797315120697,-0.710517644882,0.14139598608,-0.307747542858,0.616817057133
1555358760237502319,18574,1555358760237502319,world,-2.90011692047,-0.815741062164,0.797034978867,-0.711669802666,0.14568734169,-0.306706666946,0.615005970001
1555358760246765525,18575,1555358760246765525,world,-2.8999080658,-0.815709590912,0.796802997589,-0.712251782417,0.147237062454,-0.306286305189,0.614172160625
1555358760246806599,18576,1555358760246806599,world,-2.89984416962,-0.815747737885,0.796819210052,-0.712344408035,0.147879332304,-0.306552290916,0.613777399063
1555358760257184503,18577,1555358760257184503,world,-2.89988803864,-0.815754175186,0.796970844269,-0.712179541588,0.147671326995,-0.306608110666,0.613991081715
1555358760267519880,18578,1555358760267519880,world,-2.90074253082,-0.815881967545,0.797351121902,-0.710301458836,0.14077475667,-0.307798683643,0.617182612419
1555358760276926790,18579,1555358760276926790,world,-2.90018177032,-0.815798044205,0.797102928162,-0.711515843868,0.145304471254,-0.306863993406,0.615196168423
1555358760276971752,18580,1555358760276971752,world,-2.89997005463,-0.815755605698,0.796842813492,-0.712063550949,0.147151827812,-0.306617230177,0.614245593548
1555358760287380889,18581,1555358760287380889,world,-2.89993667603,-0.8157351017,0.796767473221,-0.712126791477,0.147873654962,-0.306484818459,0.614065170288
1555358760297808914,18582,1555358760297808914,world,-2.89998912811,-0.815736532211,0.796938419342,-0.712093293667,0.147307127714,-0.306346535683,0.614309072495
1555358760307110802,18583,1555358760307110802,world,-2.9008398056,-0.815833568573,0.797379016876,-0.71024119854,0.140392646194,-0.307521730661,0.617476940155
1555358760317567504,18584,1555358760317567504,world,-2.90105342865,-0.815900087357,0.79743885994,-0.709767878056,0.138705030084,-0.308097541332,0.618115305901
1555358760326843897,18585,1555358760326843897,world,-2.90021705627,-0.81578874588,0.796966314316,-0.711478114128,0.145440116525,-0.307174503803,0.615052819252
1555358760337157130,18586,1555358760337157130,world,-2.89994049072,-0.815762281418,0.796785593033,-0.712062299252,0.147973969579,-0.306776612997,0.61396998167
1555358760347546654,18587,1555358760347546654,world,-2.8998260498,-0.815752267838,0.796842098236,-0.71228402853,0.148471459746,-0.306653767824,0.613653957844
1555358760356926968,18588,1555358760356926968,world,-2.90065288544,-0.815886259079,0.79726266861,-0.710568010807,0.141726702452,-0.307860523462,0.616626799107
1555358760367352928,18589,1555358760367352928,world,-2.90093517303,-0.815880775452,0.797422647476,-0.709964454174,0.139224693179,-0.30791631341,0.617862999439
1555358760367392972,18590,1555358760367392972,world,-2.90013408661,-0.81573677063,0.797045469284,-0.711714982986,0.145589292049,-0.306654006243,0.615003168583
1555358760377807077,18591,1555358760377807077,world,-2.89984893799,-0.815735340118,0.79677271843,-0.712366580963,0.148208275437,-0.30647072196,0.613713204861
1555358760377859617,18592,1555358760377859617,world,-2.89978027344,-0.81572508812,0.796767950058,-0.71238142252,0.14870159328,-0.30640900135,0.613607406616
1555358760387235200,18593,1555358760387235200,world,-2.89982128143,-0.815755844116,0.796966075897,-0.712357878685,0.148366361856,-0.306422442198,0.613709151745
1555358760397692276,18594,1555358760397692276,world,-2.90069389343,-0.815858840942,0.797356367111,-0.710494041443,0.141148164868,-0.307354867458,0.617096781731
1555358760406963772,18595,1555358760406963772,world,-2.90016174316,-0.81578874588,0.797085762024,-0.711688816547,0.145538121462,-0.306642383337,0.615051448345
1555358760417284243,18596,1555358760417284243,world,-2.89992046356,-0.815779924393,0.796844244003,-0.712145090103,0.147403225303,-0.30668336153,0.614057898521
1555358760427726118,18597,1555358760427726118,world,-2.89988994598,-0.815750837326,0.796782255173,-0.712322056293,0.147661328316,-0.306380331516,0.613941788673
1555358760457695156,18598,1555358760457695156,world,-2.89989376068,-0.815755844116,0.796904563904,-0.712195813656,0.147539451718,-0.306399077177,0.614108264446
1555358760466987399,18599,1555358760466987399,world,-2.90072631836,-0.815897703171,0.797296524048,-0.710366308689,0.140818566084,-0.307900369167,0.617047190666
1555358760467078436,18602,1555358760467078436,world,-2.89990901947,-0.81573343277,0.796748638153,-0.712302863598,0.14765752852,-0.306446999311,0.613931834698
1555358760486711050,18603,1555358760486711050,world,-2.89982223511,-0.815705776215,0.796801567078,-0.712424039841,0.148179993033,-0.306348204613,0.613714456558
1555358760486756467,18604,1555358760486756467,world,-2.89987659454,-0.815711975098,0.796999931335,-0.712349057198,0.147970527411,-0.306124567986,0.613963603973
1555358760497137299,18605,1555358760497137299,world,-2.90066814423,-0.815860509872,0.797341823578,-0.710340559483,0.141358241439,-0.307884782553,0.616961181164
1555358760497195869,18606,1555358760497195869,world,-2.90015029907,-0.81578707695,0.797050714493,-0.711583435535,0.145875602961,-0.306967556477,0.614930987358
1555358760507569482,18607,1555358760507569482,world,-2.89991664886,-0.815733194351,0.796819210052,-0.71214056015,0.147469207644,-0.306565076113,0.614106237888
1555358760516892789,18608,1555358760516892789,world,-2.89987468719,-0.815760850906,0.796772003174,-0.712253093719,0.147727102041,-0.306575536728,0.613908529282
1555358760527226276,18609,1555358760527226276,world,-2.89992141724,-0.815756797791,0.796976089478,-0.712203621864,0.147329300642,-0.306318670511,0.614189684391
1555358760537541144,18610,1555358760537541144,world,-2.90075969696,-0.815860271454,0.797379732132,-0.710287332535,0.140794962645,-0.30761423707,0.617286264896
1555358760546934530,18611,1555358760546934530,world,-2.90022659302,-0.815768718719,0.797084093094,-0.711635053158,0.145172402263,-0.306551456451,0.615245342255
1555358760567747381,18612,1555358760567747381,world,-2.89997291565,-0.815762758255,0.796856880188,-0.712121725082,0.147002577782,-0.306387513876,0.614328563213
1555358760567787330,18613,1555358760567787330,world,-2.89990234375,-0.815763950348,0.796794652939,-0.712190926075,0.147671177983,-0.306578040123,0.613992929459
1555358760567831824,18614,1555358760567831824,world,-2.89994525909,-0.815749883652,0.79693365097,-0.712162494659,0.14748442173,-0.306493103504,0.614113211632
1555358760577151642,18615,1555358760577151642,world,-2.9007806778,-0.815871238708,0.797339916229,-0.710286259651,0.140896633267,-0.307851552963,0.617145776749
1555358760587488499,18616,1555358760587488499,world,-2.90099239349,-0.815898418427,0.79740524292,-0.709654510021,0.139002159238,-0.308270543814,0.618092417717
1555358760587530026,18617,1555358760587530026,world,-2.90018844604,-0.815799236298,0.797004461288,-0.711529612541,0.145461156964,-0.307260930538,0.614945054054
1555358760596878419,18618,1555358760596878419,world,-2.89988899231,-0.81570315361,0.796821594238,-0.712233066559,0.147962003946,-0.306533008814,0.613896369934
1555358760607342469,18619,1555358760607342469,world,-2.89983654022,-0.815720558167,0.796841144562,-0.712351918221,0.148333206773,-0.306467622519,0.61370152235
1555358760627063309,18620,1555358760627063309,world,-2.900639534,-0.815863370895,0.797250747681,-0.710567831993,0.141630172729,-0.307770907879,0.616693854332
1555358760627100818,18621,1555358760627100818,world,-2.90091133118,-0.815903425217,0.79736995697,-0.709995150566,0.139405563474,-0.308186620474,0.617651879787
1555358760637409902,18622,1555358760637409902,world,-2.90013122559,-0.815765380859,0.797025442123,-0.711616635323,0.145819664001,-0.306887984276,0.614945650101
1555358760647749590,18623,1555358760647749590,world,-2.89985370636,-0.815733194351,0.796826124191,-0.712251782417,0.148063510656,-0.306517481804,0.613857984543
1555358760647789929,18624,1555358760647789929,world,-2.90046215057,-0.815876722336,0.797027587891,-0.71064299345,0.143479079008,-0.308082729578,0.61602383852
1555358760667431526,18625,1555358760667431526,world,-2.90002536774,-0.815750837326,0.796990871429,-0.711897015572,0.146789774299,-0.30665320158,0.614507317543
1555358760667470081,18626,1555358760667470081,world,-2.90068721771,-0.815883636475,0.797320127487,-0.710485100746,0.1415001899,-0.307678639889,0.616865038872
1555358760686957681,18627,1555358760686957681,world,-2.9001159668,-0.815756797791,0.797070026398,-0.711860060692,0.146179273725,-0.306452542543,0.614795744419
1555358760686995920,18628,1555358760686995920,world,-2.89990520477,-0.815712690353,0.796846628189,-0.71242505312,0.147867262363,-0.306068360806,0.613928437233
1555358760687050594,18629,1555358760687050594,world,-2.89982700348,-0.815747737885,0.796749353409,-0.712423503399,0.148588642478,-0.306457519531,0.613561630249
1555358760697327228,18630,1555358760697327228,world,-2.89988040924,-0.815753221512,0.796852588654,-0.712305605412,0.148036062717,-0.306353867054,0.613883852959
1555358760716798735,18631,1555358760716798735,world,-2.9007358551,-0.815862894058,0.797291278839,-0.710487484932,0.140779331326,-0.307792574167,0.616970360279
1555358760727057916,18632,1555358760727057916,world,-2.90021800995,-0.815788269043,0.797125816345,-0.711589694023,0.145581960678,-0.306819021702,0.615067601204
1555358760727095448,18633,1555358760727095448,world,-2.90001678467,-0.815750598907,0.796944141388,-0.712017595768,0.147333651781,-0.306591898203,0.614268124104
1555358760737400595,18634,1555358760737400595,world,-2.8999376297,-0.815748691559,0.796797990799,-0.712132453918,0.147860795259,-0.306595563889,0.614006280899
1555358760737468238,18635,1555358760737468238,world,-2.89993572235,-0.815766811371,0.796834945679,-0.712108075619,0.147819817066,-0.306639999151,0.614022195339
1555358760757270948,18636,1555358760757270948,world,-2.8999786377,-0.815735340118,0.797006368637,-0.712108910084,0.147434011102,-0.306432574987,0.614217698574
1555358760757309121,18637,1555358760757309121,world,-2.90077114105,-0.815890550613,0.797363519669,-0.71033000946,0.140892907977,-0.30798175931,0.617031395435
1555358760767767399,18638,1555358760767767399,world,-2.90024662018,-0.815795660019,0.797115087509,-0.711558401585,0.145192936063,-0.306850254536,0.615180134773
1555358760767816689,18639,1555358760767816689,world,-2.89999389648,-0.81573843956,0.796890974045,-0.712064802647,0.146840468049,-0.306510567665,0.614372014999
1555358760777155878,18640,1555358760777155878,world,-2.89992713928,-0.815732002258,0.796797275543,-0.712225198746,0.14731644094,-0.306606590748,0.614024043083
1555358760787583312,18641,1555358760787583312,world,-2.89992141724,-0.815734148026,0.796913385391,-0.712147057056,0.147432222962,-0.306497305632,0.614141404629
1555358760796923883,18642,1555358760796923883,world,-2.90077114105,-0.81588602066,0.797360897064,-0.710352838039,0.140575036407,-0.307639300823,0.617248356342
1555358760807260831,18643,1555358760807260831,world,-2.90097618103,-0.815936565399,0.797418832779,-0.709763109684,0.138782337308,-0.308352530003,0.61797606945
1555358760817578127,18644,1555358760817578127,world,-2.90019607544,-0.815786361694,0.796961307526,-0.711592495441,0.145171359181,-0.3068343997,0.615153670311
1555358760837244880,18645,1555358760837244880,world,-2.89991188049,-0.815730810165,0.79677939415,-0.71217238903,0.147731468081,-0.306448966265,0.614064276218
1555358760837285139,18646,1555358760837285139,world,-2.89985942841,-0.815697908401,0.796872377396,-0.712384045124,0.147980853915,-0.306058913469,0.613953173161
1555358760837328504,18647,1555358760837328504,world,-2.90068340302,-0.815872192383,0.797257900238,-0.710525214672,0.141507551074,-0.307380199432,0.61696600914
1555358760847650810,18648,1555358760847650810,world,-2.90094566345,-0.815906047821,0.797385454178,-0.709854841232,0.139680936933,-0.308061957359,0.61781334877
1555358760877704362,18649,1555358760877704362,world,-2.90019226074,-0.815768241882,0.797036647797,-0.711597800255,0.145915091038,-0.306939512491,0.614919245243
1555358760877795502,18652,1555358760877795502,world,-2.89985370636,-0.815710544586,0.796898603439,-0.712452054024,0.148279801011,-0.306152671576,0.613755404949
1555358760917109258,18653,1555358760917109258,world,-2.90072154999,-0.81581735611,0.79732966423,-0.710501849651,0.140946790576,-0.307320475578,0.617151021957
1555358760917193099,18656,1555358760917193099,world,-2.89987564087,-0.81577205658,0.796813488007,-0.712186813354,0.147977337241,-0.3066611588,0.613882362843
1555358760917246385,18657,1555358760917246385,world,-2.89989948273,-0.815752506256,0.79693365097,-0.712179660797,0.147783607244,-0.306438475847,0.614048480988
1555358760927656926,18658,1555358760927656926,world,-2.90077590942,-0.815849781036,0.797364711761,-0.710358798504,0.140433713794,-0.307408154011,0.617388784885
1555358760947247559,18659,1555358760947247559,world,-2.90020751953,-0.81577372551,0.797128915787,-0.711528539658,0.145336613059,-0.30678537488,0.615213215351
1555358760947274209,18660,1555358760947274209,world,-2.89996623993,-0.815761089325,0.796892642975,-0.712007820606,0.147232800722,-0.306584984064,0.614306986332
1555358760957644030,18661,1555358760957644030,world,-2.89989566803,-0.815768003464,0.796794891357,-0.712234139442,0.147654816508,-0.30653193593,0.613969624043
1555358760967106997,18662,1555358760967106997,world,-2.89990139008,-0.81578040123,0.796865701675,-0.712270081043,0.147604003549,-0.306573987007,0.613919258118
1555358760986783150,18663,1555358760986783150,world,-2.89997291565,-0.815756320953,0.797023534775,-0.712152421474,0.147111073136,-0.306436061859,0.61424279213
1555358760986857363,18665,1555358760986857363,world,-2.90005970001,-0.815737485886,0.796969413757,-0.711963117123,0.146839052439,-0.306464731693,0.614513039589
1555358760997285409,18666,1555358760997285409,world,-2.90003681183,-0.815730571747,0.796890497208,-0.711978316307,0.146620690823,-0.306514620781,0.614522695541
1555358761016901460,18667,1555358761016901460,world,-2.90005111694,-0.815779685974,0.796902656555,-0.71191829443,0.146762147546,-0.306878000498,0.614377081394
1555358761016941212,18668,1555358761016941212,world,-2.90082836151,-0.815884828568,0.797283172607,-0.710050046444,0.140165776014,-0.308219820261,0.617400228977
1555358761027267100,18669,1555358761027267100,world,-2.90030670166,-0.815784931183,0.797158956528,-0.711305499077,0.144642844796,-0.306869328022,0.615592598915
1555358761037598623,18670,1555358761037598623,world,-2.90005779266,-0.815724611282,0.797041654587,-0.711890876293,0.14637221396,-0.306345254183,0.614767611027
1555358761046929023,18671,1555358761046929023,world,-2.89994716644,-0.815760135651,0.796853542328,-0.71216571331,0.147420406342,-0.306575149298,0.614083945751
1555358761046969847,18672,1555358761046969847,world,-2.89991855621,-0.815743923187,0.796790361404,-0.712236106396,0.147509709001,-0.306513786316,0.614011287689
1555358761097024047,18673,1555358761097024047,world,-2.89992427826,-0.815745830536,0.796927213669,-0.712179720402,0.147279590368,-0.306528359652,0.614124834538
1555358761097096061,18674,1555358761097096061,world,-2.90078735352,-0.815880775452,0.797342061996,-0.710262179375,0.140488371253,-0.307702213526,0.617341041565
1555358761097119106,18675,1555358761097119106,world,-2.90103054047,-0.815923929214,0.797432899475,-0.709676861763,0.13849003613,-0.308210641146,0.618211507797
1555358761097162036,18676,1555358761097162036,world,-2.90019989014,-0.815828084946,0.797007322311,-0.711536407471,0.145177438855,-0.306930035353,0.615169465542
1555358761107482339,18677,1555358761107482339,world,-2.89990234375,-0.815765380859,0.796802282333,-0.712220788002,0.147646531463,-0.30662766099,0.613939344883
1555358761107520635,18678,1555358761107520635,world,-2.89986610413,-0.815721273422,0.796842098236,-0.712178051472,0.148281738162,-0.306366592646,0.613966047764
1555358761126975432,18679,1555358761126975432,world,-2.90065670013,-0.815880537033,0.797259092331,-0.710358917713,0.141600057483,-0.307784229517,0.616934835911
1555358761127021105,18680,1555358761127021105,world,-2.90095615387,-0.815886735916,0.797414541245,-0.709897994995,0.13935431838,-0.307963520288,0.617886543274
1555358761127045592,18681,1555358761127045592,world,-2.90016365051,-0.815751552582,0.797049283981,-0.711668789387,0.145785287023,-0.306677281857,0.614998459816
1555358761137527819,18682,1555358761137527819,world,-2.89986038208,-0.815753221512,0.796823263168,-0.712332129478,0.148016840219,-0.306611537933,0.613729000092
1555358761137599774,18683,1555358761137599774,world,-2.89979362488,-0.81574010849,0.796788215637,-0.712462067604,0.148515373468,-0.306512564421,0.613507211208
1555358761157210965,18684,1555358761157210965,world,-2.89981746674,-0.815748929977,0.796919822693,-0.712317407131,0.148559972644,-0.306478172541,0.613681614399
1555358761167699880,18685,1555358761167699880,world,-2.90068817139,-0.815884590149,0.797310590744,-0.710511684418,0.141243934631,-0.307636082172,0.616914331913
1555358761167768411,18686,1555358761167768411,world,-2.9001750946,-0.815769195557,0.797094583511,-0.711707770824,0.145588025451,-0.306602835655,0.615037441254
1555358761187507723,18687,1555358761187507723,world,-2.89997005463,-0.815722703934,0.796875715256,-0.712144851685,0.147295698524,-0.306370049715,0.61424022913
1555358761196859132,18688,1555358761196859132,world,-2.89989471436,-0.815757036209,0.796812772751,-0.712263226509,0.147818863392,-0.306571900845,0.613876700401
1555358761196921705,18689,1555358761196921705,world,-2.89993858337,-0.815739870071,0.796911478043,-0.712213516235,0.147548675537,-0.306398451328,0.614085793495
1555358761196949083,18690,1555358761196949083,world,-2.90073108673,-0.815897464752,0.797286272049,-0.710421562195,0.140930786729,-0.308007031679,0.616904735565
1555358761217790809,18691,1555358761217790809,world,-2.90022373199,-0.815813302994,0.797112941742,-0.711526155472,0.145309939981,-0.306986391544,0.61512196064
1555358761227200909,18692,1555358761227200909,world,-2.9000082016,-0.81574678421,0.796966075897,-0.712016940117,0.146946296096,-0.306445300579,0.614434599876
1555358761227272770,18693,1555358761227272770,world,-2.89992809296,-0.815752744675,0.796870946884,-0.712118029594,0.14775441587,-0.306572824717,0.614059984684
1555358761227300839,18694,1555358761227300839,world,-2.89992332458,-0.815735340118,0.796884298325,-0.712173819542,0.147567123175,-0.306356340647,0.614148437977
1555358761237628263,18695,1555358761237628263,world,-2.8999671936,-0.815723180771,0.79695725441,-0.712120771408,0.147284135222,-0.306173712015,0.614368736744
1555358761276662541,18696,1555358761276662541,world,-2.9000082016,-0.815732717514,0.797013282776,-0.712126135826,0.146835193038,-0.306119024754,0.614497303963
1555358761276730508,18697,1555358761276730508,world,-2.90001583099,-0.815774202347,0.797010660172,-0.712018072605,0.146652773023,-0.306569099426,0.614441633224
1555358761276780015,18699,1555358761276780015,world,-2.90003108978,-0.815745353699,0.796880960464,-0.711862146854,0.146754667163,-0.30665320158,0.614556193352
1555358761276819567,18700,1555358761276819567,world,-2.90003108978,-0.815759897232,0.796898365021,-0.711847186089,0.146824300289,-0.306793183088,0.61448687315
1555358761297402399,18701,1555358761297402399,world,-2.90004444122,-0.81574845314,0.797034978867,-0.711869180202,0.146438404918,-0.306597441435,0.614651381969
1555358761297468988,18702,1555358761297468988,world,-2.90082836151,-0.815926790237,0.797335863113,-0.710165023804,0.140069484711,-0.308133453131,0.617333114147
1555358761306735308,18703,1555358761306735308,world,-2.90025615692,-0.815780639648,0.797102928162,-0.711450695992,0.144670963287,-0.306845009327,0.615430235863
1555358761317131925,18704,1555358761317131925,world,-2.90002918243,-0.815750837326,0.796902894974,-0.711986005306,0.146689429879,-0.306507974863,0.614500582218
1555358761317209960,18705,1555358761317209960,world,-2.89990997314,-0.815753221512,0.796846389771,-0.712190687656,0.147323161364,-0.306606560946,0.614062607288
1555358761336748565,18706,1555358761336748565,world,-2.8999671936,-0.815734624863,0.796964168549,-0.71209281683,0.147180572152,-0.306380987167,0.614322662354
1555358761347050395,18707,1555358761347050395,world,-2.90078735352,-0.815892219543,0.797332286835,-0.71034681797,0.140541404486,-0.307863116264,0.617151498795
1555358761347114211,18708,1555358761347114211,world,-2.90024852753,-0.815815448761,0.797123432159,-0.711486637592,0.144948795438,-0.306985199451,0.615253329277
1555358761357436775,18709,1555358761357436775,world,-2.90000343323,-0.8157351017,0.796929121017,-0.712070763111,0.146796062589,-0.306427955627,0.614416837692
1555358761366778906,18710,1555358761366778906,world,-2.899933815,-0.81573009491,0.796842336655,-0.712185382843,0.147738933563,-0.306521952152,0.614010930061
1555358761377241434,18711,1555358761377241434,world,-2.89994239807,-0.815760612488,0.796908855438,-0.712086200714,0.147701740265,-0.306573092937,0.614109396935
1555358761377310721,18712,1555358761377310721,world,-2.90076351166,-0.815908670425,0.797297954559,-0.710293054581,0.140853121877,-0.307987481356,0.617080211639
1555358761387645736,18713,1555358761387645736,world,-2.90022659302,-0.815791606903,0.797144174576,-0.711438655853,0.14511859417,-0.306980162859,0.615271389484
1555358761397106365,18714,1555358761397106365,world,-2.89999580383,-0.815769195557,0.7969622612,-0.711935400963,0.146975919604,-0.306654393673,0.614417672157
1555358761416700274,18715,1555358761416700274,world,-2.89995670319,-0.81578040123,0.796864509583,-0.71204072237,0.147488191724,-0.306562304497,0.614218890667
1555358761416739770,18716,1555358761416739770,world,-2.89994716644,-0.815738677979,0.796896696091,-0.712085306644,0.147316947579,-0.306357711554,0.614310443401
1555358761427131313,18717,1555358761427131313,world,-2.89997577667,-0.815757036209,0.796994686127,-0.71204584837,0.146977260709,-0.306312322617,0.614459991455
1555358761427169979,18718,1555358761427169979,world,-2.90077209473,-0.815910339355,0.79731631279,-0.710274875164,0.140571311116,-0.307822644711,0.617247700691
1555358761437594950,18719,1555358761437594950,world,-2.90022945404,-0.815785884857,0.797087669373,-0.711515724659,0.144970431924,-0.306954681873,0.615229964256
1555358761457390576,18720,1555358761457390576,world,-2.89999485016,-0.815774202347,0.796924114227,-0.712013304234,0.146898820996,-0.306699156761,0.614323616028
1555358761457431777,18721,1555358761457431777,world,-2.89992332458,-0.815785646439,0.79686331749,-0.712156295776,0.147426947951,-0.30671197176,0.614024758339
1555358761466759153,18722,1555358761466759153,world,-2.89995002747,-0.815739393234,0.796911001205,-0.712105929852,0.147301763296,-0.306490421295,0.614223957062
1555358761477235216,18723,1555358761477235216,world,-2.89997768402,-0.815738677979,0.7970058918,-0.712132334709,0.147102117538,-0.306300967932,0.614335715771
1555358761477275941,18724,1555358761477275941,world,-2.9000082016,-0.815762758255,0.79703783989,-0.711963653564,0.147275745869,-0.306531518698,0.614374577999
1555358761487729925,18725,1555358761487729925,world,-2.89999961853,-0.815768480301,0.796962976456,-0.711925685406,0.147361844778,-0.306640207767,0.614343762398
1555358761497192123,18726,1555358761497192123,world,-2.90000343323,-0.815788507462,0.796886920929,-0.711996078491,0.146946176887,-0.306815832853,0.614273905754
1555358761507573889,18727,1555358761507573889,world,-2.90004634857,-0.815748214722,0.796919822693,-0.711932241917,0.14670227468,-0.306672751904,0.614477753639
1555358761516962860,18728,1555358761516962860,world,-2.90007686615,-0.815722703934,0.796999454498,-0.711913466454,0.146660134196,-0.306483834982,0.614603698254
1555358761527424363,18729,1555358761527424363,world,-2.90085792542,-0.815908670425,0.797336339951,-0.710124909878,0.140143603086,-0.307953029871,0.617452442646
1555358761527464389,18730,1555358761527464389,world,-2.90028095245,-0.815784215927,0.797125816345,-0.711371660233,0.14457321167,-0.306835442781,0.615549385548
1555358761536790110,18731,1555358761536790110,world,-2.90007400513,-0.815759181976,0.796943426132,-0.711938023567,0.146404147148,-0.306608527899,0.61457413435
1555358761547125992,18732,1555358761547125992,world,-2.89994812012,-0.815753936768,0.796862840652,-0.712072730064,0.147346675396,-0.306756228209,0.614118993282
1555358761557548801,18733,1555358761557548801,world,-2.899933815,-0.815766334534,0.796917915344,-0.712035775185,0.147380232811,-0.306650608778,0.614206492901
1555358761567045819,18734,1555358761567045819,world,-2.89998626709,-0.815769910812,0.79701423645,-0.712044298649,0.147095710039,-0.306518942118,0.614330589771
1555358761577508193,18735,1555358761577508193,world,-2.90078163147,-0.815897941589,0.797326803207,-0.710258305073,0.140463277698,-0.307937651873,0.617233812809
1555358761586708369,18736,1555358761586708369,world,-2.90023422241,-0.815805912018,0.797048330307,-0.711539328098,0.145108267665,-0.306954503059,0.615170240402
1555358761597088784,18737,1555358761597088784,world,-2.89997577667,-0.815773487091,0.796891689301,-0.711997210979,0.146919935942,-0.306750208139,0.614311754704
1555358761616772492,18738,1555358761616772492,world,-2.8999004364,-0.815767288208,0.796863079071,-0.712198376656,0.147633701563,-0.30668643117,0.613939106464
1555358761616812612,18739,1555358761616812612,world,-2.89995670319,-0.815734148026,0.796966075897,-0.712180018425,0.147267401218,-0.30641028285,0.614186227322
1555358761616857563,18740,1555358761616857563,world,-2.90076541901,-0.815851211548,0.797316074371,-0.710270881653,0.140554755926,-0.307772010565,0.617281138897
1555358761616879236,18741,1555358761616879236,world,-2.90021800995,-0.815812349319,0.797048568726,-0.711507320404,0.145154222846,-0.307083278894,0.615132153034
1555358761637493061,18742,1555358761637493061,world,-2.89997196198,-0.815751791,0.796903848648,-0.711969077587,0.147118359804,-0.306707322598,0.61431825161
1555358761637530931,18743,1555358761637530931,world,-2.89993000031,-0.815754890442,0.79686498642,-0.712136983871,0.147546693683,-0.306537568569,0.614105582237
1555358761646810314,18744,1555358761646810314,world,-2.89995288849,-0.815756797791,0.796956062317,-0.712065160275,0.14724239707,-0.30649805069,0.614281654358
1555358761657148412,18745,1555358761657148412,world,-2.89997577667,-0.815736532211,0.79700922966,-0.712010264397,0.147125720978,-0.306324213743,0.61445993185
1555358761676753051,18746,1555358761676753051,world,-2.89999008179,-0.815760374069,0.796997785568,-0.711974740028,0.147050008178,-0.306474387646,0.61444413662
