%time,field.header.seq,field.header.stamp,field.header.frame_id,field.pose.position.x,field.pose.position.y,field.pose.position.z,field.pose.orientation.x,field.pose.orientation.y,field.pose.orientation.z,field.pose.orientation.w
1555298751858465181,30022,1555298751858465181,world,-2.88093471527,-0.816813230515,0.798222780228,-0.687286436558,0.226379662752,-0.377517461777,0.577814996243
1555298751868786786,30023,1555298751868786786,world,-2.88093566895,-0.816823482513,0.798232078552,-0.687240719795,0.22628800571,-0.377641826868,0.577824115753
1555298751879146657,30024,1555298751879146657,world,-2.88086414337,-0.816875934601,0.798131942749,-0.686943113804,0.226409301162,-0.378486037254,0.57757794857
1555298751879194477,30025,1555298751879194477,world,-2.88089942932,-0.816901922226,0.798104047775,-0.687105119228,0.226951614022,-0.377913534641,0.577547252178
1555298751888539749,30026,1555298751888539749,world,-2.88095378876,-0.816898822784,0.798136711121,-0.687075555325,0.22700740397,-0.37784165144,0.577607572079
1555298751898898575,30027,1555298751898898575,world,-2.88096809387,-0.816828012466,0.798213481903,-0.687225997448,0.226595297456,-0.377707064152,0.577678382397
1555298751908298424,30028,1555298751908298424,world,-2.88088130951,-0.816848278046,0.798142194748,-0.68702930212,0.227013245225,-0.378361046314,0.577320277691
1555298751918784071,30029,1555298751918784071,world,-2.88084888458,-0.816818714142,0.798135042191,-0.687024474144,0.226645037532,-0.378794819117,0.577186107635
1555298751928205830,30030,1555298751928205830,world,-2.88093757629,-0.816761016846,0.798151731491,-0.68722063303,0.226469144225,-0.377934098244,0.577585816383
1555298751928247991,30031,1555298751928247991,world,-2.88096618652,-0.81677031517,0.79817700386,-0.687277793884,0.226610973477,-0.377740830183,0.577588617802
1555298751938725691,30032,1555298751938725691,world,-2.88093185425,-0.816845417023,0.798136711121,-0.687127768993,0.227360457182,-0.377847254276,0.577403008938
1555298751949102175,30033,1555298751949102175,world,-2.88088226318,-0.816806793213,0.798175096512,-0.686998784542,0.226607650518,-0.378567397594,0.577380597591
1555298751958553111,30034,1555298751958553111,world,-2.8808927536,-0.816852807999,0.798140764236,-0.687099218369,0.227226421237,-0.378254264593,0.57722312212
1555298751969037722,30035,1555298751969037722,world,-2.88080692291,-0.816906929016,0.798098802567,-0.686917603016,0.227437242866,-0.378798365593,0.576999306679
1555298751969083494,30036,1555298751969083494,world,-2.88088130951,-0.816895723343,0.798125267029,-0.686964809895,0.227380692959,-0.378114849329,0.577413678169
1555298751988742087,30037,1555298751988742087,world,-2.88086795807,-0.816901922226,0.798112392426,-0.687048494816,0.227432787418,-0.378052264452,0.577334523201
1555298751988784634,30038,1555298751988784634,world,-2.8808555603,-0.816925287247,0.79811668396,-0.687196493149,0.227484464645,-0.378151535988,0.577073097229
1555298751999086509,30039,1555298751999086509,world,-2.88086605072,-0.816888093948,0.798144102097,-0.687201201916,0.227477088571,-0.377996742725,0.577171742916
1555298752008366417,30040,1555298752008366417,world,-2.88087463379,-0.816902637482,0.798151254654,-0.687197029591,0.227307736874,-0.377935916185,0.577283263206
1555298752018718817,30041,1555298752018718817,world,-2.8808889389,-0.816887617111,0.798120498657,-0.687128126621,0.227303683758,-0.37804415822,0.577295899391
1555298752029112647,30042,1555298752029112647,world,-2.88091278076,-0.816817998886,0.798139095306,-0.687194108963,0.22673933208,-0.377819746733,0.577586233616
1555298752029150121,30043,1555298752029150121,world,-2.88090229034,-0.816858053207,0.798146724701,-0.687151730061,0.227204501629,-0.377921134233,0.577387452126
1555298752038446455,30044,1555298752038446455,world,-2.88090896606,-0.816878318787,0.798164844513,-0.68712002039,0.227285370231,-0.378026843071,0.577324032784
1555298752048889857,30045,1555298752048889857,world,-2.88092803955,-0.81689286232,0.798167467117,-0.687066137791,0.227183163166,-0.378200560808,0.577314734459
1555298752058298864,30046,1555298752058298864,world,-2.88091564178,-0.816884756088,0.79812836647,-0.687101781368,0.227298587561,-0.378084719181,0.577302873135
1555298752068644015,30047,1555298752068644015,world,-2.88080215454,-0.816899061203,0.798049211502,-0.686940193176,0.227288886905,-0.378818839788,0.577017605305
1555298752078908245,30048,1555298752078908245,world,-2.88086986542,-0.81688451767,0.798106431961,-0.686969578266,0.227153480053,-0.378386050463,0.577319741249
1555298752088306297,30049,1555298752088306297,world,-2.88090133667,-0.816889762878,0.798147916794,-0.68705791235,0.227353662252,-0.378057777882,0.577351033688
1555298752088353851,30050,1555298752088353851,world,-2.8808965683,-0.816861867905,0.798172712326,-0.68714338541,0.227194607258,-0.377926260233,0.577397942543
1555298752098678041,30051,1555298752098678041,world,-2.88088989258,-0.816859722137,0.798150539398,-0.687169551849,0.227145716548,-0.3778822124,0.577414810658
1555298752109068907,30052,1555298752109068907,world,-2.88093185425,-0.816772699356,0.79815030098,-0.687253654003,0.226395219564,-0.377774775028,0.577679812908
1555298752118499882,30053,1555298752118499882,world,-2.88091850281,-0.816767454147,0.798159360886,-0.687285244465,0.226366981864,-0.377921104431,0.577557444572
1555298752129014430,30054,1555298752129014430,world,-2.8808927536,-0.816852331161,0.798163175583,-0.68720549345,0.226986378431,-0.378036797047,0.577333629131
1555298752129084751,30055,1555298752129084751,world,-2.88088417053,-0.816882610321,0.79815196991,-0.6872382164,0.227316066623,-0.378008812666,0.577183306217
1555298752138410615,30056,1555298752138410615,world,-2.88086605072,-0.816885232925,0.798124790192,-0.687163174152,0.227475464344,-0.378042370081,0.577187657356
1555298752148745118,30057,1555298752148745118,world,-2.88088512421,-0.816918849945,0.798098325729,-0.687087118626,0.227424681187,-0.378160387278,0.577221035957
1555298752159073116,30058,1555298752159073116,world,-2.88083362579,-0.816917657852,0.79808306694,-0.686969459057,0.227199450135,-0.378626763821,0.577144086361
1555298752168414450,30059,1555298752168414450,world,-2.88092422485,-0.816818714142,0.798182725906,-0.6870470047,0.226534411311,-0.378005594015,0.577719986439
1555298752178721728,30060,1555298752178721728,world,-2.88094043732,-0.816864967346,0.79815530777,-0.687154114246,0.226983845234,-0.378083139658,0.577365279198
1555298752178789769,30061,1555298752178789769,world,-2.88096046448,-0.816882371902,0.798135280609,-0.687051713467,0.227035179734,-0.378062069416,0.577480733395
1555298752188089634,30062,1555298752188089634,world,-2.88087272644,-0.81689620018,0.798074007034,-0.687016963959,0.22721748054,-0.378482073545,0.577175199986
1555298752198505622,30063,1555298752198505622,world,-2.88080596924,-0.816925525665,0.798071861267,-0.686892807484,0.227238997817,-0.378993034363,0.576979279518
1555298752208805500,30064,1555298752208805500,world,-2.88082790375,-0.81692647934,0.798096418381,-0.687011063099,0.227113902569,-0.378970533609,0.576902508736
1555298752218121796,30065,1555298752218121796,world,-2.8809261322,-0.816863298416,0.798142910004,-0.68709897995,0.227124333382,-0.378041028976,0.577403306961
1555298752228490791,30066,1555298752228490791,world,-2.88086700439,-0.816812515259,0.798155546188,-0.687139689922,0.226487889886,-0.37848585844,0.577313363552
1555298752238850061,30067,1555298752238850061,world,-2.88094711304,-0.81685423851,0.798138856888,-0.687107086182,0.226849839091,-0.377839773893,0.577633202076
1555298752238888796,30068,1555298752238888796,world,-2.88094902039,-0.816823482513,0.798179388046,-0.687237024307,0.226575776935,-0.377750366926,0.577644646168
1555298752248135200,30069,1555298752248135200,world,-2.88089179993,-0.816903591156,0.79815530777,-0.687208175659,0.227230831981,-0.377995342016,0.577261269093
1555298752258599073,30070,1555298752258599073,world,-2.88080406189,-0.816892147064,0.798125267029,-0.687073230743,0.227188825607,-0.37858080864,0.577054738998
1555298752268949001,30071,1555298752268949001,world,-2.88084888458,-0.816903591156,0.798111200333,-0.687069952488,0.227566182613,-0.378227740526,0.57714164257
1555298752269009319,30072,1555298752269009319,world,-2.88086605072,-0.81689119339,0.798109531403,-0.687134683132,0.227461665869,-0.377816855907,0.577374875546
1555298752288705574,30073,1555298752288705574,world,-2.88090610504,-0.816908359528,0.798125743866,-0.687130272388,0.227337300777,-0.377947717905,0.577343344688
1555298752288753213,30074,1555298752288753213,world,-2.88089370728,-0.816893339157,0.79815530777,-0.687211751938,0.227281495929,-0.378005832434,0.577230274677
1555298752298011690,30075,1555298752298011690,world,-2.88091373444,-0.816883802414,0.798137187958,-0.687105953693,0.227106437087,-0.377980709076,0.577441573143
1555298752308366350,30076,1555298752308366350,world,-2.88086128235,-0.81680393219,0.798197984695,-0.686987996101,0.22624592483,-0.378585129976,0.577523708344
1555298752319044492,30077,1555298752319044492,world,-2.88091182709,-0.816787481308,0.798205852509,-0.687184035778,0.226298823953,-0.378175914288,0.577537953854
1555298752319083777,30078,1555298752319083777,world,-2.88092517853,-0.816867113113,0.79815363884,-0.687142670155,0.226925909519,-0.377966672182,0.577478051186
1555298752328404700,30079,1555298752328404700,world,-2.88091182709,-0.816852807999,0.798125743866,-0.687178432941,0.227244675159,-0.377822190523,0.577404618263
1555298752338736616,30080,1555298752338736616,world,-2.8809299469,-0.816831350327,0.798157453537,-0.68723988533,0.226855874062,-0.378004312515,0.577365159988
1555298752349084897,30081,1555298752349084897,world,-2.88093090057,-0.816803455353,0.798191785812,-0.687238514423,0.226558312774,-0.377768754959,0.577637791634
1555298752358537855,30082,1555298752358537855,world,-2.88090419769,-0.816869497299,0.798121929169,-0.687118709087,0.227322429419,-0.377898275852,0.577395379543
1555298752368946722,30083,1555298752368946722,world,-2.88090419769,-0.81685590744,0.798147439957,-0.68719381094,0.227056473494,-0.377936899662,0.577385365963
1555298752368988038,30084,1555298752368988038,world,-2.88081741333,-0.816829919815,0.798122406006,-0.687136232853,0.226584851742,-0.378783851862,0.577083945274
1555298752378509760,30085,1555298752378509760,world,-2.880859375,-0.816853523254,0.798116922379,-0.687291145325,0.226746961474,-0.378359287977,0.577114403248
1555298752398400435,30086,1555298752398400435,world,-2.88092899323,-0.816784143448,0.798194408417,-0.687230587006,0.2263584584,-0.377765268087,0.577727854252
1555298752398444269,30087,1555298752398444269,world,-2.88095760345,-0.816893815994,0.798170804977,-0.687061846256,0.227117836475,-0.377759963274,0.577633976936
1555298752408826658,30088,1555298752408826658,world,-2.88091468811,-0.816904306412,0.798146247864,-0.687039077282,0.22749325633,-0.378004968166,0.577352941036
1555298752418159003,30089,1555298752418159003,world,-2.88091564178,-0.816870689392,0.798149108887,-0.687239825726,0.226877823472,-0.377832591534,0.577469050884
1555298752428486257,30090,1555298752428486257,world,-2.88090133667,-0.816873311996,0.798126935959,-0.687053501606,0.227169573307,-0.377939969301,0.577505707741
1555298752428551949,30091,1555298752428551949,world,-2.88079547882,-0.816940069199,0.798101186752,-0.686959505081,0.227303698659,-0.378917306662,0.576924145222
1555298752438976825,30092,1555298752438976825,world,-2.88091468811,-0.816827058792,0.798212051392,-0.687021672726,0.226327553391,-0.378132283688,0.57774823904
1555298752448428619,30093,1555298752448428619,world,-2.88094425201,-0.816802978516,0.798197984695,-0.68723398447,0.226242527366,-0.377758741379,0.577773451805
1555298752458825432,30094,1555298752458825432,world,-2.88092517853,-0.816866397858,0.798140048981,-0.687120616436,0.227004900575,-0.377865612507,0.577539384365
1555298752468128698,30095,1555298752468128698,world,-2.88089561462,-0.816881895065,0.798099517822,-0.687082827091,0.227452144027,-0.377918243408,0.577373862267
1555298752478526645,30096,1555298752478526645,world,-2.88091278076,-0.816852331161,0.798148870468,-0.687206804752,0.22697943449,-0.378019362688,0.577346205711
1555298752478568685,30097,1555298752478568685,world,-2.88090801239,-0.816862344742,0.798157215118,-0.687096357346,0.227224394679,-0.378233522177,0.577241003513
1555298752488891628,30098,1555298752488891628,world,-2.88087177277,-0.816901683807,0.798150062561,-0.687106311321,0.227484717965,-0.378198444843,0.577149569988
1555298752498350368,30099,1555298752498350368,world,-2.88087654114,-0.816865921021,0.798141956329,-0.687186896801,0.227358236909,-0.37787681818,0.577314078808
1555298752508764927,30100,1555298752508764927,world,-2.88086032867,-0.81683588028,0.798152685165,-0.687206208706,0.226862445474,-0.378029406071,0.577386319637
1555298752518109321,30101,1555298752518109321,world,-2.88086986542,-0.816874504089,0.798086643219,-0.687160730362,0.227012202144,-0.378050893545,0.57736736536
1555298752528464487,30102,1555298752528464487,world,-2.88091373444,-0.816890716553,0.798135757446,-0.687078416348,0.226878017187,-0.378094017506,0.577490031719
1555298752528503555,30103,1555298752528503555,world,-2.88077354431,-0.817065954208,0.79811000824,-0.686953902245,0.228380009532,-0.379063516855,0.576409339905
1555298752538875276,30104,1555298752538875276,world,-2.88088798523,-0.816947460175,0.798144102097,-0.687040328979,0.227497935295,-0.37838947773,0.577097654343
1555298752548269053,30105,1555298752548269053,world,-2.88081073761,-0.816887617111,0.798097848892,-0.687026977539,0.227176234126,-0.378728717566,0.577017843723
1555298752558715463,30106,1555298752558715463,world,-2.880859375,-0.816811561584,0.798102140427,-0.687241852283,0.226696833968,-0.378288865089,0.577238917351
1555298752569048185,30107,1555298752569048185,world,-2.88091564178,-0.816777944565,0.798155069351,-0.687248051167,0.226535305381,-0.377868413925,0.577570319176
1555298752608792846,30108,1555298752608792846,world,-2.88093948364,-0.816836118698,0.798174619675,-0.687078773975,0.227008923888,-0.378080844879,0.577446579933
1555298752608865176,30109,1555298752608865176,world,-2.88096046448,-0.816787719727,0.798217773438,-0.687173902988,0.226649150252,-0.377863407135,0.577617049217
1555298752608914820,30111,1555298752608914820,world,-2.88089847565,-0.816883325577,0.79807472229,-0.687041699886,0.227488726377,-0.378312408924,0.577150285244
1555298752628516700,30112,1555298752628516700,world,-2.88091754913,-0.816802740097,0.798110246658,-0.687215328217,0.226863667369,-0.377777665854,0.577539741993
1555298752628610804,30115,1555298752628610804,world,-2.88091087341,-0.816877365112,0.798182964325,-0.68709975481,0.226869851351,-0.378179490566,0.577411711216
1555298752638916239,30116,1555298752638916239,world,-2.88092136383,-0.816867828369,0.798130989075,-0.687108278275,0.227180525661,-0.377742618322,0.577565491199
1555298752648210023,30117,1555298752648210023,world,-2.8808965683,-0.816890478134,0.798100233078,-0.687112808228,0.227310970426,-0.377844661474,0.577441990376
1555298752658676255,30118,1555298752658676255,world,-2.88090419769,-0.816849708557,0.798158884048,-0.687269330025,0.226673647761,-0.377936989069,0.577445745468
1555298752669010405,30119,1555298752669010405,world,-2.88078594208,-0.817053318024,0.798121213913,-0.686980009079,0.228333353996,-0.379127085209,0.576355099678
1555298752678259737,30120,1555298752678259737,world,-2.88084888458,-0.816929340363,0.798164606094,-0.687070310116,0.22769638896,-0.378175795078,0.577123820782
1555298752678290936,30121,1555298752678290936,world,-2.88082027435,-0.81688284874,0.798139572144,-0.687017679214,0.227023601532,-0.37859249115,0.577178239822
1555298752688751717,30122,1555298752688751717,world,-2.88090801239,-0.816855669022,0.798118591309,-0.6870008111,0.22696596384,-0.377899199724,0.577675223351
1555298752699058948,30123,1555298752699058948,world,-2.8809299469,-0.816848993301,0.798100471497,-0.687089860439,0.226951375604,-0.377754867077,0.577669322491
1555298752708443502,30124,1555298752708443502,world,-2.88094806671,-0.816802978516,0.798201084137,-0.687238991261,0.226366743445,-0.377644777298,0.577793240547
1555298752718804215,30125,1555298752718804215,world,-2.8807182312,-0.81706237793,0.798119306564,-0.686885476112,0.228170916438,-0.379840284586,0.576062202454
1555298752728057531,30126,1555298752728057531,world,-2.88084316254,-0.816927671432,0.798135042191,-0.687097072601,0.227626442909,-0.378510594368,0.576900005341
1555298752728133285,30127,1555298752728133285,world,-2.88090705872,-0.816849708557,0.798096179962,-0.687145471573,0.227259323001,-0.377866476774,0.577409088612
1555298752738460784,30128,1555298752738460784,world,-2.88095283508,-0.816807031631,0.798129081726,-0.687306702137,0.226561769843,-0.377914071083,0.577460169792
1555298752748818343,30129,1555298752748818343,world,-2.88087654114,-0.816814899445,0.798123598099,-0.687092840672,0.226893052459,-0.378436803818,0.577242255211
1555298752758072631,30130,1555298752758072631,world,-2.88088607788,-0.816848516464,0.798156023026,-0.687045753002,0.226709857583,-0.378774702549,0.577148616314
1555298752768413183,30131,1555298752768413183,world,-2.88094139099,-0.816831111908,0.798138380051,-0.687081634998,0.227137073874,-0.378040790558,0.577418923378
1555298752778830098,30132,1555298752778830098,world,-2.88093757629,-0.816824674606,0.798105716705,-0.687075555325,0.227235332131,-0.377756893635,0.577573478222
1555298752778883912,30133,1555298752778883912,world,-2.88092899323,-0.816853284836,0.798067331314,-0.687101364136,0.227294489741,-0.377786129713,0.577500402927
1555298752788187843,30134,1555298752788187843,world,-2.88092041016,-0.816875219345,0.798093795776,-0.68707972765,0.22751878202,-0.377797365189,0.57743036747
1555298752798661868,30135,1555298752798661868,world,-2.88077926636,-0.817026853561,0.798129320145,-0.687124788761,0.22844260931,-0.379285663366,0.576034724712
1555298752809111461,30136,1555298752809111461,world,-2.88086223602,-0.816864967346,0.798198699951,-0.687250077724,0.226964086294,-0.378291189671,0.577122628689
1555298752818488458,30137,1555298752818488458,world,-2.88088417053,-0.816813468933,0.798171520233,-0.687332808971,0.226573839784,-0.377962768078,0.57739251852
1555298752828879952,30138,1555298752828879952,world,-2.88088703156,-0.816782236099,0.798141002655,-0.687260746956,0.226562425494,-0.377804547548,0.577586174011
1555298752828916009,30139,1555298752828916009,world,-2.88088321686,-0.816856384277,0.798098325729,-0.687164783478,0.227184817195,-0.377848595381,0.577427208424
1555298752838296865,30140,1555298752838296865,world,-2.88073539734,-0.817091226578,0.798094272614,-0.68686157465,0.228932917118,-0.379471987486,0.576031148434
1555298752848690230,30141,1555298752848690230,world,-2.88073921204,-0.817088842392,0.798154830933,-0.687096714973,0.228568360209,-0.37960755825,0.575806260109
1555298752859126496,30142,1555298752859126496,world,-2.88089466095,-0.816915035248,0.798147678375,-0.687012374401,0.227296724916,-0.378298699856,0.577269732952
1555298752868440928,30143,1555298752868440928,world,-2.88095378876,-0.816866159439,0.798099279404,-0.686950743198,0.227007642388,-0.378068089485,0.577607810497
1555298752878802653,30144,1555298752878802653,world,-2.88094806671,-0.816790103912,0.798118829727,-0.68722641468,0.226489633322,-0.377674132586,0.577740907669
1555298752878876419,30145,1555298752878876419,world,-2.88094329834,-0.816808700562,0.798140287399,-0.687310278416,0.226861730218,-0.377566337585,0.577565610409
1555298752888135177,30146,1555298752888135177,world,-2.88096809387,-0.816760540009,0.798223733902,-0.687285959721,0.226243168116,-0.377520442009,0.577867209911
1555298752898585186,30147,1555298752898585186,world,-2.88097286224,-0.816749811172,0.798223257065,-0.687200427055,0.226320549846,-0.377682000399,0.577832937241
1555298752909084671,30148,1555298752909084671,world,-2.88095760345,-0.816786527634,0.79815864563,-0.687300920486,0.226449087262,-0.377910226583,0.577513754368
1555298752918537140,30149,1555298752918537140,world,-2.88095664978,-0.816779613495,0.79811835289,-0.687261283398,0.226459994912,-0.378062307835,0.577457129955
1555298752928936352,30150,1555298752928936352,world,-2.88091945648,-0.816810369492,0.798137187958,-0.68718111515,0.226700231433,-0.378082424402,0.577445030212
1555298752929007275,30151,1555298752929007275,world,-2.88091850281,-0.816870689392,0.798164844513,-0.687076628208,0.227185830474,-0.378206849098,0.577297091484
1555298752938444693,30152,1555298752938444693,world,-2.88091278076,-0.816811323166,0.798235416412,-0.687176048756,0.226611673832,-0.377943307161,0.577576994896
1555298752948795218,30153,1555298752948795218,world,-2.88086128235,-0.816869735718,0.798104524612,-0.687078237534,0.227358028293,-0.378086775541,0.577306091785
1555298752958116614,30154,1555298752958116614,world,-2.88085651398,-0.816893815994,0.798070192337,-0.687030315399,0.227578446269,-0.377956718206,0.577361404896
1555298752968569482,30155,1555298752968569482,world,-2.88084697723,-0.816874980927,0.798093318939,-0.68707627058,0.227515593171,-0.377757608891,0.577461659908
1555298752978973933,30156,1555298752978973933,world,-2.88084983826,-0.816926717758,0.798138618469,-0.687064707279,0.227384626865,-0.378081947565,0.577314734459
1555298752979046014,30157,1555298752979046014,world,-2.8807477951,-0.817059755325,0.798169851303,-0.687038898468,0.228124499321,-0.379509150982,0.576115965843
1555298752988483445,30158,1555298752988483445,world,-2.88084220886,-0.816880226135,0.798173666,-0.687240183353,0.226996928453,-0.378370821476,0.577069342136
1555298752998846019,30159,1555298752998846019,world,-2.88089752197,-0.816883563995,0.798116445541,-0.687146902084,0.227076053619,-0.377983927727,0.577402591705
1555298753008115258,30160,1555298753008115258,world,-2.88091564178,-0.816851854324,0.798119068146,-0.687047064304,0.226953372359,-0.377957940102,0.577586531639
1555298753018429362,30161,1555298753018429362,world,-2.88091850281,-0.816798686981,0.798163414001,-0.687293827534,0.226608976722,-0.377774119377,0.577548623085
1555298753028881561,30162,1555298753028881561,world,-2.88090515137,-0.816758871078,0.79822063446,-0.68723398447,0.226444706321,-0.377873063087,0.577619433403
1555298753028954928,30163,1555298753028954928,world,-2.88096618652,-0.816764354706,0.798200130463,-0.687331676483,0.226216629148,-0.377852648497,0.577606022358
1555298753038319691,30164,1555298753038319691,world,-2.88094997406,-0.816757202148,0.798178672791,-0.687261879444,0.226466283202,-0.377883553505,0.577570796013
1555298753048768191,30165,1555298753048768191,world,-2.88091564178,-0.816805124283,0.798146724701,-0.687156617641,0.226898282766,-0.378296792507,0.577256143093
1555298753058096969,30166,1555298753058096969,world,-2.88092041016,-0.816821813583,0.79811668396,-0.687169611454,0.226842582226,-0.378360539675,0.577220797539
1555298753068437314,30167,1555298753068437314,world,-2.88089752197,-0.816794872284,0.798181295395,-0.687176942825,0.226775094867,-0.378102988005,0.577407181263
1555298753078781499,30168,1555298753078781499,world,-2.88091278076,-0.816826105118,0.798190355301,-0.687168061733,0.226595893502,-0.377942621708,0.577593028545
1555298753078819121,30169,1555298753078819121,world,-2.88077640533,-0.81703543663,0.798129558563,-0.687084555626,0.228250190616,-0.37922373414,0.576199769974
1555298753088121968,30170,1555298753088121968,world,-2.8808555603,-0.816888332367,0.798172950745,-0.687140405178,0.227136075497,-0.378280371428,0.577192664146
1555298753098537429,30171,1555298753098537429,world,-2.88087272644,-0.816911458969,0.798110723495,-0.687093257904,0.227461144328,-0.37794098258,0.577343046665
1555298753108986425,30172,1555298753108986425,world,-2.88090419769,-0.816808462143,0.798156738281,-0.687176942825,0.226668521762,-0.377623170614,0.577762901783
1555298753118433790,30173,1555298753118433790,world,-2.88089084625,-0.816878318787,0.798135995865,-0.687155425549,0.227069154382,-0.377695024014,0.577584207058
1555298753128979370,30174,1555298753128979370,world,-2.88091373444,-0.816877365112,0.798176527023,-0.687065541744,0.227023497224,-0.377832114697,0.577619493008
1555298753138386595,30175,1555298753138386595,world,-2.88081645966,-0.816833019257,0.798177242279,-0.687128484249,0.226460829377,-0.378570854664,0.577281653881
1555298753138431955,30176,1555298753138431955,world,-2.880859375,-0.816845178604,0.798109054565,-0.687141954899,0.22709017992,-0.378064900637,0.577350020409
1555298753148757828,30177,1555298753148757828,world,-2.880859375,-0.816869497299,0.798073291779,-0.687134981155,0.227406904101,-0.378055542707,0.57723981142
1555298753158074817,30178,1555298753158074817,world,-2.88086032867,-0.816900014877,0.798064947128,-0.687068879604,0.227754607797,-0.378220021725,0.577073514462
1555298753168536718,30179,1555298753168536718,world,-2.88092899323,-0.81685256958,0.79814696312,-0.687042474747,0.227372571826,-0.377932757139,0.577443659306
1555298753178948999,30180,1555298753178948999,world,-2.88085079193,-0.816831827164,0.798162698746,-0.687110900879,0.226750776172,-0.378695338964,0.577107012272
1555298753179000256,30181,1555298753179000256,world,-2.88089942932,-0.816853284836,0.79811668396,-0.687135279179,0.227127373219,-0.378282219172,0.577201008797
1555298753188262225,30182,1555298753188262225,world,-2.88094997406,-0.816874265671,0.798095703125,-0.687026798725,0.227091372013,-0.378164917231,0.577421069145
1555298753198538685,30183,1555298753198538685,world,-2.88093280792,-0.816831350327,0.798139333725,-0.687181651592,0.226894035935,-0.377968251705,0.577443063259
1555298753208931221,30184,1555298753208931221,world,-2.88091564178,-0.816880464554,0.798138380051,-0.687144458294,0.227330222726,-0.378018677235,0.577282845974
1555298753218378598,30185,1555298753218378598,world,-2.88092517853,-0.816865444183,0.798155069351,-0.68716186285,0.227260366082,-0.377813398838,0.577423989773
1555298753228786680,30186,1555298753228786680,world,-2.88091659546,-0.816859722137,0.798153877258,-0.687179803848,0.227246925235,-0.377791255713,0.577422440052
1555298753228824437,30187,1555298753228824437,world,-2.88088226318,-0.816910266876,0.798116445541,-0.687073767185,0.227383315563,-0.378080993891,0.577305197716
1555298753238075675,30188,1555298753238075675,world,-2.88086700439,-0.81690788269,0.798130750656,-0.687147676945,0.22733694315,-0.378116756678,0.577211976051
1555298753248415078,30189,1555298753248415078,world,-2.8808631897,-0.816876411438,0.798112630844,-0.687096893787,0.227326691151,-0.378024607897,0.577336907387
1555298753258765880,30190,1555298753258765880,world,-2.88086891174,-0.816881895065,0.798138141632,-0.68716186285,0.227291673422,-0.378092944622,0.577228724957
1555298753269106512,30191,1555298753269106512,world,-2.88087081909,-0.816874027252,0.798158168793,-0.68719214201,0.227194085717,-0.378031909466,0.577270925045
1555298753278437713,30192,1555298753278437713,world,-2.88087463379,-0.816872119904,0.798121213913,-0.687162458897,0.227305158973,-0.37800681591,0.577278971672
1555298753278478185,30193,1555298753278478185,world,-2.88090801239,-0.816794157028,0.798188686371,-0.687128961086,0.226507917047,-0.378046572208,0.577606141567
1555298753288876156,30194,1555298753288876156,world,-2.88079929352,-0.816867828369,0.798103570938,-0.687032461166,0.227044269443,-0.378894180059,0.5769546628
1555298753298278551,30195,1555298753298278551,world,-2.88088417053,-0.816838979721,0.79812335968,-0.687029600143,0.227076455951,-0.378339141607,0.577309429646
1555298753308666414,30196,1555298753308666414,world,-2.88093948364,-0.816830158234,0.798157691956,-0.687015473843,0.227094382048,-0.378200113773,0.577410399914
1555298753318264508,30197,1555298753318264508,world,-2.88090419769,-0.816854953766,0.798146724701,-0.687077999115,0.227389737964,-0.378156632185,0.577248156071
1555298753328658311,30198,1555298753328658311,world,-2.88092708588,-0.816772699356,0.798185348511,-0.687205731869,0.226617470384,-0.377759039402,0.577659785748
1555298753338996196,30199,1555298753338996196,world,-2.88086700439,-0.816858530045,0.798094272614,-0.687124252319,0.227346897125,-0.378028512001,0.577293872833
1555298753339039795,30200,1555298753339039795,world,-2.88088703156,-0.816819429398,0.798150062561,-0.687237501144,0.226816892624,-0.378083348274,0.577331542969
1555298753348403893,30201,1555298753348403893,world,-2.88094902039,-0.816796779633,0.798226118088,-0.6871945858,0.226452276111,-0.377949208021,0.577613651752
1555298753358787842,30202,1555298753358787842,world,-2.88091850281,-0.816862106323,0.798172473907,-0.687139451504,0.226915448904,-0.378050267696,0.57743114233
1555298753368094989,30203,1555298753368094989,world,-2.88083171844,-0.816839933395,0.798137187958,-0.687177121639,0.226493492723,-0.37858492136,0.577201783657
1555298753378546413,30204,1555298753378546413,world,-2.88088703156,-0.816877126694,0.798111915588,-0.687025785446,0.227274700999,-0.378011792898,0.577450335026
1555298753378593302,30205,1555298753378593302,world,-2.8808965683,-0.816829681396,0.798140287399,-0.687158048153,0.226890936494,-0.378002941608,0.577449738979
1555298753388947073,30206,1555298753388947073,world,-2.88093566895,-0.816787719727,0.798194169998,-0.687285363674,0.226420179009,-0.377752006054,0.577647149563
1555298753398246692,30207,1555298753398246692,world,-2.88093852997,-0.816777706146,0.798195838928,-0.687223136425,0.226495280862,-0.377721011639,0.577711999416
1555298753408579489,30208,1555298753408579489,world,-2.88095188141,-0.816790342331,0.798203468323,-0.687246024609,0.226424232125,-0.377868592739,0.577616155148
1555298753418983295,30209,1555298753418983295,world,-2.88087081909,-0.816764354706,0.798147678375,-0.687070012093,0.226405903697,-0.378475934267,0.577435016632
1555298753428393418,30210,1555298753428393418,world,-2.88087558746,-0.816782474518,0.798117160797,-0.687181413174,0.226835697889,-0.378116071224,0.577369630337
1555298753428435568,30211,1555298753428435568,world,-2.88090801239,-0.816787719727,0.79815864563,-0.687183856964,0.226669594646,-0.377869933844,0.577592909336
1555298753438882827,30212,1555298753438882827,world,-2.88092327118,-0.816791534424,0.798194885254,-0.687169730663,0.226776570082,-0.377865612507,0.577570617199
1555298753448337783,30213,1555298753448337783,world,-2.88091659546,-0.81681728363,0.798191308975,-0.687233507633,0.226956784725,-0.377958923578,0.577362895012
1555298753458793823,30214,1555298753458793823,world,-2.88091564178,-0.816781282425,0.798168897629,-0.687244832516,0.226754397154,-0.377789199352,0.577539861202
1555298753468121912,30215,1555298753468121912,world,-2.88089752197,-0.816821336746,0.798124551773,-0.687235534191,0.227163523436,-0.377974331379,0.577269017696
1555298753478532772,30216,1555298753478532772,world,-2.88091945648,-0.816810846329,0.798143625259,-0.687209427357,0.226868093014,-0.377937465906,0.57744038105
1555298753478608067,30217,1555298753478608067,world,-2.88090801239,-0.816837787628,0.798186063766,-0.687076151371,0.226812541485,-0.378085881472,0.577523589134
1555298753489094992,30218,1555298753489094992,world,-2.88090896606,-0.816868305206,0.798157691956,-0.687101662159,0.227390110493,-0.378176361322,0.577206730843
1555298753498483409,30219,1555298753498483409,world,-2.88092708588,-0.816823005676,0.79815196991,-0.687127888203,0.226931154728,-0.378113299608,0.577397465706
1555298753508924540,30220,1555298753508924540,world,-2.88089847565,-0.816840171814,0.798108100891,-0.687202394009,0.22683121264,-0.378278434277,0.57723993063
1555298753518243516,30221,1555298753518243516,world,-2.88084125519,-0.816842556,0.798123836517,-0.68698143959,0.22660112381,-0.378931701183,0.577164769173
1555298753528590764,30222,1555298753528590764,world,-2.88087654114,-0.816874980927,0.798129796982,-0.68701583147,0.22730833292,-0.378315359354,0.577250123024
1555298753528631524,30223,1555298753528631524,world,-2.88091373444,-0.816801309586,0.798198223114,-0.687172830105,0.226767987013,-0.377839028835,0.577587783337
1555298753538504800,30224,1555298753538504800,world,-2.88094711304,-0.816768407822,0.798193693161,-0.687227427959,0.226572722197,-0.377705395222,0.577686727047
1555298753548785958,30225,1555298753548785958,world,-2.88090515137,-0.81686425209,0.798080205917,-0.687119543552,0.227453529835,-0.377983361483,0.577286839485
1555298753557995346,30226,1555298753557995346,world,-2.88089752197,-0.816854000092,0.798064231873,-0.687127292156,0.227538838983,-0.378027737141,0.577215135098
1555298753568277253,30227,1555298753568277253,world,-2.88091564178,-0.816814422607,0.798134088516,-0.687136828899,0.226996511221,-0.377979457378,0.577448785305
1555298753578556320,30228,1555298753578556320,world,-2.88092803955,-0.816758155823,0.79820895195,-0.687175571918,0.226525604725,-0.377790242434,0.577711462975
1555298753588838296,30229,1555298753588838296,world,-2.88090133667,-0.816782712936,0.798174381256,-0.687234163284,0.22684276104,-0.377998352051,0.577381134033
1555298753598072267,30230,1555298753598072267,world,-2.88085842133,-0.816835165024,0.798083782196,-0.687118768692,0.2275095433,-0.37821790576,0.577112257481
1555298753598120187,30231,1555298753598120187,world,-2.8808889389,-0.816786289215,0.798121213913,-0.687180221081,0.226942390203,-0.378072917461,0.577357232571
1555298753608496796,30232,1555298753608496796,world,-2.88093185425,-0.816786050797,0.798159360886,-0.687155306339,0.226671755314,-0.378074198961,0.5774923563
1555298753618890186,30233,1555298753618890186,world,-2.88093566895,-0.816786527634,0.79821228981,-0.687058269978,0.226452410221,-0.378263145685,0.577570080757
1555298753628287017,30234,1555298753628287017,world,-2.88091087341,-0.816793441772,0.798196554184,-0.687163889408,0.226646482944,-0.378188401461,0.577417254448
1555298753628325480,30235,1555298753628325480,world,-2.88093948364,-0.816781520844,0.798179626465,-0.687181472778,0.226522967219,-0.377981513739,0.577580273151
1555298753649059207,30236,1555298753649059207,world,-2.88092327118,-0.816859722137,0.798103570938,-0.687050879002,0.227122530341,-0.37806391716,0.577446103096
1555298753649105212,30237,1555298753649105212,world,-2.88084220886,-0.816829442978,0.798097848892,-0.687129497528,0.226775929332,-0.378719776869,0.577059090137
1555298753658482334,30238,1555298753658482334,world,-2.88087844849,-0.816835403442,0.798161029816,-0.687165915966,0.226860418916,-0.37824434042,0.577294290066
1555298753668845489,30239,1555298753668845489,world,-2.88093185425,-0.81680059433,0.798185825348,-0.687202751637,0.226751551032,-0.377761721611,0.577608942986
1555298753668915075,30240,1555298753668915075,world,-2.88098144531,-0.816794633865,0.798176527023,-0.687178850174,0.226598545909,-0.377864092588,0.577630579472
1555298753678348965,30241,1555298753678348965,world,-2.88094615936,-0.816877841949,0.798091650009,-0.687021017075,0.227563902736,-0.378111690283,0.5772767663
1555298753688795497,30242,1555298753688795497,world,-2.88091087341,-0.816866159439,0.798083305359,-0.68710142374,0.227430999279,-0.378412991762,0.577035784721
1555298753698119624,30243,1555298753698119624,world,-2.88085842133,-0.816802978516,0.798151493073,-0.687039136887,0.226757526398,-0.378699183464,0.577187299728
1555298753718881191,30244,1555298753718881191,world,-2.88092899323,-0.816792726517,0.798203229904,-0.687106788158,0.226679861546,-0.378257721663,0.577426791191
1555298753728210948,30245,1555298753728210948,world,-2.88094997406,-0.81680727005,0.798174142838,-0.687224209309,0.226892530918,-0.377969771624,0.577391982079
1555298753728249556,30246,1555298753728249556,world,-2.88096141815,-0.816783189774,0.798130512238,-0.6872215271,0.226857230067,-0.377805203199,0.577516853809
1555298753728304194,30247,1555298753728304194,world,-2.88091373444,-0.816815137863,0.798100948334,-0.687215268612,0.226888388395,-0.378066003323,0.577341258526
1555298753738697747,30248,1555298753738697747,world,-2.88089752197,-0.816815137863,0.798123598099,-0.68725413084,0.226855769753,-0.377894699574,0.577419936657
1555298753749152361,30249,1555298753749152361,world,-2.88093471527,-0.816783666611,0.798195838928,-0.687249481678,0.226501688361,-0.377799749374,0.57762658596
1555298753758549244,30250,1555298753758549244,world,-2.88092708588,-0.816862106323,0.798161029816,-0.687048614025,0.227137893438,-0.37813025713,0.577399432659
1555298753768998970,30251,1555298753768998970,world,-2.88092517853,-0.81680560112,0.798156023026,-0.687114953995,0.2269859761,-0.377998918295,0.577466309071
1555298753778301720,30252,1555298753778301720,world,-2.88088798523,-0.816860675812,0.798072814941,-0.687049388885,0.227514192462,-0.378047317266,0.577304661274
1555298753778340672,30253,1555298753778340672,world,-2.88087558746,-0.816811323166,0.798115491867,-0.687164604664,0.226966321468,-0.378092557192,0.577353596687
1555298753788764416,30254,1555298753788764416,world,-2.88084125519,-0.816794395447,0.79814863205,-0.687035143375,0.226606711745,-0.378901720047,0.57711827755
1555298753798034438,30255,1555298753798034438,world,-2.88089942932,-0.816809415817,0.798209190369,-0.687122404575,0.226657450199,-0.37834623456,0.577359080315
1555298753808480906,30256,1555298753808480906,world,-2.88091468811,-0.816803693771,0.798211336136,-0.687140882015,0.226837486029,-0.377984702587,0.577503144741
1555298753818872007,30257,1555298753818872007,world,-2.88093662262,-0.816772460938,0.7981569767,-0.687073349953,0.226667448878,-0.377881914377,0.57771730423
1555298753828250351,30258,1555298753828250351,world,-2.8809223175,-0.816833257675,0.798058748245,-0.687040746212,0.227261081338,-0.378058969975,0.577407062054
1555298753828292210,30259,1555298753828292210,world,-2.88090896606,-0.816811800003,0.798090219498,-0.687210559845,0.227146431804,-0.378155559301,0.577186882496
1555298753838684011,30260,1555298753838684011,world,-2.88072872162,-0.817005634308,0.798132419586,-0.686928212643,0.22810728848,-0.380087286234,0.575873553753
1555298753849093392,30261,1555298753849093392,world,-2.88082504272,-0.816846370697,0.798183441162,-0.686953723431,0.226822704077,-0.379034221172,0.577043473721
1555298753858556091,30262,1555298753858556091,world,-2.88090515137,-0.81679224968,0.798143863678,-0.68727016449,0.226726219058,-0.378119915724,0.577304422855
1555298753868950053,30263,1555298753868950053,world,-2.88093948364,-0.816778182983,0.798108577728,-0.687227010727,0.226753309369,-0.377839654684,0.57752853632
1555298753878356988,30264,1555298753878356988,world,-2.88090324402,-0.816817760468,0.798088312149,-0.687300682068,0.226999118924,-0.377890318632,0.577311098576
1555298753878395775,30265,1555298753878395775,world,-2.88092899323,-0.81684589386,0.798137903214,-0.687243640423,0.227370634675,-0.377726495266,0.577340066433
1555298753888859269,30266,1555298753888859269,world,-2.88080215454,-0.817071199417,0.798107385635,-0.686905026436,0.228797286749,-0.37912645936,0.57626080513
1555298753898182410,30267,1555298753898182410,world,-2.880900383,-0.816914558411,0.798119544983,-0.68701338768,0.227765798569,-0.378235816956,0.577124834061
1555298753908645763,30268,1555298753908645763,world,-2.88089370728,-0.816808462143,0.798115491867,-0.687209665775,0.227018296719,-0.378008157015,0.57733476162
1555298753919053069,30269,1555298753919053069,world,-2.88088989258,-0.816832780838,0.798071146011,-0.687084674835,0.227327629924,-0.377953857183,0.577397406101
1555298753928390916,30270,1555298753928390916,world,-2.88092422485,-0.816791772842,0.798162221909,-0.687180697918,0.226650729775,-0.377943098545,0.577556312084
1555298753938684669,30271,1555298753938684669,world,-2.88094902039,-0.816743612289,0.798213243484,-0.687241613865,0.226305112243,-0.377680659294,0.577790856361
1555298753938735466,30272,1555298753938735466,world,-2.88085651398,-0.816767454147,0.798176050186,-0.687182426453,0.226238533854,-0.378312915564,0.577473700047
1555298753949059279,30273,1555298753949059279,world,-2.88092422485,-0.816761016846,0.798166513443,-0.687194645405,0.226438343525,-0.377988606691,0.577593207359
1555298753958411329,30274,1555298753958411329,world,-2.8809299469,-0.816837310791,0.798101425171,-0.686961650848,0.22722415626,-0.377945274115,0.577590048313
1555298753968815453,30275,1555298753968815453,world,-2.88093757629,-0.81679725647,0.798144817352,-0.687082350254,0.226912796497,-0.378026634455,0.577515721321
1555298753978133448,30276,1555298753978133448,world,-2.88094043732,-0.816783905029,0.798154592514,-0.687127411366,0.226741656661,-0.378070831299,0.577500224113
1555298753978186790,30277,1555298753978186790,world,-2.88090133667,-0.816796541214,0.798167228699,-0.687147378922,0.226905629039,-0.378253906965,0.577292263508
1555298753988618918,30278,1555298753988618918,world,-2.88091182709,-0.816848993301,0.798127412796,-0.687013089657,0.227290049195,-0.378173410892,0.577353656292
1555298753999082062,30279,1555298753999082062,world,-2.88091373444,-0.816817760468,0.79812002182,-0.687275707722,0.226919278502,-0.378131508827,0.577214360237
1555298754008483526,30280,1555298754008483526,world,-2.88089847565,-0.816863298416,0.798069238663,-0.687086760998,0.227494612336,-0.378207743168,0.577162921429
1555298754018835572,30281,1555298754018835572,world,-2.88090133667,-0.816780567169,0.798131942749,-0.687077343464,0.226935327053,-0.377988249063,0.577537894249
1555298754028104818,30282,1555298754028104818,world,-2.880900383,-0.816768169403,0.798180103302,-0.68716365099,0.22688549757,-0.378099828959,0.57738173008
1555298754038491098,30283,1555298754038491098,world,-2.88091659546,-0.81675696373,0.798204898834,-0.687254190445,0.22658495605,-0.378005236387,0.577453911304
1555298754038532135,30284,1555298754038532135,world,-2.8808927536,-0.816760063171,0.798162221909,-0.687182247639,0.226785123348,-0.378118306398,0.577386975288
1555298754048965822,30285,1555298754048965822,world,-2.88087272644,-0.816745281219,0.798119783401,-0.687239170074,0.226886749268,-0.377959489822,0.5773832798
1555298754058429075,30286,1555298754058429075,world,-2.88088512421,-0.816739320755,0.798129796982,-0.687227666378,0.226778715849,-0.37794727087,0.577447354794
1555298754068842901,30287,1555298754068842901,world,-2.88088035583,-0.816774845123,0.798173904419,-0.68718713522,0.226967826486,-0.37822252512,0.577241122723
1555298754068897992,30288,1555298754068897992,world,-2.88086605072,-0.816762447357,0.798178672791,-0.687174141407,0.226974666119,-0.37811127305,0.577326655388
1555298754078232571,30289,1555298754078232571,world,-2.88084793091,-0.816780328751,0.79813170433,-0.687172651291,0.227129027247,-0.378233999014,0.577187359333
1555298754088573623,30290,1555298754088573623,world,-2.88078975677,-0.816769838333,0.79811835289,-0.687088191509,0.226857200265,-0.378988325596,0.576899945736
1555298754098915820,30291,1555298754098915820,world,-2.88086032867,-0.816771507263,0.798137187958,-0.687134206295,0.226950496435,-0.378519237041,0.577116429806
1555298754108267202,30292,1555298754108267202,world,-2.88082027435,-0.816764831543,0.798149108887,-0.686995208263,0.226793974638,-0.378803789616,0.577156722546
1555298754118719240,30293,1555298754118719240,world,-2.88080692291,-0.816747665405,0.798153877258,-0.687078654766,0.226591482759,-0.378651797771,0.57723659277
1555298754129106215,30294,1555298754129106215,world,-2.88079071045,-0.816790819168,0.79812502861,-0.687120616436,0.226819887757,-0.378891527653,0.57693952322
1555298754138501513,30295,1555298754138501513,world,-2.8808555603,-0.816769838333,0.798153877258,-0.687253952026,0.226976513863,-0.378143668175,0.577209711075
1555298754138542378,30296,1555298754138542378,world,-2.88080406189,-0.816769361496,0.798126220703,-0.687125682831,0.226855799556,-0.378554433584,0.577140629292
1555298754148971556,30297,1555298754148971556,world,-2.88088798523,-0.816810369492,0.798161029816,-0.687206268311,0.227043434978,-0.378085702658,0.577278196812
1555298754158367091,30298,1555298754158367091,world,-2.88091659546,-0.816811084747,0.798171043396,-0.687179327011,0.227102562785,-0.377892583609,0.577413380146
1555298754168817747,30299,1555298754168817747,world,-2.88092327118,-0.816809177399,0.798156499863,-0.687273085117,0.226950988173,-0.377712726593,0.57747900486
1555298754178142848,30300,1555298754178142848,world,-2.88093948364,-0.816860198975,0.798095941544,-0.687086105347,0.227449849248,-0.377723783255,0.577498018742
1555298754178183233,30301,1555298754178183233,world,-2.88096237183,-0.816828250885,0.798119783401,-0.687124550343,0.226926505566,-0.377842217684,0.577580809593
1555298754188616018,30302,1555298754188616018,world,-2.88096141815,-0.816786289215,0.798172473907,-0.687184393406,0.226753816009,-0.377676129341,0.577685952187
1555298754199076309,30303,1555298754199076309,world,-2.8808889389,-0.816789865494,0.798199892044,-0.68705457449,0.226529732347,-0.378491103649,0.577394902706
1555298754208538723,30304,1555298754208538723,world,-2.88095188141,-0.816767215729,0.798174619675,-0.687019228935,0.226519152522,-0.378216415644,0.577620983124
1555298754218892734,30305,1555298754218892734,world,-2.88095569611,-0.816745042801,0.798113822937,-0.687184751034,0.226758733392,-0.377991497517,0.577477395535
1555298754228274181,30306,1555298754228274181,world,-2.88087368011,-0.816729068756,0.798096418381,-0.68708974123,0.226691231132,-0.378638744354,0.577192664146
1555298754228315766,30307,1555298754228315766,world,-2.88083457947,-0.816718578339,0.798129320145,-0.687047302723,0.22675460577,-0.37874057889,0.577151656151
1555298754238732854,30308,1555298754238732854,world,-2.8808298111,-0.816698551178,0.798164367676,-0.687026321888,0.226609528065,-0.378700882196,0.577259659767
1555298754248059671,30309,1555298754248059671,world,-2.88080883026,-0.8166847229,0.798133850098,-0.68714338541,0.226583182812,-0.3787792027,0.577079176903
1555298754258514659,30310,1555298754258514659,world,-2.88086509705,-0.816670417786,0.798119306564,-0.68723154068,0.227038264275,-0.378008246422,0.577300786972
1555298754268959892,30311,1555298754268959892,world,-2.88081264496,-0.816666603088,0.798100709915,-0.68715763092,0.226850792766,-0.378463834524,0.577163994312
1555298754278404179,30312,1555298754278404179,world,-2.88080120087,-0.816699028015,0.79812669754,-0.687124192715,0.226846948266,-0.378696262836,0.577052772045
1555298754288851282,30313,1555298754288851282,world,-2.88080978394,-0.816685676575,0.798184633255,-0.687040507793,0.22659291327,-0.378709971905,0.57724326849
1555298754288891775,30314,1555298754288891775,world,-2.88087654114,-0.81670165062,0.798164367676,-0.687162578106,0.22684893012,-0.378118216991,0.577385365963
1555298754298333723,30315,1555298754298333723,world,-2.880859375,-0.816732883453,0.798140048981,-0.687110722065,0.226621419191,-0.378512322903,0.577278196812
1555298754308664464,30316,1555298754308664464,world,-2.88090229034,-0.816764831543,0.798154115677,-0.687251865864,0.226860105991,-0.377957135439,0.57738006115
1555298754318130404,30317,1555298754318130404,world,-2.88094425201,-0.81676697731,0.798171281815,-0.687304258347,0.226861163974,-0.377674907446,0.577502071857
1555298754328477288,30318,1555298754328477288,world,-2.88095188141,-0.81680393219,0.79815864563,-0.6871945858,0.226948142052,-0.377838253975,0.577491521835
1555298754328515747,30319,1555298754328515747,world,-2.8809595108,-0.816818475723,0.798163414001,-0.687158644199,0.226974785328,-0.37784948945,0.577516436577
1555298754338869416,30320,1555298754338869416,world,-2.88093566895,-0.816830396652,0.798142671585,-0.687147796154,0.227143973112,-0.37790864706,0.577424228191
1555298754348274342,30321,1555298754348274342,world,-2.88093948364,-0.816851139069,0.798138141632,-0.687171041965,0.227180063725,-0.377978116274,0.577336668968
1555298754358671333,30322,1555298754358671333,world,-2.88090324402,-0.816841125488,0.798138380051,-0.687084496021,0.226848781109,-0.378646045923,0.577132344246
1555298754369058046,30323,1555298754369058046,world,-2.88093948364,-0.816808462143,0.798152208328,-0.687166452408,0.226806521416,-0.378058314323,0.577436685562
1555298754369099237,30324,1555298754369099237,world,-2.88094902039,-0.816782236099,0.798155546188,-0.687222003937,0.226835682988,-0.377811044455,0.577520906925
1555298754388748240,30325,1555298754388748240,world,-2.88093662262,-0.816762208939,0.798162460327,-0.687196671963,0.226830735803,-0.377861201763,0.57752007246
1555298754388789692,30326,1555298754388789692,world,-2.88085842133,-0.816745758057,0.798141002655,-0.687078952789,0.226725295186,-0.378593891859,0.577221691608
1555298754399106326,30327,1555298754399106326,world,-2.88088226318,-0.816738843918,0.798128604889,-0.687118113041,0.226939544082,-0.378458142281,0.577179789543
1555298754408444341,30328,1555298754408444341,world,-2.88081073761,-0.816706180573,0.798132896423,-0.687083661556,0.226634398103,-0.378693401814,0.577186524868
1555298754418859173,30329,1555298754418859173,world,-2.88080310822,-0.816719770432,0.798124313354,-0.687024533749,0.226597085595,-0.378981530666,0.577082335949
1555298754418900916,30330,1555298754418900916,world,-2.88087368011,-0.816679954529,0.798176765442,-0.687083661556,0.226845234632,-0.37818056345,0.577439963818
1555298754438759136,30331,1555298754438759136,world,-2.88086509705,-0.816720962524,0.798141956329,-0.687294900417,0.227088540792,-0.378054916859,0.577175080776
1555298754438801407,30332,1555298754438801407,world,-2.88078784943,-0.816741228104,0.798109769821,-0.687178134918,0.226967856288,-0.378614634275,0.576994717121
1555298754448142932,30333,1555298754448142932,world,-2.8808889389,-0.816752672195,0.798155784607,-0.687219917774,0.226817712188,-0.377968907356,0.57742702961
1555298754458595462,30334,1555298754458595462,world,-2.88092136383,-0.816754102707,0.798173666,-0.687235832214,0.226768448949,-0.377718061209,0.577591717243
1555298754469025540,30335,1555298754469025540,world,-2.88087749481,-0.816830635071,0.798158884048,-0.687181174755,0.227019920945,-0.378167450428,0.577263772488
1555298754478420609,30336,1555298754478420609,world,-2.88089370728,-0.816820144653,0.798144817352,-0.687183856964,0.226938173175,-0.378169745207,0.577291309834
1555298754478495604,30337,1555298754478495604,world,-2.88092517853,-0.816828489304,0.798153877258,-0.687235176563,0.226904854178,-0.377887010574,0.577428221703
1555298754488933980,30338,1555298754488933980,world,-2.88092803955,-0.816809654236,0.798165798187,-0.687156021595,0.226805269718,-0.377896815538,0.577555298805
1555298754498388574,30339,1555298754498388574,world,-2.88095188141,-0.816796302795,0.79815363884,-0.68720459938,0.22679297626,-0.377757757902,0.577593147755
1555298754508839370,30340,1555298754508839370,world,-2.88094139099,-0.816788196564,0.798154354095,-0.68709474802,0.226855933666,-0.377926141024,0.577588915825
1555298754518157945,30341,1555298754518157945,world,-2.88095474243,-0.816751718521,0.798148870468,-0.6871509552,0.226711794734,-0.377968162298,0.577551186085
1555298754528583382,30342,1555298754528583382,world,-2.8809261322,-0.816732406616,0.798118591309,-0.687195062637,0.227105259895,-0.378036975861,0.577299118042
1555298754538911901,30343,1555298754538911901,world,-2.88090515137,-0.816719293594,0.798154115677,-0.687133610249,0.226988941431,-0.378099262714,0.577377140522
1555298754538948409,30344,1555298754538948409,world,-2.8809337616,-0.816723823547,0.798169136047,-0.687050759792,0.226774543524,-0.378231465816,0.577473342419
1555298754548297822,30345,1555298754548297822,world,-2.88086032867,-0.81671333313,0.79814863205,-0.687056720257,0.226578846574,-0.378849804401,0.577137649059
1555298754558782703,30346,1555298754558782703,world,-2.88075828552,-0.816756725311,0.798088550568,-0.687111198902,0.227020487189,-0.379279851913,0.576616644859
1555298754568074313,30347,1555298754568074313,world,-2.88086223602,-0.816744327545,0.798139572144,-0.687139987946,0.226882621646,-0.378481835127,0.577160656452
1555298754578388901,30348,1555298754578388901,world,-2.88087654114,-0.816762447357,0.798171758652,-0.687267005444,0.227152004838,-0.378172695637,0.577106177807
1555298754588846456,30349,1555298754588846456,world,-2.88081169128,-0.816776514053,0.798161506653,-0.687062978745,0.226860329509,-0.378769129515,0.577072679996
1555298754598123914,30350,1555298754598123914,world,-2.88084888458,-0.816818714142,0.798136234283,-0.687227904797,0.227163642645,-0.378304541111,0.577061831951
1555298754598164855,30351,1555298754598164855,world,-2.88091850281,-0.816783189774,0.798168182373,-0.687205970287,0.226756945252,-0.377850472927,0.577545106411
1555298754608494990,30352,1555298754608494990,world,-2.88092327118,-0.816767454147,0.798153400421,-0.68722230196,0.226724490523,-0.377750635147,0.577603697777
1555298754618841642,30353,1555298754618841642,world,-2.88093662262,-0.816770076752,0.79817199707,-0.687172949314,0.226724088192,-0.377886086702,0.577573895454
1555298754628062067,30354,1555298754628062067,world,-2.88085842133,-0.816777706146,0.798149347305,-0.687072992325,0.226689144969,-0.378587812185,0.577246963978
1555298754628100191,30355,1555298754628100191,world,-2.88082790375,-0.816783666611,0.798151731491,-0.686998426914,0.226629197598,-0.378811508417,0.577212452888
1555298754638380895,30356,1555298754638380895,world,-2.88094234467,-0.816730499268,0.798178911209,-0.686973333359,0.226650640368,-0.377967327833,0.577786982059
1555298754648677174,30357,1555298754648677174,world,-2.88095188141,-0.816742658615,0.798122882843,-0.687144756317,0.226892352104,-0.378080129623,0.577414512634
1555298754659081632,30358,1555298754659081632,world,-2.8809633255,-0.816720962524,0.798127412796,-0.687191545963,0.226901233196,-0.377900868654,0.577472567558
1555298754668537549,30359,1555298754668537549,world,-2.88093471527,-0.816727399826,0.79812169075,-0.687190711498,0.226960510015,-0.377961456776,0.577410638332
1555298754678941344,30360,1555298754678941344,world,-2.88086128235,-0.816735029221,0.798149347305,-0.687074899673,0.226768732071,-0.378623127937,0.57719039917
1555298754678980938,30361,1555298754678980938,world,-2.88089942932,-0.816743612289,0.798156023026,-0.687196314335,0.226896554232,-0.37816876173,0.577293455601
1555298754698851547,30362,1555298754698851547,world,-2.88093185425,-0.816712856293,0.798148393631,-0.687316477299,0.226764187217,-0.377839565277,0.577417731285
1555298754698907594,30363,1555298754698907594,world,-2.88091564178,-0.816734790802,0.798123598099,-0.687233507633,0.226848423481,-0.377919346094,0.577431321144
1555298754708183305,30364,1555298754708183305,world,-2.88084602356,-0.816778659821,0.798113822937,-0.687041938305,0.226848095655,-0.378546535969,0.577248513699
1555298754718578753,30365,1555298754718578753,world,-2.88091945648,-0.816783428192,0.798181295395,-0.687146365643,0.22671315074,-0.378121435642,0.577455937862
1555298754728938147,30366,1555298754728938147,world,-2.88096809387,-0.816766262054,0.798221826553,-0.687119722366,0.226473614573,-0.377937048674,0.577702105045
1555298754728978371,30367,1555298754728978371,world,-2.88083553314,-0.816806077957,0.798155546188,-0.687036037445,0.22665040195,-0.378723472357,0.577217161655
1555298754738355658,30368,1555298754738355658,world,-2.88079452515,-0.816793441772,0.798114538193,-0.686956167221,0.226761505008,-0.378887027502,0.577161371708
1555298754748786598,30369,1555298754748786598,world,-2.88087463379,-0.816802501678,0.798097133636,-0.687142550945,0.2270963341,-0.378261268139,0.577218234539
1555298754758111387,30370,1555298754758111387,world,-2.88094139099,-0.816765069962,0.798179149628,-0.687171876431,0.226828351617,-0.377897560596,0.57752674818
1555298754768597986,30371,1555298754768597986,world,-2.88094329834,-0.816755056381,0.798202037811,-0.687188446522,0.226880967617,-0.377864867449,0.577507853508
1555298754779011615,30372,1555298754779011615,world,-2.88094615936,-0.816770792007,0.798187732697,-0.687212765217,0.226952373981,-0.377828747034,0.577474474907
1555298754779081657,30373,1555298754779081657,world,-2.88093090057,-0.81674861908,0.79812836647,-0.687243700027,0.227049872279,-0.377944558859,0.577323496342
1555298754788367312,30374,1555298754788367312,world,-2.88090896606,-0.816752910614,0.79806137085,-0.687206208706,0.227064430714,-0.378192871809,0.577199816704
1555298754798780570,30375,1555298754798780570,world,-2.88091468811,-0.816751241684,0.79811668396,-0.687252044678,0.226926803589,-0.377987980843,0.577333450317
1555298754808017176,30376,1555298754808017176,world,-2.88092803955,-0.816753387451,0.798190355301,-0.687127768993,0.226839989424,-0.37815195322,0.577408254147
1555298754818471868,30377,1555298754818471868,world,-2.88094139099,-0.816727399826,0.798221588135,-0.686987578869,0.226772874594,-0.378109276295,0.577629268169
1555298754828889101,30378,1555298754828889101,world,-2.88096141815,-0.816713094711,0.798176288605,-0.687090873718,0.226476117969,-0.37794443965,0.577730715275
1555298754828962157,30379,1555298754828962157,world,-2.88092422485,-0.816744327545,0.798094987869,-0.687142074108,0.226888984442,-0.378034412861,0.577448785305
1555298754838235709,30380,1555298754838235709,world,-2.8808965683,-0.816783428192,0.798107862473,-0.687221348286,0.227058112621,-0.378146916628,0.577214360237
1555298754848585511,30381,1555298754848585511,world,-2.88091278076,-0.8167552948,0.798172950745,-0.6870880723,0.226854860783,-0.378012925386,0.577540516853
1555298754858922486,30382,1555298754858922486,world,-2.88091182709,-0.81676363945,0.798215389252,-0.687112092972,0.226762577891,-0.378037065268,0.577532589436
1555298754868387962,30383,1555298754868387962,world,-2.88082504272,-0.816765785217,0.798165798187,-0.687051773071,0.226644799113,-0.378698080778,0.577217400074
1555298754878807151,30384,1555298754878807151,world,-2.88086223602,-0.816778659821,0.798120498657,-0.687116205692,0.226890668273,-0.378323316574,0.577289700508
1555298754878850926,30385,1555298754878850926,world,-2.88080596924,-0.816771507263,0.79808306694,-0.687154471874,0.226821988821,-0.378742158413,0.57699650526
1555298754888150488,30386,1555298754888150488,world,-2.88086795807,-0.816782236099,0.79812169075,-0.687278270721,0.227005600929,-0.378159284592,0.577159166336
1555298754898694681,30387,1555298754898694681,world,-2.88075351715,-0.816992521286,0.798117399216,-0.687071442604,0.228713437915,-0.379481434822,0.575861811638
1555298754909028451,30388,1555298754909028451,world,-2.88089847565,-0.816820383072,0.798192739487,-0.687192440033,0.227378800511,-0.37824562192,0.577057778835
1555298754918351743,30389,1555298754918351743,world,-2.88092899323,-0.816757202148,0.798171043396,-0.687199175358,0.226962551475,-0.377970337868,0.577393889427
1555298754928687414,30390,1555298754928687414,world,-2.88084030151,-0.816765546799,0.79806137085,-0.687042057514,0.226901069283,-0.378746747971,0.577096164227
1555298754928726244,30391,1555298754928726244,world,-2.88089847565,-0.816777467728,0.798091888428,-0.687148809433,0.226990178227,-0.378419965506,0.577148497105
1555298754939000582,30392,1555298754939000582,world,-2.88095092773,-0.816741943359,0.798207759857,-0.687102615833,0.226693615317,-0.377868175507,0.577681183815
1555298754948330270,30393,1555298754948330270,world,-2.8806810379,-0.817022562027,0.798113107681,-0.686902821064,0.228472650051,-0.380262225866,0.575643479824
1555298754958690001,30394,1555298754958690001,world,-2.88086605072,-0.816842317581,0.798139572144,-0.687122762203,0.227240696549,-0.378511071205,0.577021241188
1555298754969154054,30395,1555298754969154054,world,-2.8809223175,-0.816757202148,0.7980864048,-0.68735486269,0.226880058646,-0.377888202667,0.577294707298
1555298754978569840,30396,1555298754978569840,world,-2.88088321686,-0.816716432571,0.798088312149,-0.687259554863,0.226458474994,-0.378098398447,0.577436208725
1555298754978612719,30397,1555298754978612719,world,-2.88094329834,-0.816735029221,0.798169136047,-0.687292098999,0.226565390825,-0.377665936947,0.577638506889
1555298754989073365,30398,1555298754989073365,world,-2.88081169128,-0.816958189011,0.79815196991,-0.687001228333,0.228169992566,-0.379445284605,0.576185047626
1555298754998487304,30399,1555298754998487304,world,-2.88085079193,-0.816804170609,0.798182725906,-0.687035560608,0.22681812942,-0.378861159086,0.577061474323
