%time,field.header.seq,field.header.stamp,field.header.frame_id,field.pose.position.x,field.pose.position.y,field.pose.position.z,field.pose.orientation.x,field.pose.orientation.y,field.pose.orientation.z,field.pose.orientation.w
1555296451868883633,4725,1555296451868883633,world,-2.89661884308,-0.821177482605,0.798017024994,-0.719701766968,0.0922264158726,-0.256003290415,0.638737916946
1555296451868911765,4726,1555296451868911765,world,-2.89661693573,-0.821184873581,0.79801440239,-0.719738960266,0.0922892093658,-0.256088763475,0.638652563095
1555296451878274684,4727,1555296451878274684,world,-2.8966255188,-0.821166276932,0.798026323318,-0.719716846943,0.0922270193696,-0.256055414677,0.638699829578
1555296451888604714,4728,1555296451888604714,world,-2.89662837982,-0.821169376373,0.79801774025,-0.719715595245,0.0924055874348,-0.256075531244,0.638667345047
1555296451898929514,4729,1555296451898929514,world,-2.89660835266,-0.821187734604,0.797983407974,-0.719697594643,0.0923530310392,-0.25603222847,0.638712584972
1555296451898978128,4730,1555296451898978128,world,-2.89660072327,-0.821177959442,0.798009634018,-0.719618558884,0.0925165116787,-0.256028443575,0.638779640198
1555296451908354631,4731,1555296451908354631,world,-2.89659881592,-0.821194887161,0.797988414764,-0.719730496407,0.0925187915564,-0.256258130074,0.638560950756
1555296451918692644,4732,1555296451918692644,world,-2.8965959549,-0.821183681488,0.798011779785,-0.719666779041,0.0924830213189,-0.256167471409,0.63867431879
1555296451929067584,4733,1555296451929067584,world,-2.89663887024,-0.821161985397,0.798050642014,-0.719668388367,0.0918669700623,-0.255650162697,0.638968706131
1555296451938385386,4734,1555296451938385386,world,-2.89663600922,-0.821161985397,0.798061609268,-0.719698667526,0.092043787241,-0.255824685097,0.638839244843
1555296451938431080,4735,1555296451938431080,world,-2.89658641815,-0.82120013237,0.798015832901,-0.719707012177,0.0923736989498,-0.256105899811,0.638669490814
1555296451958946014,4736,1555296451958946014,world,-2.8965587616,-0.821214914322,0.798002719879,-0.719704806805,0.0924754962325,-0.256124466658,0.638649880886
1555296451958998645,4737,1555296451958998645,world,-2.89657211304,-0.821217298508,0.798009872437,-0.71970230341,0.092554576695,-0.25621265173,0.63860565424
1555296451968489398,4738,1555296451968489398,world,-2.89657974243,-0.821195363998,0.798032045364,-0.719629645348,0.0921487659216,-0.255984187126,0.638837993145
1555296451978954022,4739,1555296451978954022,world,-2.89658164978,-0.821208953857,0.798013448715,-0.719639837742,0.0923084393144,-0.255990326405,0.638800919056
1555296451988330547,4740,1555296451988330547,world,-2.89660263062,-0.821166038513,0.798027992249,-0.719681799412,0.0921234861016,-0.255863964558,0.638830959797
1555296451998785357,4741,1555296451998785357,world,-2.89659690857,-0.821176290512,0.798038005829,-0.719680070877,0.0922254621983,-0.255939394236,0.638787984848
1555296452008093212,4742,1555296452008093212,world,-2.89660167694,-0.821171283722,0.79803442955,-0.719702541828,0.0919956639409,-0.255754292011,0.638870060444
1555296452008135140,4743,1555296452008135140,world,-2.89659309387,-0.821194410324,0.798009157181,-0.719693481922,0.0924477055669,-0.256351530552,0.63857537508
1555296452018506420,4744,1555296452018506420,world,-2.89660358429,-0.821180105209,0.798003435135,-0.719662547112,0.0922032147646,-0.2560942173,0.638748824596
1555296452028871607,4745,1555296452028871607,world,-2.89661407471,-0.821197986603,0.798006772995,-0.719685316086,0.0922917127609,-0.256038933992,0.638732671738
1555296452038209840,4746,1555296452038209840,world,-2.8966255188,-0.821181774139,0.798020124435,-0.719587922096,0.0921683758497,-0.25582113862,0.638947427273
1555296452038253930,4747,1555296452038253930,world,-2.89663887024,-0.821201324463,0.798026800156,-0.719709873199,0.0924119949341,-0.255991965532,0.638706445694
1555296452048626380,4748,1555296452048626380,world,-2.89661502838,-0.821237564087,0.798007011414,-0.719649136066,0.0925869122148,-0.256093680859,0.638708651066
1555296452058960370,4749,1555296452058960370,world,-2.89663219452,-0.821227550507,0.798042058945,-0.71958142519,0.0923814252019,-0.255886018276,0.638897955418
1555296452068243959,4750,1555296452068243959,world,-2.89662647247,-0.821217060089,0.798035383224,-0.71971398592,0.0923088267446,-0.256041109562,0.638696968555
1555296452078663556,4751,1555296452078663556,world,-2.89661979675,-0.821235179901,0.797991275787,-0.719690918922,0.0924224704504,-0.25620007515,0.638642728329
1555296452089108051,4752,1555296452089108051,world,-2.89663887024,-0.82120013237,0.798015832901,-0.719609856606,0.0919938236475,-0.255695700645,0.63899821043
1555296452089153065,4753,1555296452089153065,world,-2.89666175842,-0.821173906326,0.798035621643,-0.719663262367,0.0919114202261,-0.255729794502,0.6389362216
1555296452098579485,4754,1555296452098579485,world,-2.89659404755,-0.821224689484,0.798027515411,-0.719691097736,0.0922968164086,-0.256074041128,0.638711333275
1555296452108961408,4755,1555296452108961408,world,-2.89659690857,-0.821204900742,0.798034191132,-0.719627439976,0.0922006443143,-0.256040155888,0.638810455799
1555296452118295449,4756,1555296452118295449,world,-2.89660358429,-0.821185112,0.797995328903,-0.719722747803,0.0923461019993,-0.256099015474,0.63865852356
1555296452128582331,4757,1555296452128582331,world,-2.89659881592,-0.82120013237,0.797981500626,-0.719682872295,0.0923473760486,-0.256097882986,0.638703763485
1555296452138860342,4758,1555296452138860342,world,-2.89658355713,-0.82119011879,0.798004865646,-0.71969550848,0.0922962352633,-0.255833476782,0.638802945614
1555296452138929224,4759,1555296452138929224,world,-2.89662456512,-0.821178197861,0.798043251038,-0.719720423222,0.0924263373017,-0.255969375372,0.638701558113
1555296452148296169,4760,1555296452148296169,world,-2.89665031433,-0.82116484642,0.798075437546,-0.719601452351,0.0918936803937,-0.255661278963,0.639035761356
1555296452158643933,4761,1555296452158643933,world,-2.8966293335,-0.821157217026,0.798021793365,-0.719648122787,0.092117369175,-0.255885362625,0.638861179352
1555296452169029485,4762,1555296452169029485,world,-2.89661121368,-0.821164131165,0.797997951508,-0.719687700272,0.092317700386,-0.256019353867,0.638734102249
1555296452178446970,4763,1555296452178446970,world,-2.89658737183,-0.821227550507,0.79799580574,-0.719717800617,0.0924403443933,-0.256109178066,0.638646423817
1555296452188786969,4764,1555296452188786969,world,-2.89660263062,-0.821210622787,0.798047065735,-0.719666540623,0.0923023894429,-0.256115466356,0.638721525669
1555296452188860545,4765,1555296452188860545,world,-2.89661598206,-0.821178197861,0.798055648804,-0.719706296921,0.0921695530415,-0.255890846252,0.638786077499
1555296452198155698,4766,1555296452198155698,world,-2.8966217041,-0.821185827255,0.798003673553,-0.719640254974,0.0922956466675,-0.255893141031,0.638841152191
1555296452208529944,4767,1555296452208529944,world,-2.89657592773,-0.821216821671,0.797956943512,-0.719613492489,0.0926279351115,-0.256459057331,0.638596475124
1555296452218827405,4768,1555296452218827405,world,-2.89663600922,-0.821182489395,0.797995090485,-0.71968460083,0.0922336578369,-0.255933880806,0.638783931732
1555296452228089090,4769,1555296452228089090,world,-2.89664840698,-0.821184396744,0.798056840897,-0.719673573971,0.0918233022094,-0.25566932559,0.638961493969
1555296452238390654,4770,1555296452238390654,world,-2.89664268494,-0.821174621582,0.798065662384,-0.719598531723,0.0920217037201,-0.255748867989,0.63898563385
1555296452238426807,4771,1555296452238426807,world,-2.89662075043,-0.82118678093,0.798013687134,-0.719719588757,0.0922461077571,-0.256034702063,0.638702332973
1555296452248875242,4772,1555296452248875242,world,-2.89659976959,-0.821206569672,0.798000812531,-0.719675898552,0.0923791080713,-0.256070137024,0.6387180686
1555296452258236026,4773,1555296452258236026,world,-2.8965921402,-0.821213960648,0.798005104065,-0.719820261002,0.092492133379,-0.256096273661,0.638528585434
1555296452268579164,4774,1555296452268579164,world,-2.89658164978,-0.821220397949,0.798027992249,-0.7197239995,0.0924812629819,-0.256136387587,0.638622641563
1555296452278906143,4775,1555296452278906143,world,-2.89661693573,-0.821169376373,0.798027276993,-0.719713151455,0.0920498296618,-0.255849540234,0.638812065125
1555296452288280177,4776,1555296452288280177,world,-2.89661312103,-0.821175813675,0.798001050949,-0.71965944767,0.091930732131,-0.255537748337,0.639014422894
1555296452298563829,4777,1555296452298563829,world,-2.89660644531,-0.821212291718,0.798012971878,-0.719645798206,0.0922818854451,-0.256010979414,0.638789772987
1555296452298599802,4778,1555296452298599802,world,-2.89663410187,-0.821175575256,0.798034191132,-0.719658195972,0.092225112021,-0.255983412266,0.638794958591
1555296452309020923,4779,1555296452309020923,world,-2.8965959549,-0.821206331253,0.798033237457,-0.719685018063,0.0924980863929,-0.256247967482,0.638619363308
1555296452318749915,4780,1555296452318749915,world,-2.89661312103,-0.821184873581,0.798021316528,-0.719529926777,0.0921889916062,-0.255912005901,0.638973295689
1555296452329113282,4781,1555296452329113282,world,-2.89660072327,-0.82121515274,0.797991752625,-0.71971654892,0.0926923751831,-0.256396204233,0.638496160507
1555296452338429827,4782,1555296452338429827,world,-2.89662456512,-0.821180582047,0.798018455505,-0.719709396362,0.0921578705311,-0.25588324666,0.638787269592
1555296452338474714,4783,1555296452338474714,world,-2.89663028717,-0.82120847702,0.798005580902,-0.719722270966,0.0922827720642,-0.25597217679,0.638719081879
1555296452348767685,4784,1555296452348767685,world,-2.89662075043,-0.821175813675,0.798020362854,-0.719589173794,0.0921435579658,-0.255804240704,0.638956308365
1555296452359034599,4785,1555296452359034599,world,-2.89660739899,-0.821200847626,0.798025131226,-0.719695985317,0.0921789929271,-0.25580868125,0.638829171658
1555296452368328978,4786,1555296452368328978,world,-2.89659786224,-0.82120680809,0.798010826111,-0.719682395458,0.0923548862338,-0.256012141705,0.638737440109
1555296452378593218,4787,1555296452378593218,world,-2.89657306671,-0.821251630783,0.797965288162,-0.719705045223,0.0928248092532,-0.256511867046,0.638443231583
1555296452388813194,4788,1555296452388813194,world,-2.89663124084,-0.82121181488,0.797984600067,-0.71964597702,0.0922352969646,-0.256036669016,0.638786077499
1555296452388835242,4789,1555296452388835242,world,-2.89663314819,-0.821201562881,0.79801440239,-0.719709157944,0.0922388732433,-0.256070643663,0.638700723648
1555296452398081371,4790,1555296452398081371,world,-2.89666366577,-0.821194887161,0.798053741455,-0.719711124897,0.0921428576112,-0.255810081959,0.638816654682
1555296452408397254,4791,1555296452408397254,world,-2.89667129517,-0.821182966232,0.798045396805,-0.719650566578,0.0919471457601,-0.255653083324,0.638975918293
1555296452418710515,4792,1555296452418710515,world,-2.89668273926,-0.821149110794,0.798007249832,-0.719688177109,0.0917586684227,-0.255413174629,0.639056682587
1555296452429042605,4793,1555296452429042605,world,-2.89665699005,-0.821161270142,0.79799079895,-0.71971064806,0.0921193137765,-0.255791336298,0.638828098774
1555296452438482083,4794,1555296452438482083,world,-2.89663887024,-0.821170091629,0.798003673553,-0.719667375088,0.0922344252467,-0.255894631147,0.638818919659
1555296452448931288,4795,1555296452448931288,world,-2.89661312103,-0.821134805679,0.798043489456,-0.719698011875,0.0922223702073,-0.255951106548,0.638763487339
1555296452448973380,4796,1555296452448973380,world,-2.89659118652,-0.82115650177,0.798073768616,-0.719671905041,0.0924888774753,-0.256188124418,0.638659417629
1555296452458343375,4797,1555296452458343375,world,-2.89655590057,-0.821179628372,0.798046827316,-0.719629704952,0.0921445712447,-0.255772322416,0.638923346996
1555296452468674473,4798,1555296452468674473,world,-2.89655208588,-0.821180820465,0.798030138016,-0.719591140747,0.092310577631,-0.255888968706,0.638895988464
1555296452478949460,4799,1555296452478949460,world,-2.89656352997,-0.821187257767,0.798004865646,-0.719637155533,0.0924891233444,-0.25618699193,0.638699054718
1555296452488341935,4800,1555296452488341935,world,-2.89655685425,-0.821224927902,0.798016786575,-0.719669640064,0.0923408344388,-0.256064265966,0.638733029366
1555296452488383292,4801,1555296452488383292,world,-2.89655685425,-0.821253061295,0.79804444313,-0.719717264175,0.0923723578453,-0.256055027246,0.63867855072
1555296452498788346,4802,1555296452498788346,world,-2.89660263062,-0.821221351624,0.798050165176,-0.719739615917,0.0920639261603,-0.255767196417,0.638813197613
1555296452508094466,4803,1555296452508094466,world,-2.89660072327,-0.821242809296,0.798029184341,-0.719800651073,0.0922361239791,-0.255982846022,0.638633191586
1555296452518556404,4804,1555296452518556404,world,-2.89662361145,-0.821181774139,0.798015117645,-0.719730317593,0.0919667109847,-0.255893677473,0.638786971569
1555296452528844957,4805,1555296452528844957,world,-2.89663410187,-0.82119011879,0.798000574112,-0.719703376293,0.0922585353255,-0.256149977446,0.638672530651
1555296452538069645,4806,1555296452538069645,world,-2.89664459229,-0.821142196655,0.79803609848,-0.719689905643,0.0920674577355,-0.255650252104,0.638915419579
1555296452538109890,4807,1555296452538109890,world,-2.89666175842,-0.821175336838,0.798026800156,-0.719650804996,0.0923736765981,-0.255984276533,0.638781666756
1555296452548439288,4808,1555296452548439288,world,-2.89663219452,-0.821145772934,0.798012256622,-0.719613432884,0.0923669785261,-0.256043076515,0.638801038265
1555296452558830327,4809,1555296452558830327,world,-2.89663982391,-0.821155309677,0.797986745834,-0.719612240791,0.0925323218107,-0.256365418434,0.63864916563
1555296452578363873,4810,1555296452578363873,world,-2.89663887024,-0.821157693863,0.79799079895,-0.719614744186,0.0923759639263,-0.256085157394,0.638781547546
1555296452578402023,4811,1555296452578402023,world,-2.89662837982,-0.821224927902,0.79799413681,-0.719683647156,0.092696338892,-0.256437808275,0.638515949249
1555296452588860768,4812,1555296452588860768,world,-2.89663028717,-0.821228504181,0.798022270203,-0.719651401043,0.0924585089087,-0.256210297346,0.638678014278
1555296452598179713,4813,1555296452598179713,world,-2.89666175842,-0.821191072464,0.798047542572,-0.719686746597,0.0919984579086,-0.25567355752,0.638919591904
1555296452598220556,4814,1555296452598220556,world,-2.89664173126,-0.821198225021,0.798025608063,-0.719631314278,0.0918502360582,-0.255742073059,0.638976037502
1555296452608652499,4815,1555296452608652499,world,-2.89660167694,-0.821224927902,0.798021554947,-0.719721794128,0.0922635495663,-0.256083488464,0.638677835464
1555296452619057801,4816,1555296452619057801,world,-2.89661502838,-0.821205377579,0.79803776741,-0.719719946384,0.0919495895505,-0.255763947964,0.638853132725
1555296452628469655,4817,1555296452628469655,world,-2.89660263062,-0.821198225021,0.798053026199,-0.719796895981,0.0920624434948,-0.255696803331,0.638777017593
1555296452638924879,4818,1555296452638924879,world,-2.89659690857,-0.821187257767,0.79806470871,-0.719730734825,0.0921382457018,-0.255696415901,0.638840854168
1555296452638965911,4819,1555296452638965911,world,-2.89657211304,-0.82119679451,0.798022985458,-0.719757795334,0.092242628336,-0.255840808153,0.638737440109
1555296452648415370,4820,1555296452648415370,world,-2.89653873444,-0.821210384369,0.797989845276,-0.71975082159,0.0925647243857,-0.256394445896,0.638476610184
1555296452658813282,4821,1555296452658813282,world,-2.89657402039,-0.821193695068,0.797998189926,-0.71975839138,0.0926734060049,-0.256452322006,0.638429105282
1555296452668142569,4822,1555296452668142569,world,-2.89659023285,-0.821179389954,0.798017263412,-0.719663798809,0.0923012718558,-0.256151884794,0.638710200787
1555296452678593043,4823,1555296452678593043,world,-2.8966217041,-0.821156024933,0.798038005829,-0.719620227814,0.0921170115471,-0.255984812975,0.638852834702
1555296452688962365,4824,1555296452688962365,world,-2.89664554596,-0.82115149498,0.798015594482,-0.719573616982,0.0919492691755,-0.25584602356,0.638985097408
1555296452689003740,4825,1555296452689003740,world,-2.89666366577,-0.82116317749,0.797981023788,-0.719564497471,0.0919084921479,-0.255657374859,0.639076769352
1555296452698231795,4826,1555296452698231795,world,-2.89662742615,-0.82119679451,0.797993898392,-0.719698250294,0.0924124196172,-0.2559222579,0.638747274876
1555296452708487735,4827,1555296452708487735,world,-2.89665412903,-0.821190357208,0.798017263412,-0.719715833664,0.0922540128231,-0.255926042795,0.638748884201
1555296452718822583,4828,1555296452718822583,world,-2.89664077759,-0.821217536926,0.79803276062,-0.719658613205,0.0920861065388,-0.255743503571,0.638910651207
1555296452728124280,4829,1555296452728124280,world,-2.89665985107,-0.82120013237,0.798041820526,-0.719696879387,0.0918327122927,-0.255832225084,0.638868510723
1555296452738475026,4830,1555296452738475026,world,-2.89661884308,-0.821217775345,0.798016786575,-0.719673871994,0.0925364494324,-0.256455093622,0.638543128967
1555296452738551135,4831,1555296452738551135,world,-2.89658546448,-0.821225881577,0.797994375229,-0.719666302204,0.0924269631505,-0.256127089262,0.638699173927
1555296452749006827,4832,1555296452749006827,world,-2.89657783508,-0.821229457855,0.797993421555,-0.719697713852,0.0925599932671,-0.256355196238,0.638552904129
1555296452758344564,4833,1555296452758344564,world,-2.89656066895,-0.821193218231,0.798024654388,-0.719636976719,0.0921828523278,-0.255755364895,0.638916313648
1555296452768781338,4834,1555296452768781338,world,-2.89654541016,-0.821215867996,0.798046827316,-0.719639182091,0.0923767834902,-0.256098747253,0.638748347759
1555296452779070000,4835,1555296452779070000,world,-2.89652442932,-0.821220874786,0.79804444313,-0.719685792923,0.092612683773,-0.256344586611,0.638563156128
1555296452788484687,4836,1555296452788484687,world,-2.89652919769,-0.821198225021,0.798026561737,-0.719659566879,0.0923547148705,-0.256079703569,0.638736248016
1555296452788561816,4837,1555296452788561816,world,-2.89654541016,-0.821186542511,0.798018693924,-0.719677507877,0.0922468677163,-0.255940377712,0.638787329197
1555296452798892449,4838,1555296452798892449,world,-2.8965511322,-0.82120847702,0.79803276062,-0.719683885574,0.0923821032047,-0.256269127131,0.638628959656
1555296452818567318,4839,1555296452818567318,world,-2.89654254913,-0.821205854416,0.798058509827,-0.719666242599,0.0923027694225,-0.255838662386,0.638832807541
1555296452818609201,4840,1555296452818609201,world,-2.89656352997,-0.821186542511,0.798051834106,-0.71964854002,0.0923115238547,-0.256084054708,0.638753116131
1555296452828998936,4841,1555296452828998936,world,-2.89656639099,-0.821213006973,0.79799747467,-0.719622969627,0.0921147018671,-0.25587272644,0.638894975185
1555296452868350583,4842,1555296452868350583,world,-2.8965845108,-0.821221351624,0.797965049744,-0.719635307789,0.092258669436,-0.25590506196,0.638847410679
1555296452868438704,4845,1555296452868438704,world,-2.89665985107,-0.821174621582,0.798054456711,-0.719696581364,0.0920351222157,-0.255723655224,0.638883173466
1555296452868502487,4846,1555296452868502487,world,-2.89667129517,-0.821147918701,0.798022508621,-0.719639897346,0.0919115394354,-0.255699753761,0.638974368572
1555296452898391094,4847,1555296452898391094,world,-2.89664936066,-0.821153640747,0.797980546951,-0.719603598118,0.0921491160989,-0.255833208561,0.63892775774
1555296452898429701,4848,1555296452898429701,world,-2.89667034149,-0.821148872375,0.798003435135,-0.719681203365,0.0921049043536,-0.256026953459,0.638769090176
1555296452898471713,4849,1555296452898471713,world,-2.89664173126,-0.821202754974,0.798033475876,-0.719705879688,0.0923755541444,-0.256174653769,0.638642907143
1555296452898494467,4850,1555296452898494467,world,-2.89659023285,-0.82123041153,0.798052072525,-0.719696700573,0.0926136299968,-0.256344139576,0.638550758362
1555296452908789871,4851,1555296452908789871,world,-2.89659976959,-0.821194410324,0.798025846481,-0.719639778137,0.0924492478371,-0.256252199411,0.638675689697
1555296452918037673,4852,1555296452918037673,world,-2.89659309387,-0.821191549301,0.797988414764,-0.719648957253,0.0923673659563,-0.256105899811,0.638735711575
1555296452928421142,4853,1555296452928421142,world,-2.89657497406,-0.821224451065,0.797994613647,-0.719689190388,0.0923501327634,-0.256228029728,0.638644039631
1555296452938757795,4854,1555296452938757795,world,-2.89660549164,-0.821166753769,0.798035860062,-0.719670832157,0.0921548381448,-0.255952566862,0.638803362846
1555296452938794740,4855,1555296452938794740,world,-2.89661502838,-0.821142196655,0.798059463501,-0.719663023949,0.0918738991022,-0.255435228348,0.639059722424
1555296452949104019,4856,1555296452949104019,world,-2.89663314819,-0.821138620377,0.798062801361,-0.719623208046,0.0916797369719,-0.255330204964,0.639174163342
1555296452958444541,4857,1555296452958444541,world,-2.89660835266,-0.821153879166,0.798042297363,-0.719744384289,0.0921967551112,-0.255957335234,0.638712584972
1555296452968830916,4858,1555296452968830916,world,-2.89658260345,-0.821172237396,0.798016786575,-0.719710290432,0.0925843641162,-0.256373375654,0.638528048992
1555296452978235202,4859,1555296452978235202,world,-2.8965921402,-0.821163654327,0.798012733459,-0.719726026058,0.0925891324878,-0.256267875433,0.63855189085
1555296452988525554,4860,1555296452988525554,world,-2.8966293335,-0.821136474609,0.798020362854,-0.719746351242,0.0923024713993,-0.256130725145,0.638625383377
1555296452998862244,4861,1555296452998862244,world,-2.89663410187,-0.821138381958,0.798046827316,-0.719670295715,0.0921270847321,-0.255902558565,0.638828039169
1555296452998913561,4862,1555296452998913561,world,-2.89661502838,-0.821192026138,0.798026800156,-0.719640314579,0.092490144074,-0.256404697895,0.638607800007
1555296453008223519,4863,1555296453008223519,world,-2.89660930634,-0.821177959442,0.797995567322,-0.719619452953,0.0923631414771,-0.2563136518,0.638686358929
1555296453018689767,4864,1555296453018689767,world,-2.89661693573,-0.821173906326,0.79799747467,-0.719658136368,0.0923525094986,-0.256047606468,0.638751029968
1555296453028977783,4865,1555296453028977783,world,-2.89661884308,-0.821177244186,0.798018693924,-0.719758749008,0.0922165811062,-0.255962491035,0.638691425323
1555296453038258804,4866,1555296453038258804,world,-2.89660930634,-0.821178436279,0.798048257828,-0.719723880291,0.0919689163566,-0.255651205778,0.638891160488
1555296453038326216,4867,1555296453038326216,world,-2.89660739899,-0.821157932281,0.798062086105,-0.71967703104,0.0921852365136,-0.255914270878,0.638807356358
1555296453048702390,4868,1555296453048702390,world,-2.89658927917,-0.82116985321,0.798025608063,-0.719622373581,0.0924142003059,-0.256084084511,0.638767719269
1555296453059139461,4869,1555296453059139461,world,-2.89655208588,-0.821195602417,0.797998666763,-0.719620943069,0.0923105180264,-0.255999952555,0.638818025589
1555296453068584522,4870,1555296453068584522,world,-2.89657020569,-0.8211581707,0.798039913177,-0.719636142254,0.0922573432326,-0.256043404341,0.638791263103
1555296453079069379,4871,1555296453079069379,world,-2.89657878876,-0.821156740189,0.798054218292,-0.719616115093,0.0922171995044,-0.256062358618,0.63881200552
1555296453088366351,4872,1555296453088366351,world,-2.89655303955,-0.821168899536,0.798032045364,-0.719637453556,0.0922588184476,-0.255951106548,0.638826429844
1555296453088405989,4873,1555296453088405989,world,-2.89659118652,-0.821170091629,0.798025608063,-0.719692111015,0.0922179669142,-0.255961894989,0.638766467571
1555296453098841135,4874,1555296453098841135,world,-2.89658737183,-0.821193695068,0.798044919968,-0.719660639763,0.0923012048006,-0.255799531937,0.638854920864
1555296453108175716,4875,1555296453108175716,world,-2.89659309387,-0.821207761765,0.798028469086,-0.719608545303,0.0920024216175,-0.255662351847,0.639011621475
1555296453118604676,4876,1555296453118604676,world,-2.89661884308,-0.821194410324,0.798006296158,-0.719676315784,0.0922747924924,-0.25614207983,0.638703882694
1555296453128986949,4877,1555296453128986949,world,-2.8966588974,-0.821197748184,0.798009157181,-0.719755589962,0.0921666845679,-0.255963891745,0.638701617718
1555296453138368092,4878,1555296453138368092,world,-2.89667892456,-0.821212053299,0.797993898392,-0.719668805599,0.0920791551471,-0.255824655294,0.638867795467
1555296453138438079,4879,1555296453138438079,world,-2.89669513702,-0.821226596832,0.798012018204,-0.719725608826,0.0921046733856,-0.255936533213,0.638755321503
1555296453148820576,4880,1555296453148820576,world,-2.89671611786,-0.821206569672,0.797991275787,-0.71976596117,0.0920669212937,-0.255759447813,0.638786196709
1555296453158084916,4881,1555296453158084916,world,-2.89672851562,-0.82116150856,0.797976255417,-0.719663858414,0.0920890271664,-0.255814105272,0.638876199722
1555296453168462492,4882,1555296453168462492,world,-2.89668941498,-0.821138858795,0.797969102859,-0.719688117504,0.092265419662,-0.256140649319,0.638692378998
1555296453178854439,4883,1555296453178854439,world,-2.89664649963,-0.821145772934,0.7979991436,-0.719696521759,0.0921151340008,-0.255764514208,0.638855457306
1555296453188056580,4884,1555296453188056580,world,-2.89663028717,-0.821144580841,0.79802775383,-0.719730138779,0.0920736789703,-0.255859404802,0.638785600662
1555296453198446570,4885,1555296453198446570,world,-2.89660167694,-0.821115255356,0.798047542572,-0.719674408436,0.0923076942563,-0.256255239248,0.638655781746
1555296453198491014,4886,1555296453198491014,world,-2.89653968811,-0.821162223816,0.798015356064,-0.719641566277,0.0925014764071,-0.256188035011,0.638691842556
1555296453208859367,4887,1555296453208859367,world,-2.89650154114,-0.821209192276,0.797992706299,-0.719697475433,0.0927739739418,-0.256258010864,0.638561248779
1555296453218121520,4888,1555296453218121520,world,-2.89650535583,-0.821186065674,0.798046827316,-0.719707548618,0.0924614742398,-0.256085574627,0.63866430521
1555296453228401640,4889,1555296453228401640,world,-2.896525383,-0.82119345665,0.798092842102,-0.719652354717,0.0922198221087,-0.255933970213,0.638822257519
1555296453238696734,4890,1555296453238696734,world,-2.89649581909,-0.821222543716,0.798089981079,-0.719615697861,0.0921604037285,-0.255696177483,0.63896727562
1555296453238732611,4891,1555296453238732611,world,-2.89647483826,-0.821228742599,0.798040866852,-0.719771802425,0.0924745127559,-0.255907386541,0.638661563396
1555296453249142750,4892,1555296453249142750,world,-2.89650630951,-0.821200609207,0.798054933548,-0.719697058201,0.0921583250165,-0.255724966526,0.638864338398
1555296453258582851,4893,1555296453258582851,world,-2.89653396606,-0.821192264557,0.798023700714,-0.719717741013,0.0921579003334,-0.255856662989,0.638788461685
1555296453268896553,4894,1555296453268896553,world,-2.89655685425,-0.821193218231,0.798048019409,-0.719652414322,0.0923862755299,-0.255993276834,0.638774394989
1555296453278362897,4895,1555296453278362897,world,-2.89662742615,-0.821109056473,0.798077106476,-0.719604790211,0.0917434468865,-0.255407631397,0.639154970646
1555296453288696047,4896,1555296453288696047,world,-2.89661502838,-0.82115316391,0.798035621643,-0.719566702843,0.0923340767622,-0.255904197693,0.638914048672
1555296453299091717,4897,1555296453299091717,world,-2.89663600922,-0.821160554886,0.798018932343,-0.719650685787,0.0925258025527,-0.256252259016,0.638652265072
1555296453299130670,4898,1555296453299130670,world,-2.89667510986,-0.821156263351,0.797994613647,-0.71966022253,0.0921270176768,-0.256073325872,0.638770997524
1555296453308562430,4899,1555296453308562430,world,-2.8966588974,-0.821184158325,0.797957658768,-0.719719588757,0.0923665091395,-0.256152123213,0.638637959957
1555296453318085437,4900,1555296453318085437,world,-2.89666557312,-0.821177005768,0.797970533371,-0.719752788544,0.0923390090466,-0.256177783012,0.638594150543
1555296453328533337,4901,1555296453328533337,world,-2.89671516418,-0.821181297302,0.798029661179,-0.719743251801,0.0921669602394,-0.256085276604,0.63866686821
1555296453338927430,4902,1555296453338927430,world,-2.89670085907,-0.821195363998,0.798045635223,-0.719758808613,0.0921835079789,-0.256060183048,0.638656914234
1555296453338967853,4903,1555296453338967853,world,-2.89670085907,-0.821172475815,0.798027515411,-0.719696819782,0.0918535366654,-0.255551159382,0.63897806406
1555296453348385075,4904,1555296453348385075,world,-2.89661407471,-0.821220636368,0.797985076904,-0.719702482224,0.0922841727734,-0.256124049425,0.63868021965
1555296453358784323,4905,1555296453358784323,world,-2.89658737183,-0.821223974228,0.798020362854,-0.719601690769,0.0920447781682,-0.255829870701,0.638946115971
1555296453368049176,4906,1555296453368049176,world,-2.89656448364,-0.821233034134,0.798064231873,-0.71961671114,0.0921573117375,-0.255990773439,0.638848602772
1555296453378327004,4907,1555296453378327004,world,-2.89656829834,-0.821190595627,0.798078536987,-0.719604492188,0.0922572016716,-0.255825072527,0.638914346695
1555296453388648944,4908,1555296453388648944,world,-2.896525383,-0.821208000183,0.79803943634,-0.719644606113,0.0923949554563,-0.255907028913,0.638816475868
1555296453388720088,4909,1555296453388720088,world,-2.89650058746,-0.821198701859,0.798018455505,-0.719672143459,0.0924929007888,-0.256177484989,0.638662815094
1555296453399153227,4910,1555296453399153227,world,-2.89648914337,-0.821203231812,0.798021316528,-0.7197047472,0.092751994729,-0.256457328796,0.638476073742
1555296453408601733,4911,1555296453408601733,world,-2.89652824402,-0.82116651535,0.798057556152,-0.719688951969,0.0923847034574,-0.256212413311,0.638645470142
1555296453419044821,4912,1555296453419044821,world,-2.89655303955,-0.821139335632,0.798035621643,-0.719688773155,0.0923589915037,-0.25610268116,0.638693511486
1555296453428437584,4913,1555296453428437584,world,-2.89655590057,-0.82116317749,0.797990322113,-0.71973747015,0.0924062654376,-0.256266921759,0.638565957546
1555296453438880875,4914,1555296453438880875,world,-2.89657783508,-0.821172714233,0.798012018204,-0.71970719099,0.092384211719,-0.255985945463,0.638715922832
1555296453448318523,4915,1555296453448318523,world,-2.89662837982,-0.821136951447,0.798022031784,-0.719668209553,0.0921125784516,-0.255795300007,0.638875305653
1555296453458730939,4916,1555296453458730939,world,-2.8966588974,-0.821145772934,0.798023223877,-0.719777405262,0.0922285988927,-0.255867898464,0.638706505299
1555296453458773045,4917,1555296453458773045,world,-2.89662265778,-0.821191072464,0.798004388809,-0.719696521759,0.0922529995441,-0.25594869256,0.638761758804
1555296453468021339,4918,1555296453468021339,world,-2.89666748047,-0.82119846344,0.797983407974,-0.7196803689,0.0922004953027,-0.255979001522,0.638775408268
1555296453478313890,4919,1555296453478313890,world,-2.89669418335,-0.821150064468,0.79803276062,-0.719707489014,0.0919836759567,-0.255799561739,0.63884806633
1555296453498893043,4920,1555296453498893043,world,-2.89664936066,-0.82121515274,0.798033714294,-0.719646453857,0.0923840105534,-0.256002575159,0.638777732849
1555296453508171301,4921,1555296453508171301,world,-2.89661598206,-0.821228742599,0.798039913177,-0.719700694084,0.0925384908915,-0.256227612495,0.6386038661
1555296453508205686,4922,1555296453508205686,world,-2.89660549164,-0.821183204651,0.79803943634,-0.719720304012,0.0922954902053,-0.255956619978,0.638725697994
1555296453508247911,4923,1555296453508247911,world,-2.89657020569,-0.821213245392,0.798004865646,-0.719693124294,0.0926101133227,-0.25608676672,0.638658702374
1555296453518578763,4924,1555296453518578763,world,-2.89654827118,-0.821219682693,0.798026323318,-0.719728946686,0.0924791395664,-0.256117582321,0.63862490654
1555296453529006145,4925,1555296453529006145,world,-2.89652824402,-0.821222305298,0.798063993454,-0.719720423222,0.0926769450307,-0.256409943104,0.638488352299
1555296453538336785,4926,1555296453538336785,world,-2.89652061462,-0.821226358414,0.798057794571,-0.719744801521,0.0925811976194,-0.256382226944,0.638486087322
1555296453538399392,4927,1555296453538399392,world,-2.89654254913,-0.821172952652,0.798043966293,-0.719713389874,0.0921503528953,-0.255949109793,0.638757407665
1555296453548792251,4928,1555296453548792251,world,-2.89656066895,-0.82116818428,0.798045158386,-0.719765484333,0.0922580733895,-0.256104201078,0.638620972633
1555296453568457098,4929,1555296453568457098,world,-2.89653491974,-0.821192502975,0.798042058945,-0.719722509384,0.0924345552921,-0.256188184023,0.638610124588
1555296453568526045,4930,1555296453568526045,world,-2.89653968811,-0.821211099625,0.798020601273,-0.719688594341,0.0924843773246,-0.256400287151,0.638556003571
1555296453608836639,4931,1555296453608836639,world,-2.89655017853,-0.821212053299,0.79802107811,-0.719812631607,0.0927024781704,-0.256436854601,0.638370037079
1555296453608912868,4932,1555296453608912868,world,-2.89657878876,-0.821192741394,0.798037052155,-0.719646215439,0.0925432145596,-0.256226807833,0.638664960861
1555296453608941548,4933,1555296453608941548,world,-2.89660930634,-0.821162462234,0.798013448715,-0.719722270966,0.0921618044376,-0.256003379822,0.638724088669
1555296453608992431,4934,1555296453608992431,world,-2.89663314819,-0.821166992188,0.798030614853,-0.719695091248,0.0921701192856,-0.256078869104,0.638723134995
1555296453609018981,4935,1555296453609018981,world,-2.89665031433,-0.821158885956,0.798041343689,-0.719621062279,0.0920576900244,-0.255719780922,0.638966500759
1555296453618463000,4936,1555296453618463000,world,-2.89663982391,-0.821174621582,0.79804444313,-0.719677150249,0.0921479389071,-0.255976051092,0.638787925243
1555296453648436460,4937,1555296453648436460,world,-2.89662742615,-0.821180582047,0.798012495041,-0.719674348831,0.0922289788723,-0.256313592196,0.638643980026
1555296453648504379,4938,1555296453648504379,world,-2.89664459229,-0.821182489395,0.798016548157,-0.719690799713,0.0923667550087,-0.256048321724,0.638711929321
1555296453648531370,4939,1555296453648531370,world,-2.8966255188,-0.821193933487,0.798019647598,-0.719701230526,0.0923129245639,-0.255866974592,0.638780534267
1555296453648591202,4940,1555296453648591202,world,-2.89661026001,-0.821215391159,0.798038005829,-0.719725489616,0.0925154238939,-0.25626206398,0.638565480709
1555296453658871029,4941,1555296453658871029,world,-2.8966255188,-0.82115983963,0.798049926758,-0.719758987427,0.0920296907425,-0.255711823702,0.638818502426
1555296453708167974,4942,1555296453708167974,world,-2.89660739899,-0.821177482605,0.798026561737,-0.719713866711,0.0921208783984,-0.255954474211,0.638759076595
1555296453708223821,4943,1555296453708223821,world,-2.89658260345,-0.82116818428,0.798021793365,-0.719682991505,0.0923609212041,-0.25599104166,0.638744413853
1555296453708244981,4944,1555296453708244981,world,-2.89655399323,-0.821195363998,0.798047780991,-0.71966189146,0.0924746617675,-0.256256908178,0.638645112514
1555296453718755948,4945,1555296453718755948,world,-2.89656734467,-0.821183919907,0.798053979874,-0.719661533833,0.0923524871469,-0.255978167057,0.638774931431
1555296453718780682,4946,1555296453718780682,world,-2.89653205872,-0.821194171906,0.798029899597,-0.719745516777,0.0927502065897,-0.2563611269,0.638469159603
1555296453718819220,4947,1555296453718819220,world,-2.89653205872,-0.821177482605,0.798039913177,-0.719686746597,0.0926614403725,-0.256118804216,0.638645410538
1555296453718839979,4948,1555296453718839979,world,-2.896525383,-0.821204662323,0.798015356064,-0.719725251198,0.0928465276957,-0.256518959999,0.638414561749
1555296453728044956,4949,1555296453728044956,world,-2.89655780792,-0.821207523346,0.798002243042,-0.719756186008,0.0925367251039,-0.25636190176,0.638487637043
1555296453738258617,4950,1555296453738258617,world,-2.89657497406,-0.821236848831,0.798025131226,-0.719700992107,0.0926472172141,-0.256381005049,0.638526380062
1555296453738305298,4951,1555296453738305298,world,-2.89664077759,-0.821185827255,0.798049211502,-0.719626009464,0.0920304134488,-0.255561292171,0.63902837038
1555296453748585451,4952,1555296453748585451,world,-2.89665031433,-0.821201324463,0.798034191132,-0.719566524029,0.0921300277114,-0.255581945181,0.639072835445
1555296453758921103,4953,1555296453758921103,world,-2.89665794373,-0.821202993393,0.798006534576,-0.719600021839,0.0918722227216,-0.255683600903,0.639031469822
1555296453768365976,4954,1555296453768365976,world,-2.89666461945,-0.82120347023,0.797988176346,-0.719650745392,0.0920070111752,-0.255887418985,0.638873338699
1555296453778694965,4955,1555296453778694965,world,-2.89664840698,-0.821204423904,0.797995567322,-0.719691574574,0.0921368077397,-0.255884826183,0.638809740543
1555296453788990078,4956,1555296453788990078,world,-2.89664459229,-0.821188688278,0.798015117645,-0.719765603542,0.0921305045485,-0.255732834339,0.638788163662
1555296453789033325,4957,1555296453789033325,world,-2.89662361145,-0.821193218231,0.798032283783,-0.719707012177,0.0924227833748,-0.256179332733,0.638633012772
1555296453798399822,4958,1555296453798399822,world,-2.89659881592,-0.821165323257,0.797999620438,-0.719644904137,0.0925413221121,-0.256206512451,0.638674914837
1555296453808794512,4959,1555296453808794512,world,-2.89659786224,-0.821173906326,0.797975063324,-0.719628989697,0.0924814268947,-0.256215661764,0.63869780302
1555296453818060515,4960,1555296453818060515,world,-2.89656162262,-0.82114315033,0.798013448715,-0.719601273537,0.0921508520842,-0.25592315197,0.638894021511
1555296453828457705,4961,1555296453828457705,world,-2.8965959549,-0.821147918701,0.798043966293,-0.719769060612,0.0923743620515,-0.256005972624,0.638639569283
1555296453838842639,4962,1555296453838842639,world,-2.89660358429,-0.821135282516,0.798065662384,-0.71962839365,0.0920258834958,-0.255649626255,0.638990938663
1555296453838883496,4963,1555296453838883496,world,-2.89656925201,-0.821200370789,0.79801774025,-0.719616651535,0.0922181606293,-0.255899071693,0.638876676559
1555296453848259296,4964,1555296453848259296,world,-2.89657688141,-0.821190834045,0.797982692719,-0.719684541225,0.092521302402,-0.256113708019,0.638670384884
1555296453858662619,4965,1555296453858662619,world,-2.89658260345,-0.821195363998,0.798008918762,-0.719746112823,0.0925074517727,-0.256239771843,0.638552427292
1555296453868930470,4966,1555296453868930470,world,-2.89656162262,-0.821244478226,0.798042058945,-0.719765424728,0.0923785567284,-0.2559479177,0.638666391373
1555296453878315928,4967,1555296453878315928,world,-2.89658641815,-0.821232795715,0.79803609848,-0.719717562199,0.0923450961709,-0.255978405476,0.638712704182
1555296453888651908,4968,1555296453888651908,world,-2.89658355713,-0.82123208046,0.798001050949,-0.719668507576,0.092346444726,-0.256022810936,0.638750016689
1555296453888693844,4969,1555296453888693844,world,-2.89659500122,-0.821230173111,0.797986745834,-0.719663083553,0.0922065600753,-0.256112754345,0.638740301132
1555296453899015369,4970,1555296453899015369,world,-2.89661312103,-0.821230173111,0.798000335693,-0.719658613205,0.092438429594,-0.256076842546,0.638726234436
1555296453908354784,4971,1555296453908354784,world,-2.89662742615,-0.821177005768,0.798046350479,-0.719668924809,0.0922289565206,-0.255879372358,0.638824105263
1555296453918814560,4972,1555296453918814560,world,-2.89663696289,-0.821171522141,0.798028707504,-0.719765245914,0.092435695231,-0.255928456783,0.63866597414
1555296453928094621,4973,1555296453928094621,world,-2.89661598206,-0.821155548096,0.798002719879,-0.719773590565,0.0923641100526,-0.256038963795,0.638622581959
1555296453938498949,4974,1555296453938498949,world,-2.8966255188,-0.821178674698,0.797969818115,-0.719729721546,0.0925302878022,-0.256450951099,0.638482630253
1555296453938541515,4975,1555296453938541515,world,-2.89662647247,-0.821161270142,0.798013448715,-0.719700932503,0.0923905223608,-0.256097316742,0.638677299023
1555296453948816075,4976,1555296453948816075,world,-2.89661884308,-0.821155309677,0.7980427742,-0.719624578953,0.0921871438622,-0.256029069424,0.638819992542
1555296453958139168,4977,1555296453958139168,world,-2.89661598206,-0.821168661118,0.798044204712,-0.719645321369,0.0921619907022,-0.255926191807,0.638841688633
1555296453968478163,4978,1555296453968478163,world,-2.89661502838,-0.821167230606,0.798013448715,-0.719658434391,0.0921646729112,-0.255837649107,0.638862013817
1555296453978881151,4979,1555296453978881151,world,-2.89659500122,-0.821202516556,0.797980070114,-0.719722270966,0.0923069119453,-0.256159693003,0.638640403748
1555296453988325760,4980,1555296453988325760,world,-2.89656543732,-0.821234941483,0.798003673553,-0.719688892365,0.0923281908035,-0.256397157907,0.63857960701
1555296453988367394,4981,1555296453988367394,world,-2.89659404755,-0.821228504181,0.798026561737,-0.719731748104,0.0922176763415,-0.256171792746,0.638637721539
1555296453998802810,4982,1555296453998802810,world,-2.89658737183,-0.821212053299,0.798054695129,-0.719676136971,0.0921529978514,-0.255827188492,0.638847768307
1555296454008097894,4983,1555296454008097894,world,-2.89660072327,-0.821188688278,0.79803276062,-0.719758331776,0.0922257080674,-0.25590211153,0.63871461153
1555296454018507818,4984,1555296454018507818,world,-2.89659786224,-0.821192741394,0.797983884811,-0.719718933105,0.0923337340355,-0.256063818932,0.638678789139
1555296454028916286,4985,1555296454028916286,world,-2.89660549164,-0.821164608002,0.797993183136,-0.719690084457,0.0921756923199,-0.256076812744,0.63872885704
1555296454038363145,4986,1555296454038363145,world,-2.89661407471,-0.821169137955,0.798010587692,-0.719698131084,0.0924314782023,-0.256291598082,0.638596713543
1555296454038408029,4987,1555296454038408029,world,-2.89664173126,-0.821123600006,0.798061847687,-0.71967869997,0.0920596495271,-0.255958259106,0.638805925846
1555296454048835681,4988,1555296454048835681,world,-2.89662265778,-0.821171045303,0.798019647598,-0.719709396362,0.0923024117947,-0.256220817566,0.638631105423
1555296454058171607,4989,1555296454058171607,world,-2.89663982391,-0.821133852005,0.797983646393,-0.719749748707,0.0924508944154,-0.256370633841,0.638503909111
1555296454068623240,4990,1555296454068623240,world,-2.89666652679,-0.821150302887,0.797966003418,-0.719845831394,0.0923778191209,-0.256340831518,0.638418078423
1555296454078899574,4991,1555296454078899574,world,-2.89669704437,-0.821148633957,0.797995090485,-0.719732284546,0.0918232798576,-0.255513340235,0.638957738876
1555296454078939604,4992,1555296454078939604,world,-2.89669513702,-0.821138858795,0.798044204712,-0.719699621201,0.0918798446655,-0.255412966013,0.639026403427
1555296454088422950,4993,1555296454088422950,world,-2.89667320251,-0.821187257767,0.798024654388,-0.719666779041,0.0920922830701,-0.255801588297,0.63887745142
1555296454098827982,4994,1555296454098827982,world,-2.89667892456,-0.821202516556,0.798006534576,-0.719629049301,0.0920080244541,-0.255744963884,0.638954639435
1555296454108146577,4995,1555296454108146577,world,-2.89663696289,-0.821226358414,0.797979593277,-0.719707369804,0.0924226790667,-0.256051659584,0.638683736324
1555296454118522237,4996,1555296454118522237,world,-2.89661407471,-0.821226119995,0.798020124435,-0.719685316086,0.0923235118389,-0.256210356951,0.638659238815
1555296454128980331,4997,1555296454128980331,world,-2.89665031433,-0.821194648743,0.798059463501,-0.719623625278,0.0920808687806,-0.256006658077,0.63884550333
1555296454138361403,4998,1555296454138361403,world,-2.89660358429,-0.821206092834,0.798025608063,-0.719773173332,0.0927757769823,-0.256367206573,0.638431727886
1555296454138408074,4999,1555296454138408074,world,-2.89661598206,-0.821171998978,0.798027992249,-0.719762504101,0.0923604890704,-0.256001681089,0.63865083456
1555296454148723552,5000,1555296454148723552,world,-2.89658164978,-0.821168422699,0.798002719879,-0.719813406467,0.0925478413701,-0.256269544363,0.638458848
1555296454159111411,5001,1555296454159111411,world,-2.89659404755,-0.821182966232,0.798010587692,-0.719766736031,0.0928660482168,-0.256588101387,0.63833707571
1555296454168463421,5002,1555296454168463421,world,-2.89658164978,-0.821185112,0.798044204712,-0.719768822193,0.0928052738309,-0.256550520658,0.638358712196
1555296454178857912,5003,1555296454178857912,world,-2.8965921402,-0.821190595627,0.79803109169,-0.719667434692,0.0925177037716,-0.256152659655,0.638674497604
1555296454188118372,5004,1555296454188118372,world,-2.89659500122,-0.821185588837,0.798006296158,-0.719723343849,0.0924939960241,-0.256252557039,0.638574779034
1555296454188156628,5005,1555296454188156628,world,-2.89660072327,-0.821214675903,0.797998905182,-0.71970641613,0.0924903601408,-0.256236672401,0.638600766659
1555296454198463605,5006,1555296454198463605,world,-2.89660930634,-0.821228981018,0.798036813736,-0.719632446766,0.0923374071717,-0.256006658077,0.63879853487
1555296454208835169,5007,1555296454208835169,world,-2.89664649963,-0.821184396744,0.798060178757,-0.719738304615,0.0920092836022,-0.255630552769,0.638877213001
1555296454218088734,5008,1555296454218088734,world,-2.89660930634,-0.821228265762,0.798022985458,-0.719712436199,0.092342428863,-0.256087958813,0.638674974442
1555296454228483224,5009,1555296454228483224,world,-2.89659500122,-0.821233987808,0.797983169556,-0.719715476036,0.0924776047468,-0.256190419197,0.638611018658
1555296454238876300,5010,1555296454238876300,world,-2.8966178894,-0.821245193481,0.797964811325,-0.719788730145,0.0925529524684,-0.256434172392,0.638419806957
1555296454238923771,5011,1555296454238923771,world,-2.89662075043,-0.821203947067,0.797986268997,-0.719673991203,0.0922472923994,-0.256045103073,0.638749301434
1555296454248292076,5012,1555296454248292076,world,-2.89658355713,-0.821235179901,0.798010110855,-0.719634711742,0.0927405878901,-0.256418675184,0.638572394848
1555296454258700032,5013,1555296454258700032,world,-2.89663982391,-0.821162939072,0.79806470871,-0.71962428093,0.0922548174858,-0.255749255419,0.638922691345
1555296454269031893,5014,1555296454269031893,world,-2.8965883255,-0.821211576462,0.798002719879,-0.719672977924,0.0929028466344,-0.256602138281,0.6384319067
1555296454278418014,5015,1555296454278418014,world,-2.89661884308,-0.821162939072,0.797969579697,-0.719632387161,0.0923844277859,-0.256190806627,0.638717889786
1555296454288929476,5016,1555296454288929476,world,-2.89659309387,-0.821187973022,0.797965288162,-0.719650387764,0.0924962311983,-0.256261587143,0.638653218746
1555296454288970843,5017,1555296454288970843,world,-2.89662456512,-0.821182966232,0.798039197922,-0.719604849815,0.0922106057405,-0.255907654762,0.638887584209
1555296454298411162,5018,1555296454298411162,world,-2.89661121368,-0.821192026138,0.798090457916,-0.719664096832,0.0923328399658,-0.255883693695,0.63881278038
1555296454308861674,5019,1555296454308861674,world,-2.89658069611,-0.821209430695,0.798054695129,-0.719814360142,0.0924585536122,-0.256303220987,0.638457119465
1555296454318511797,5020,1555296454318511797,world,-2.89655590057,-0.821213960648,0.797988176346,-0.719747960567,0.0924463197589,-0.256355255842,0.638512790203
1555296454328812212,5021,1555296454328812212,world,-2.89657306671,-0.821218013763,0.797974824905,-0.71976429224,0.0924860313535,-0.256421178579,0.63846218586
1555296454328882773,5022,1555296454328882773,world,-2.89662837982,-0.821193695068,0.798056840897,-0.71964019537,0.0922555550933,-0.255905240774,0.638842284679
1555296454338263938,5023,1555296454338263938,world,-2.89660072327,-0.821251392365,0.798091650009,-0.719697237015,0.0926271378994,-0.256187438965,0.638611078262
1555296454348688149,5024,1555296454348688149,world,-2.89659786224,-0.821213006973,0.798047304153,-0.719779789448,0.0923926308751,-0.256103098392,0.638585865498
1555296454359094537,5025,1555296454359094537,world,-2.89659309387,-0.821226358414,0.797947645187,-0.719803929329,0.0925004333258,-0.256252884865,0.638482987881
1555296454368428276,5026,1555296454368428276,world,-2.8965921402,-0.821204423904,0.797958612442,-0.719811499119,0.0926279500127,-0.256372630596,0.638407766819
1555296454389013564,5027,1555296454389013564,world,-2.89661884308,-0.821219921112,0.797997713089,-0.719750881195,0.0925587713718,-0.256353884935,0.638493776321
1555296454389058038,5028,1555296454389058038,world,-2.89665031433,-0.821179151535,0.798041343689,-0.719681143761,0.0921383053064,-0.255889177322,0.638819396496
1555296454389111911,5029,1555296454389111911,world,-2.89663600922,-0.821168422699,0.798038482666,-0.719691812992,0.0924547091126,-0.256056964397,0.63869458437
1555296454398465543,5030,1555296454398465543,world,-2.89660263062,-0.821211099625,0.797976016998,-0.719775497913,0.0926737859845,-0.256401598454,0.638430178165
1555296454408871078,5031,1555296454408871078,world,-2.89660263062,-0.821205377579,0.797978878021,-0.719641983509,0.0924310460687,-0.25601786375,0.638769686222
1555296454418260736,5032,1555296454418260736,world,-2.89663219452,-0.821187496185,0.797990083694,-0.719658613205,0.0923725366592,-0.256162554026,0.638701438904
1555296454428644154,5033,1555296454428644154,world,-2.89663887024,-0.821154356003,0.798053026199,-0.719702422619,0.0919969901443,-0.255624979734,0.638921678066
1555296454439029510,5034,1555296454439029510,world,-2.89661979675,-0.82119846344,0.798042297363,-0.719703495502,0.0922852233052,-0.256109893322,0.638684570789
1555296454448409933,5035,1555296454448409933,world,-2.89658260345,-0.821198940277,0.798006296158,-0.719751179218,0.0926018133759,-0.256442248821,0.638451635838
1555296454448448631,5036,1555296454448448631,world,-2.89658546448,-0.821207284927,0.797979354858,-0.719662845135,0.0925474986434,-0.256255358458,0.63863414526
1555296454458923986,5037,1555296454458923986,world,-2.89658737183,-0.821193933487,0.79798746109,-0.719654381275,0.092297680676,-0.256093204021,0.63874489069
1555296454468370610,5038,1555296454468370610,world,-2.89659976959,-0.82119679451,0.798049449921,-0.719640791416,0.0923073664308,-0.256264746189,0.638690054417
1555296454478775877,5039,1555296454478775877,world,-2.89658164978,-0.821228027344,0.798052549362,-0.719663381577,0.0924561023712,-0.256197482347,0.638669967651
1555296454488095780,5040,1555296454488095780,world,-2.89657497406,-0.821251153946,0.798021554947,-0.719696938992,0.0925727710128,-0.256292670965,0.638577163219
1555296454488170547,5041,1555296454488170547,world,-2.89657020569,-0.821217536926,0.797993183136,-0.71975427866,0.0926200523973,-0.256240069866,0.63852673769
1555296454498600941,5042,1555296454498600941,world,-2.89659690857,-0.821206092834,0.79797577858,-0.719598829746,0.0924898162484,-0.256266534328,0.638710081577
1555296454509054878,5043,1555296454509054878,world,-2.89662265778,-0.821185827255,0.798002004623,-0.719670951366,0.092268012464,-0.25605520606,0.638745725155
1555296454518434166,5044,1555296454518434166,world,-2.89664173126,-0.821142435074,0.798049926758,-0.719709634781,0.0920196771622,-0.255764394999,0.638854503632
1555296454528864761,5045,1555296454528864761,world,-2.89663505554,-0.821154594421,0.7980427742,-0.7197509408,0.0923168733716,-0.255976736546,0.638680040836
1555296454538311404,5046,1555296454538311404,world,-2.89665794373,-0.82112455368,0.798011064529,-0.719778776169,0.0921792685986,-0.255963593721,0.638673782349
1555296454538352895,5047,1555296454538352895,world,-2.89662075043,-0.821148633957,0.797952651978,-0.71981304884,0.0923609361053,-0.256339997053,0.63845795393
1555296454548791037,5048,1555296454548791037,world,-2.89664840698,-0.821131706238,0.797967433929,-0.719593048096,0.0920706093311,-0.255755454302,0.638982057571
1555296454558097564,5049,1555296454558097564,world,-2.89664363861,-0.821138143539,0.798003196716,-0.719722807407,0.0923520699143,-0.255978912115,0.638705849648
1555296454568525577,5050,1555296454568525577,world,-2.89664173126,-0.821186542511,0.798041343689,-0.719673097134,0.092463247478,-0.256072938442,0.638708055019
1555296454578911400,5051,1555296454578911400,world,-2.89661693573,-0.82119178772,0.798015832901,-0.719660997391,0.0924533903599,-0.256295800209,0.638633728027
1555296454588359526,5052,1555296454588359526,world,-2.8966217041,-0.821209430695,0.797965049744,-0.719656825066,0.0927013009787,-0.256513118744,0.638515174389
1555296454588400907,5053,1555296454588400907,world,-2.89661693573,-0.82119846344,0.797976970673,-0.719709634781,0.0923523306847,-0.255987912416,0.638716936111
1555296454598829837,5054,1555296454598829837,world,-2.89664649963,-0.821214675903,0.798008680344,-0.719695389271,0.091999091208,-0.25581818819,0.638851940632
1555296454608160640,5055,1555296454608160640,world,-2.89664554596,-0.821212053299,0.798043727875,-0.719695389271,0.0921011045575,-0.255932152271,0.638791620731
1555296454618552579,5056,1555296454618552579,world,-2.89666175842,-0.821216583252,0.798045158386,-0.719697535038,0.0922200456262,-0.255863368511,0.638799488544
1555296454628980649,5057,1555296454628980649,world,-2.89664554596,-0.821218729019,0.798028945923,-0.719634711742,0.0923281237483,-0.256007492542,0.638797044754
1555296454629021273,5058,1555296454629021273,world,-2.89663219452,-0.821217536926,0.798008203506,-0.719698786736,0.0924005657434,-0.256295919418,0.638598620892
1555296454638435791,5059,1555296454638435791,world,-2.89663219452,-0.821206331253,0.79801940918,-0.719694495201,0.0922214537859,-0.25607085228,0.63871973753
1555296454648826511,5060,1555296454648826511,world,-2.89661407471,-0.821187019348,0.798030376434,-0.719646036625,0.0923214331269,-0.25611191988,0.63874322176
1555296454658146425,5061,1555296454658146425,world,-2.89660453796,-0.821207761765,0.798022985458,-0.719590723515,0.0926731303334,-0.256457298994,0.638616204262
1555296454668588636,5062,1555296454668588636,world,-2.89660644531,-0.821183204651,0.797993659973,-0.719655990601,0.0923565626144,-0.256253242493,0.638670444489
1555296454678990380,5063,1555296454678990380,world,-2.8965845108,-0.821190595627,0.797955751419,-0.719672143459,0.0925191864371,-0.256261080503,0.638625562191
1555296454679062795,5064,1555296454679062795,world,-2.89661121368,-0.82120680809,0.798006057739,-0.719683229923,0.0925349667668,-0.256235063076,0.638621151447
1555296454688494729,5065,1555296454688494729,world,-2.89662647247,-0.821198940277,0.798025369644,-0.719779670238,0.0923481807113,-0.256189912558,0.638557612896
1555296454698824869,5066,1555296454698824869,world,-2.8966550827,-0.821199178696,0.798026323318,-0.719640374184,0.091755464673,-0.255461454391,0.639091670513
1555296454708118819,5067,1555296454708118819,world,-2.89666843414,-0.821200370789,0.798005819321,-0.719655811787,0.091902025044,-0.255824029446,0.638908207417
1555296454718514034,5068,1555296454718514034,world,-2.89668178558,-0.821186542511,0.798000335693,-0.719682753086,0.0922506228089,-0.256058365107,0.638733685017
1555296454728912165,5069,1555296454728912165,world,-2.8966960907,-0.821163415909,0.797998666763,-0.719668924809,0.0917591229081,-0.255506575108,0.639041006565
1555296454748679560,5070,1555296454748679560,world,-2.89669132233,-0.821172475815,0.798022031784,-0.719721257687,0.0919607207179,-0.255658090115,0.638892412186
1555296454748725050,5071,1555296454748725050,world,-2.8966884613,-0.821117162704,0.798051118851,-0.71973913908,0.0917054638267,-0.255503118038,0.638970851898
1555296454759113812,5072,1555296454759113812,world,-2.89660263062,-0.821159601212,0.798011541367,-0.719644844532,0.0921436026692,-0.256059348583,0.638791382313
1555296454759190101,5073,1555296454759190101,world,-2.89657306671,-0.82115149498,0.797996759415,-0.719618320465,0.0923533439636,-0.256115585566,0.638768434525
1555296454768501233,5074,1555296454768501233,world,-2.89651012421,-0.821202278137,0.798009395599,-0.71975684166,0.092994838953,-0.256748199463,0.638265252113
1555296454778788380,5075,1555296454778788380,world,-2.89646053314,-0.821211338043,0.79806303978,-0.719661831856,0.0928275734186,-0.256205439568,0.638614594936
1555296454789111726,5076,1555296454789111726,world,-2.89646530151,-0.821264266968,0.798117399216,-0.719744265079,0.0928087905049,-0.256202310324,0.63852584362
1555296454798441044,5077,1555296454798441044,world,-2.89645576477,-0.82128405571,0.798092603683,-0.719617605209,0.092492967844,-0.255919367075,0.638827800751
1555296454798484019,5078,1555296454798484019,world,-2.89644145966,-0.821333646774,0.798057079315,-0.719670951366,0.0923967584968,-0.256053417921,0.638727843761
1555296454808809854,5079,1555296454808809854,world,-2.89648151398,-0.821348190308,0.798027992249,-0.719695091248,0.0921803414822,-0.255947262049,0.638774394989
1555296454828467976,5080,1555296454828467976,world,-2.89649677277,-0.821351051331,0.798079252243,-0.71963173151,0.0920917466283,-0.255802929401,0.638916313648
1555296454828523333,5081,1555296454828523333,world,-2.89654541016,-0.821316719055,0.798165559769,-0.719562590122,0.0919642820954,-0.255495756865,0.639135479927
1555296454838959696,5082,1555296454838959696,world,-2.89655590057,-0.821279287338,0.798137187958,-0.719553947449,0.091933041811,-0.255367189646,0.639201164246
1555296454839014170,5083,1555296454839014170,world,-2.89653491974,-0.821260452271,0.798030138016,-0.719656527042,0.0925646796823,-0.256058514118,0.638717710972
1555296454858645958,5084,1555296454858645958,world,-2.8965587616,-0.821170806885,0.797985553741,-0.71964430809,0.0924219191074,-0.256033539772,0.638762235641
1555296454858687566,5085,1555296454858687566,world,-2.89656734467,-0.821145057678,0.798009872437,-0.719643473625,0.0925749987364,-0.256113886833,0.638708770275
1555296454869061867,5086,1555296454869061867,world,-2.89654541016,-0.821147203445,0.798069477081,-0.719634950161,0.0929228886962,-0.256262630224,0.638608157635
1555296454878454443,5087,1555296454878454443,world,-2.89654922485,-0.821159362793,0.798040628433,-0.719761252403,0.0930681973696,-0.256677746773,0.638277947903
1555296454888856114,5088,1555296454888856114,world,-2.89660453796,-0.821134090424,0.798008203506,-0.719680309296,0.092483073473,-0.25627925992,0.638614177704
1555296454888898165,5089,1555296454888898165,world,-2.89662742615,-0.821142196655,0.797992706299,-0.719639956951,0.0922442004085,-0.255799382925,0.638886630535
1555296454898311225,5090,1555296454898311225,world,-2.89661216736,-0.821204423904,0.797984600067,-0.719680130482,0.0923862829804,-0.255998671055,0.638740837574
1555296454908682063,5091,1555296454908682063,world,-2.89662647247,-0.82123208046,0.79806137085,-0.719618737698,0.092063896358,-0.255705565214,0.638974130154
1555296454918999151,5092,1555296454918999151,world,-2.89660263062,-0.821286201477,0.798092603683,-0.719615459442,0.0919376313686,-0.255637317896,0.639023303986
1555296454928395837,5093,1555296454928395837,world,-2.89658546448,-0.821303367615,0.798114299774,-0.719581186771,0.0919905975461,-0.255438148975,0.639133751392
1555296454938805332,5094,1555296454938805332,world,-2.89653873444,-0.821339607239,0.798074483871,-0.71968883276,0.092321716249,-0.255828231573,0.638808906078
1555296454938856584,5095,1555296454938856584,world,-2.89649581909,-0.821350336075,0.798033237457,-0.719645082951,0.09243208915,-0.255882680416,0.638820230961
1555296454948167206,5096,1555296454948167206,world,-2.8964881897,-0.821295022964,0.798055648804,-0.719639658928,0.0923495441675,-0.255772709846,0.638882339001
1555296454958509692,5097,1555296454958509692,world,-2.89647769928,-0.821244955063,0.798094034195,-0.719620585442,0.0922401994467,-0.255734115839,0.638935029507
1555296454968872999,5098,1555296454968872999,world,-2.89646720886,-0.821250200272,0.798130750656,-0.719601690769,0.0922330990434,-0.255693882704,0.638973593712
1555296454978212617,5099,1555296454978212617,world,-2.89646625519,-0.821199655533,0.798116207123,-0.719657719135,0.0921366587281,-0.255709946156,0.63891774416
1555296454988542134,5100,1555296454988542134,world,-2.89647102356,-0.821196556091,0.798045873642,-0.719691991806,0.0927349627018,-0.256254076958,0.63857460022
1555296454998883003,5101,1555296454998883003,world,-2.89654254913,-0.821138620377,0.798043727875,-0.719554841518,0.0920417830348,-0.255514115095,0.63912576437
