%time,field.header.seq,field.header.stamp,field.header.frame_id,field.pose.position.x,field.pose.position.y,field.pose.position.z,field.pose.orientation.x,field.pose.orientation.y,field.pose.orientation.z,field.pose.orientation.w
1555298873498215276,31402,1555298873498215276,world,-2.88416099548,-0.817223548889,0.798164606094,0.694201052189,-0.20491528511,0.358570843935,-0.589509606361
1555298873498275722,31403,1555298873498275722,world,-2.88419628143,-0.817219257355,0.798163890839,0.694148778915,-0.204382106662,0.358742237091,-0.589652061462
1555298873508606572,31404,1555298873508606572,world,-2.88423919678,-0.817204236984,0.798213243484,0.694111227989,-0.204179540277,0.358734071255,-0.589771211147
1555298873518938543,31405,1555298873518938543,world,-2.8841676712,-0.817230701447,0.798284053802,0.694175004959,-0.204937025905,0.358641266823,-0.589489936829
1555298873528323304,31406,1555298873528323304,world,-2.88414382935,-0.817214727402,0.79829287529,0.694194674492,-0.204867020249,0.358558595181,-0.589541375637
1555298873538790031,31407,1555298873538790031,world,-2.88420581818,-0.81724190712,0.79821395874,0.69419580698,-0.204307451844,0.358587890863,-0.589716315269
1555298873538831459,31408,1555298873538831459,world,-2.88418292999,-0.817252397537,0.798163175583,0.694090545177,-0.204764455557,0.358405560255,-0.589792668819
1555298873548162403,31409,1555298873548162403,world,-2.88419342041,-0.817273616791,0.798186540604,0.694156646729,-0.204728230834,0.358380317688,-0.589742660522
1555298873558597640,31410,1555298873558597640,world,-2.88422393799,-0.817266941071,0.798267841339,0.694329023361,-0.204711481929,0.358374834061,-0.589548826218
1555298873569054284,31411,1555298873569054284,world,-2.88426589966,-0.817247629166,0.798294067383,0.694316506386,-0.204578772187,0.358278810978,-0.589667975903
1555298873578439850,31412,1555298873578439850,world,-2.88430118561,-0.817260503769,0.798203706741,0.694195270538,-0.204259753227,0.358613371849,-0.589718103409
1555298873588758809,31413,1555298873588758809,world,-2.88431835175,-0.817243337631,0.798121929169,0.694124162197,-0.204306393862,0.358665078878,-0.589754283428
1555298873588829736,31414,1555298873588829736,world,-2.88428401947,-0.817232847214,0.798147916794,0.694005846977,-0.204777553678,0.35872811079,-0.589691579342
1555298873598078455,31415,1555298873598078455,world,-2.88434028625,-0.817201375961,0.798256874084,0.69409519434,-0.204168334603,0.358711987734,-0.589807391167
1555298873608409704,31416,1555298873608409704,world,-2.88428497314,-0.817221879959,0.798263311386,0.694131851196,-0.204840943217,0.358745932579,-0.589510440826
1555298873618811345,31417,1555298873618811345,world,-2.88426208496,-0.817221641541,0.798216819763,0.694086611271,-0.20499753952,0.358495146036,-0.589661717415
1555298873628134994,31418,1555298873628134994,world,-2.88422870636,-0.817231655121,0.798165559769,0.694047689438,-0.205103740096,0.358772158623,-0.589502096176
1555298873638581792,31419,1555298873638581792,world,-2.88426971436,-0.81725025177,0.798153400421,0.694109499454,-0.20435847342,0.35877969861,-0.589683651924
1555298873648949790,31420,1555298873648949790,world,-2.88423919678,-0.817248106003,0.798232316971,0.694238603115,-0.204368025064,0.358357042074,-0.589785516262
1555298873648985631,31421,1555298873648985631,world,-2.88421440125,-0.8172519207,0.798271894455,0.694263994694,-0.204541519284,0.35833671689,-0.589707732201
1555298873658385954,31422,1555298873658385954,world,-2.88425731659,-0.817275762558,0.798263549805,0.694262206554,-0.204141944647,0.358628720045,-0.589670836926
1555298873668654336,31423,1555298873668654336,world,-2.88427734375,-0.81728720665,0.79823756218,0.694273769855,-0.203972041607,0.358486801386,-0.589802145958
1555298873678980216,31424,1555298873678980216,world,-2.88421630859,-0.817292928696,0.798189878464,0.694162547588,-0.204592853785,0.358397573233,-0.58977240324
1555298873688265567,31425,1555298873688265567,world,-2.88419914246,-0.817293167114,0.798197984695,0.694145977497,-0.20484597981,0.358419924974,-0.589690327644
1555298873698533123,31426,1555298873698533123,world,-2.88419818878,-0.817316293716,0.798237800598,0.694264769554,-0.20496596396,0.358624875546,-0.589384019375
1555298873698580806,31427,1555298873698580806,world,-2.88428115845,-0.817297458649,0.798252820969,0.694194674492,-0.204370871186,0.358700454235,-0.589627206326
1555298873718005128,31428,1555298873718005128,world,-2.88430690765,-0.817298173904,0.798254489899,0.694209456444,-0.204134240746,0.358758985996,-0.589656293392
1555298873718043645,31429,1555298873718043645,world,-2.88426685333,-0.817294597626,0.798190116882,0.694230854511,-0.204575374722,0.358686476946,-0.589522242546
1555298873728513389,31430,1555298873728513389,world,-2.88432693481,-0.817269325256,0.798173904419,0.694253206253,-0.204164549708,0.358579993248,-0.589703083038
1555298873738973210,31431,1555298873738973210,world,-2.88432025909,-0.817218780518,0.798201322556,0.69416731596,-0.204687446356,0.358570665121,-0.589628636837
1555298873748427497,31432,1555298873748427497,world,-2.88433170319,-0.817270040512,0.798211097717,0.69418990612,-0.204306796193,0.358909547329,-0.589527785778
1555298873748470290,31433,1555298873748470290,world,-2.88435459137,-0.817236185074,0.798226833344,0.694144129753,-0.204447165132,0.358930408955,-0.589520394802
1555298873758941472,31434,1555298873758941472,world,-2.88435935974,-0.817263126373,0.798184156418,0.694043457508,-0.204540148377,0.358974963427,-0.589579463005
1555298873768378192,31435,1555298873768378192,world,-2.88432598114,-0.817236423492,0.798166513443,0.694125175476,-0.204384490848,0.358883619308,-0.589592933655
1555298873778771061,31436,1555298873778771061,world,-2.88432788849,-0.817224740982,0.798191070557,0.694052636623,-0.204406052828,0.358809322119,-0.589716136456
1555298873788112832,31437,1555298873788112832,world,-2.88432693481,-0.817216873169,0.798226118088,0.69422274828,-0.204173222184,0.358635932207,-0.589702010155
1555298873798578974,31438,1555298873798578974,world,-2.88431930542,-0.817235469818,0.798258066177,0.694275438786,-0.204071819782,0.358473330736,-0.589773774147
1555298873798647652,31439,1555298873798647652,world,-2.88421916962,-0.81724524498,0.798223733902,0.694250047207,-0.204713314772,0.358479350805,-0.58957785368
1555298873808962965,31440,1555298873808962965,world,-2.88417434692,-0.817259311676,0.798175811768,0.694249689579,-0.205030560493,0.358636528254,-0.58937227726
1555298873818257538,31441,1555298873818257538,world,-2.88422298431,-0.817252635956,0.798194885254,0.694154381752,-0.20457662642,0.358498394489,-0.589726150036
1555298873828585634,31442,1555298873828585634,world,-2.88425922394,-0.817253112793,0.798222541809,0.694184839725,-0.204220116138,0.358498483896,-0.589813828468
1555298873838925966,31443,1555298873838925966,world,-2.88421154022,-0.817272901535,0.798264026642,0.694221794605,-0.204618886113,0.358777552843,-0.589462399483
1555298873848313589,31444,1555298873848313589,world,-2.88424491882,-0.817295789719,0.798263549805,0.694245398045,-0.204273298383,0.358614593744,-0.589653611183
1555298873848361473,31445,1555298873848361473,world,-2.88420581818,-0.817279577255,0.79821062088,0.694163143635,-0.204626217484,0.358404308558,-0.589755892754
1555298873858796066,31446,1555298873858796066,world,-2.88418388367,-0.817276954651,0.7981569767,0.694152235985,-0.2049164325,0.358693301678,-0.58949226141
1555298873868062945,31447,1555298873868062945,world,-2.88425445557,-0.817270517349,0.798182964325,0.694170355797,-0.204447999597,0.358836710453,-0.589546144009
1555298873878412977,31448,1555298873878412977,world,-2.88431739807,-0.817249774933,0.798240661621,0.694216191769,-0.204405814409,0.358707398176,-0.589585721493
1555298873888816796,31449,1555298873888816796,world,-2.88432598114,-0.817255496979,0.798259496689,0.694300711155,-0.204231992364,0.358927279711,-0.58941257
1555298873898132131,31450,1555298873898132131,world,-2.88434410095,-0.817233800888,0.798208713531,0.694200277328,-0.204200074077,0.358686804771,-0.589688062668
1555298873898174016,31451,1555298873898174016,world,-2.88426971436,-0.817220449448,0.798133134842,0.694118440151,-0.204738885164,0.358417481184,-0.589761435986
1555298873908613767,31452,1555298873908613767,world,-2.88432693481,-0.817215919495,0.798186063766,0.694083034992,-0.20457662642,0.358736306429,-0.589665532112
1555298873918908780,31453,1555298873918908780,world,-2.88433074951,-0.81724190712,0.798229217529,0.694169282913,-0.204358443618,0.358606100082,-0.589718818665
1555298873928235350,31454,1555298873928235350,world,-2.88433647156,-0.817254543304,0.798256874084,0.6941857934,-0.204129457474,0.358661204576,-0.589745163918
1555298873938465382,31455,1555298873938465382,world,-2.88431453705,-0.817242860794,0.798232078552,0.694108605385,-0.204319491982,0.358636319637,-0.589785277843
1555298873948716793,31456,1555298873948716793,world,-2.88429927826,-0.817258834839,0.798206090927,0.694097995758,-0.204323753715,0.358574509621,-0.589833974838
1555298873948741459,31457,1555298873948741459,world,-2.88430690765,-0.817245960236,0.798233747482,0.694131195545,-0.204396441579,0.358585387468,-0.589763045311
1555298873958952069,31458,1555298873958952069,world,-2.88419437408,-0.817286729813,0.798201084137,0.694141387939,-0.204795345664,0.358524084091,-0.589649915695
1555298873968175437,31459,1555298873968175437,world,-2.88416290283,-0.817267656326,0.79822063446,0.694202005863,-0.204877376556,0.358489066362,-0.589571356773
1555298873978514373,31460,1555298873978514373,world,-2.88423728943,-0.817245006561,0.798251390457,0.694112300873,-0.204397007823,0.358603596687,-0.589774131775
1555298873988904159,31461,1555298873988904159,world,-2.88419342041,-0.817246437073,0.798226118088,0.694163620472,-0.204699650407,0.358345538378,-0.589765667915
1555298873998227206,31462,1555298873998227206,world,-2.88416862488,-0.817247390747,0.798209667206,0.694077730179,-0.204950198531,0.358560681343,-0.589648962021
1555298873998260561,31463,1555298873998260561,world,-2.88416957855,-0.817238807678,0.79819393158,0.694152593613,-0.205052658916,0.358606100082,-0.589497566223
1555298874008700489,31464,1555298874008700489,world,-2.8841791153,-0.817234277725,0.798197507858,0.694184780121,-0.204803690314,0.358696937561,-0.589490890503
1555298874019001605,31465,1555298874019001605,world,-2.88419818878,-0.817221879959,0.798234462738,0.694177508354,-0.204798176885,0.358739316463,-0.589475572109
1555298874028283698,31466,1555298874028283698,world,-2.88425636292,-0.817254781723,0.798214435577,0.694223284721,-0.204312637448,0.358850181103,-0.589522540569
1555298874038522976,31467,1555298874038522976,world,-2.8843164444,-0.817246675491,0.798233747482,0.694185197353,-0.20396438241,0.358648151159,-0.58981102705
1555298874048941390,31468,1555298874048941390,world,-2.88434123993,-0.817239522934,0.798219919205,0.694118022919,-0.203931674361,0.358622312546,-0.589916944504
1555298874048983803,31469,1555298874048983803,world,-2.88432693481,-0.817259550095,0.798184871674,0.69420260191,-0.204187124968,0.358680337667,-0.589693963528
1555298874058406349,31470,1555298874058406349,world,-2.8843421936,-0.817229032516,0.798220396042,0.694127976894,-0.204264551401,0.358658760786,-0.589768111706
1555298874068800672,31471,1555298874068800672,world,-2.88434410095,-0.817254066467,0.798213720322,0.694130182266,-0.204296693206,0.358749270439,-0.589699268341
1555298874078069892,31472,1555298874078069892,world,-2.88434791565,-0.817233085632,0.79824590683,0.694226980209,-0.204173788428,0.358685493469,-0.589666604996
1555298874088402232,31473,1555298874088402232,world,-2.88432788849,-0.817246675491,0.798214435577,0.694186091423,-0.204222992063,0.358765900135,-0.589648663998
1555298874098797798,31474,1555298874098797798,world,-2.88436031342,-0.817203521729,0.798186302185,0.694200277328,-0.204226970673,0.358605861664,-0.589728116989
1555298874098837092,31475,1555298874098837092,world,-2.88432788849,-0.817195653915,0.798169612885,0.694181263447,-0.204129591584,0.358567506075,-0.589807391167
1555298874108120112,31476,1555298874108120112,world,-2.88429260254,-0.817243099213,0.798198461533,0.694174587727,-0.2043928653,0.358560830355,-0.589728236198
1555298874118467069,31477,1555298874118467069,world,-2.88429546356,-0.817220211029,0.798272371292,0.694206237793,-0.204187855124,0.358315467834,-0.589910984039
1555298874128777851,31478,1555298874128777851,world,-2.88421344757,-0.817239284515,0.798240423203,0.694145917892,-0.204726338387,0.358206987381,-0.589861392975
1555298874138037465,31479,1555298874138037465,world,-2.88423347473,-0.817211151123,0.798219442368,0.694128513336,-0.204504653811,0.358511805534,-0.589773416519
1555298874148368653,31480,1555298874148368653,world,-2.88416957855,-0.817234516144,0.798197507858,0.694176197052,-0.204844340682,0.358423233032,-0.589653253555
1555298874148408132,31481,1555298874148408132,world,-2.88420200348,-0.817256689072,0.798244476318,0.694130718708,-0.204719603062,0.358617573977,-0.589631915092
1555298874158759220,31482,1555298874158759220,world,-2.88421154022,-0.817277193069,0.798266649246,0.694125950336,-0.204433634877,0.358772784472,-0.58964240551
1555298874168023353,31483,1555298874168023353,world,-2.88416290283,-0.817255496979,0.798233509064,0.694150447845,-0.204649791121,0.358665943146,-0.589603662491
1555298874178299054,31484,1555298874178299054,world,-2.88416290283,-0.817243337631,0.798241138458,0.694199860096,-0.204628124833,0.358443170786,-0.589688420296
1555298874188771145,31485,1555298874188771145,world,-2.88416385651,-0.817239761353,0.798240661621,0.694287776947,-0.204695627093,0.358474135399,-0.589542627335
1555298874198080190,31486,1555298874198080190,world,-2.88418960571,-0.817269086838,0.798214435577,0.694225609303,-0.204874768853,0.358470708132,-0.589555621147
1555298874208461175,31487,1555298874208461175,world,-2.88424968719,-0.81724357605,0.798228740692,0.694146811962,-0.204385787249,0.35866138339,-0.589702308178
1555298874208502149,31488,1555298874208502149,world,-2.88430786133,-0.8172352314,0.798246145248,0.694104015827,-0.204043403268,0.358574658632,-0.589923977852
1555298874218868129,31489,1555298874218868129,world,-2.88424777985,-0.817227840424,0.798234462738,0.694121956825,-0.204703167081,0.358583152294,-0.589668929577
1555298874228264605,31490,1555298874228264605,world,-2.88428688049,-0.81720995903,0.798223495483,0.694110989571,-0.204412654042,0.3586845994,-0.589720904827
1555298874238596883,31491,1555298874238596883,world,-2.88429069519,-0.817227125168,0.798211336136,0.693987131119,-0.20452414453,0.358857989311,-0.589722633362
1555298874248975869,31492,1555298874248975869,world,-2.8842382431,-0.817209482193,0.798214435577,0.694053947926,-0.204683497548,0.358629733324,-0.589727520943
1555298874249021264,31493,1555298874249021264,world,-2.88429927826,-0.817207813263,0.7982172966,0.69400626421,-0.20450873673,0.358800321817,-0.589740395546
1555298874258339306,31494,1555298874258339306,world,-2.88424873352,-0.817214727402,0.798234939575,0.694084882736,-0.204704284668,0.358677506447,-0.589654922485
1555298874268740724,31495,1555298874268740724,world,-2.88425731659,-0.817233562469,0.798244476318,0.694135189056,-0.204688414931,0.358387708664,-0.589777231216
1555298874278071684,31496,1555298874278071684,world,-2.88423061371,-0.817230701447,0.798208713531,0.694184064865,-0.204685017467,0.358255028725,-0.589801549911
1555298874288523493,31497,1555298874288523493,world,-2.88424110413,-0.817234516144,0.798198699951,0.694198489189,-0.204534128308,0.358238279819,-0.589847028255
1555298874298903235,31498,1555298874298903235,world,-2.88421821594,-0.817252159119,0.798218727112,0.694253265858,-0.204575374722,0.358383446932,-0.589680075645
1555298874298966085,31499,1555298874298966085,world,-2.88423252106,-0.81726026535,0.798250198364,0.694326341152,-0.204546660185,0.358430951834,-0.589575231075
1555298874308346118,31500,1555298874308346118,world,-2.88422679901,-0.817255020142,0.798251628876,0.694322049618,-0.20449540019,0.358545273542,-0.589528501034
1555298874319023974,31501,1555298874319023974,world,-2.88422012329,-0.817274093628,0.79819726944,0.694145917892,-0.204641759396,0.358843445778,-0.589503765106
1555298874328403728,31502,1555298874328403728,world,-2.88421344757,-0.817248821259,0.798173189163,0.694121956825,-0.204815462232,0.358782231808,-0.589508712292
1555298874338809468,31503,1555298874338809468,world,-2.88421821594,-0.817265510559,0.79819393158,0.694243192673,-0.204791411757,0.358683586121,-0.5894343853
1555298874348148092,31504,1555298874348148092,world,-2.88424301147,-0.81725859642,0.798244476318,0.694221675396,-0.204751521349,0.358528345823,-0.589568078518
1555298874358599980,31505,1555298874358599980,world,-2.88432502747,-0.817216873169,0.798248767853,0.694180428982,-0.204302996397,0.358726710081,-0.589651763439
1555298874358666327,31506,1555298874358666327,world,-2.88436412811,-0.817210197449,0.798192024231,0.694192886353,-0.203873559833,0.35858464241,-0.589871883392
1555298874369100271,31507,1555298874369100271,world,-2.88433170319,-0.81721830368,0.798177480698,0.694052636623,-0.204182058573,0.358833402395,-0.58977907896
1555298874378553863,31508,1555298874378553863,world,-2.88434696198,-0.817232847214,0.798230171204,0.694033145905,-0.204453989863,0.358958959579,-0.589631319046
1555298874389008860,31509,1555298874389008860,world,-2.88438034058,-0.817198038101,0.798252105713,0.694142043591,-0.203987926245,0.358626335859,-0.589867055416
1555298874398474917,31510,1555298874398474917,world,-2.884349823,-0.81721663475,0.798223972321,0.69425547123,-0.204056039453,0.358563363552,-0.589748084545
1555298874408912987,31511,1555298874408912987,world,-2.88434314728,-0.81721830368,0.798211574554,0.694231271744,-0.204202458262,0.358482718468,-0.589774847031
1555298874408981104,31512,1555298874408981104,world,-2.88428878784,-0.81721830368,0.798206090927,0.694162845612,-0.20464758575,0.358367443085,-0.589771270752
1555298874418252505,31513,1555298874418252505,world,-2.88422298431,-0.817270278931,0.798174381256,0.69418913126,-0.204929351807,0.358671814203,-0.589457392693
1555298874428564537,31514,1555298874428564537,world,-2.88424777985,-0.817240476608,0.7982006073,0.694234490395,-0.204742267728,0.358543336391,-0.589547097683
1555298874438962484,31515,1555298874438962484,world,-2.88426017761,-0.817242860794,0.798207998276,0.694311797619,-0.20465824008,0.358360141516,-0.589596688747
1555298874448386437,31516,1555298874448386437,world,-2.88431072235,-0.817248106003,0.798243284225,0.694187760353,-0.204252138734,0.358605325222,-0.589734494686
1555298874448428400,31517,1555298874448428400,world,-2.88432788849,-0.817257404327,0.79824757576,0.694181859493,-0.204018861055,0.358489960432,-0.589892327785
1555298874458866972,31518,1555298874458866972,world,-2.88433456421,-0.817210674286,0.798214673996,0.694227457047,-0.203943833709,0.35824072361,-0.590015888214
1555298874468222171,31519,1555298874468222171,world,-2.88435840607,-0.817224025726,0.798200845718,0.694233179092,-0.204011484981,0.358355998993,-0.589915752411
1555298874478565682,31520,1555298874478565682,world,-2.88435840607,-0.817178726196,0.798225641251,0.694234848022,-0.204030916095,0.358253002167,-0.58996963501
1555298874488869841,31521,1555298874488869841,world,-2.88435745239,-0.817217111588,0.798223972321,0.694104909897,-0.204361602664,0.358536839485,-0.589835643768
1555298874488912561,31522,1555298874488912561,world,-2.88434886932,-0.817208528519,0.798233747482,0.694084823132,-0.204495877028,0.358669489622,-0.5897321105
1555298874508456749,31523,1555298874508456749,world,-2.88433837891,-0.817206859589,0.798189640045,0.694094240665,-0.204403758049,0.358490377665,-0.589861750603
1555298874508508869,31524,1555298874508508869,world,-2.88434028625,-0.817212343216,0.798190832138,0.694090604782,-0.204241156578,0.358495235443,-0.589919567108
1555298874518894273,31525,1555298874518894273,world,-2.88433742523,-0.817191362381,0.798214435577,0.694065153599,-0.204376593232,0.358641058207,-0.589813828468
1555298874528298277,31526,1555298874528298277,world,-2.88433837891,-0.817216157913,0.79820561409,0.694034099579,-0.204583823681,0.358697295189,-0.589744329453
1555298874538787477,31527,1555298874538787477,world,-2.88433742523,-0.817191362381,0.798218011856,0.69411534071,-0.204435914755,0.35861620307,-0.589749515057
1555298874548125860,31528,1555298874548125860,world,-2.88431930542,-0.817239761353,0.798207044601,0.694201767445,-0.204619467258,0.358825474977,-0.589456677437
1555298874548167566,31529,1555298874548167566,world,-2.88430595398,-0.81721496582,0.798190116882,0.694090843201,-0.204566881061,0.358922719955,-0.589546203613
1555298874558506548,31530,1555298874558506548,world,-2.88425445557,-0.817240953445,0.79820227623,0.694146871567,-0.204974278808,0.358611702919,-0.589528083801
1555298874568839712,31531,1555298874568839712,world,-2.88420677185,-0.817225694656,0.79823756218,0.694140255451,-0.204997718334,0.358651310205,-0.589503645897
1555298874578106344,31532,1555298874578106344,world,-2.8842420578,-0.817253828049,0.798225641251,0.694211363792,-0.204292371869,0.358695924282,-0.589637458324
1555298874588438159,31533,1555298874588438159,world,-2.88427448273,-0.817262172699,0.798248291016,0.694204330444,-0.204022869468,0.358623623848,-0.589783191681
1555298874598818881,31534,1555298874598818881,world,-2.88428974152,-0.817245483398,0.798244476318,0.694155991077,-0.2041772753,0.358596116304,-0.589803338051
1555298874598872319,31535,1555298874598872319,world,-2.8842124939,-0.81726026535,0.798203229904,0.694171249866,-0.204680278897,0.358633905649,-0.589588046074
1555298874618321266,31536,1555298874618321266,world,-2.88426113129,-0.817231178284,0.798248052597,0.69419580698,-0.204135969281,0.358608394861,-0.58976328373
1555298874628709443,31537,1555298874628709443,world,-2.8842754364,-0.817229747772,0.798234939575,0.694259405136,-0.204099521041,0.358594417572,-0.58970952034
1555298874628746271,31538,1555298874628746271,world,-2.88427734375,-0.81720662117,0.79820895195,0.694249629974,-0.204084560275,0.35856294632,-0.589745283127
1555298874638007689,31539,1555298874638007689,world,-2.88427734375,-0.817180395126,0.79820227623,0.694092035294,-0.204349681735,0.358754277229,-0.589722633362
1555298874648408425,31540,1555298874648408425,world,-2.88422489166,-0.817156076431,0.798196792603,0.69409185648,-0.204757645726,0.358455806971,-0.589762806892
1555298874648451142,31541,1555298874648451142,world,-2.88425350189,-0.817139863968,0.798236846924,0.694077253342,-0.204545244575,0.358717441559,-0.589694738388
1555298874658845951,31542,1555298874658845951,world,-2.88427066803,-0.8171210289,0.798236608505,0.694187700748,-0.204181209207,0.358605653048,-0.589758753777
1555298874668115917,31543,1555298874668115917,world,-2.8842830658,-0.817110538483,0.79821562767,0.694078624249,-0.20433947444,0.358470767736,-0.589914500713
1555298874678562490,31544,1555298874678562490,world,-2.88427257538,-0.817111492157,0.798193693161,0.69402462244,-0.20446819067,0.358505636454,-0.589912056923
1555298874689045166,31545,1555298874689045166,world,-2.88424682617,-0.817127943039,0.798211812973,0.693963766098,-0.204532980919,0.35867357254,-0.589859247208
1555298874718039326,31546,1555298874718039326,world,-2.88424777985,-0.817125082016,0.798238277435,0.694063723087,-0.204318121076,0.3585113585,-0.589914679527
1555298874718076479,31547,1555298874718076479,world,-2.88425540924,-0.817121982574,0.798253536224,0.694150447845,-0.204275712371,0.358340978622,-0.589930772781
1555298874718122137,31548,1555298874718122137,world,-2.88423728943,-0.817152261734,0.798225879669,0.694169938564,-0.204477339983,0.3585087955,-0.589736163616
1555298874718145413,31549,1555298874718145413,world,-2.88425731659,-0.817164897919,0.798211574554,0.69412112236,-0.20430546999,0.358485817909,-0.589867115021
1555298874728411051,31550,1555298874728411051,world,-2.88419055939,-0.817208528519,0.798209905624,0.694263041019,-0.204557195306,0.358407884836,-0.589660048485
1555298874738733094,31551,1555298874738733094,world,-2.88423538208,-0.817237854004,0.798238754272,0.694097101688,-0.20453210175,0.358637720346,-0.589724421501
1555298874749054703,31552,1555298874749054703,world,-2.88422584534,-0.817255020142,0.798261880875,0.694160461426,-0.20490179956,0.358338952065,-0.589703083038
1555298874758377409,31553,1555298874758377409,world,-2.8842048645,-0.817288637161,0.798245191574,0.694244146347,-0.204835817218,0.358554601669,-0.58949637413
1555298874778087782,31554,1555298874778087782,world,-2.88421440125,-0.817326307297,0.798195123672,0.694155931473,-0.204930827022,0.358630299568,-0.589521169662
1555298874778128462,31555,1555298874778128462,world,-2.88426399231,-0.81729388237,0.79819560051,0.694018423557,-0.205057755113,0.358584910631,-0.589666485786
1555298874788572270,31556,1555298874788572270,world,-2.88434791565,-0.81728386879,0.79821228981,0.694181501865,-0.204184547067,0.358658581972,-0.589732766151
1555298874788612809,31557,1555298874788612809,world,-2.8843755722,-0.817290067673,0.798237323761,0.694148540497,-0.204013645649,0.358467936516,-0.589946746826
1555298874818591357,31558,1555298874818591357,world,-2.88438796997,-0.817268848419,0.798248529434,0.694185078144,-0.203941121697,0.358628183603,-0.589831233025
1555298874818680736,31559,1555298874818680736,world,-2.88438129425,-0.817237138748,0.79819726944,0.694187045097,-0.203960910439,0.358661711216,-0.589801728725
1555298874818724473,31561,1555298874818724473,world,-2.88434505463,-0.81716799736,0.798186779022,0.694134652615,-0.20436039567,0.358452647924,-0.589852273464
1555298874858138185,31562,1555298874858138185,world,-2.88433933258,-0.817180156708,0.798214435577,0.694133400917,-0.20444239676,0.358731210232,-0.589655816555
1555298874858234905,31565,1555298874858234905,world,-2.88428878784,-0.817167282104,0.798180580139,0.694026947021,-0.204434812069,0.358791589737,-0.589747190475
1555298874868684853,31566,1555298874868684853,world,-2.88428401947,-0.817184686661,0.798203468323,0.694046795368,-0.204500511289,0.358607083559,-0.589813113213
1555298874868726294,31567,1555298874868726294,world,-2.88425731659,-0.817195892334,0.798230648041,0.694161236286,-0.204236403108,0.358644872904,-0.589747071266
1555298874879057424,31568,1555298874879057424,world,-2.88427352905,-0.817199230194,0.798247098923,0.69415563345,-0.204318091273,0.358497470617,-0.589815020561
1555298874888452173,31569,1555298874888452173,world,-2.8842830658,-0.817203521729,0.798265218735,0.694237887859,-0.204007416964,0.358271926641,-0.589962661266
1555298874908113502,31570,1555298874908113502,world,-2.88425731659,-0.817255973816,0.798215866089,0.694138407707,-0.204299882054,0.358550608158,-0.589809119701
1555298874908154956,31571,1555298874908154956,world,-2.88426303864,-0.817255973816,0.798206806183,0.694196581841,-0.204218819737,0.358523070812,-0.589785516262
1555298874908210202,31572,1555298874908210202,world,-2.88423919678,-0.817248106003,0.79821896553,0.69426125288,-0.204574435949,0.35834261775,-0.589695870876
1555298874918613582,31573,1555298874918613582,world,-2.88428688049,-0.817252874374,0.798245429993,0.694188833237,-0.204589888453,0.358571529388,-0.589636564255
1555298874929063606,31574,1555298874929063606,world,-2.88424491882,-0.817232131958,0.798215866089,0.694191992283,-0.204711258411,0.358593732119,-0.589577317238
1555298874938466190,31575,1555298874938466190,world,-2.8842792511,-0.81724691391,0.798184394836,0.69406747818,-0.204763099551,0.358752369881,-0.589609384537
1555298874948918717,31576,1555298874948918717,world,-2.88432693481,-0.817172288895,0.798196554184,0.694082081318,-0.204314604402,0.358553677797,-0.589868426323
1555298874948960834,31577,1555298874948960834,world,-2.8843460083,-0.817152261734,0.798219203949,0.694041788578,-0.204337254167,0.358522683382,-0.589927077293
1555298874958424244,31578,1555298874958424244,world,-2.88426399231,-0.817126512527,0.798234462738,0.694033443928,-0.204827800393,0.358432561159,-0.589821457863
1555298874968881529,31579,1555298874968881529,world,-2.88430500031,-0.817155122757,0.798225641251,0.694129765034,-0.204210177064,0.358543425798,-0.589854836464
1555298874978345011,31580,1555298874978345011,world,-2.88426780701,-0.81715297699,0.798212766647,0.694164693356,-0.20443418622,0.358217209578,-0.589934289455
1555298874988817395,31581,1555298874988817395,world,-2.88428211212,-0.81716632843,0.79820227623,0.694125890732,-0.204372882843,0.358531951904,-0.58981013298
1555298874988860619,31582,1555298874988860619,world,-2.88429546356,-0.817193031311,0.798184633255,0.694132506847,-0.20413812995,0.358528107405,-0.589885890484
1555298874998172948,31583,1555298874998172948,world,-2.88429450989,-0.817201137543,0.798248052597,0.694164812565,-0.203982666135,0.358412891626,-0.589971661568
1555298875008455351,31584,1555298875008455351,world,-2.8842754364,-0.817257404327,0.798248052597,0.694180727005,-0.204200252891,0.358601689339,-0.589762926102
1555298875018796799,31585,1555298875018796799,world,-2.88429832458,-0.817254543304,0.798251390457,0.694179177284,-0.204193308949,0.358538925648,-0.589805305004
1555298875028099245,31586,1555298875028099245,world,-2.88430023193,-0.817252874374,0.79821896553,0.694239258766,-0.204193726182,0.358522117138,-0.589744508266
1555298875038504550,31587,1555298875038504550,world,-2.88429260254,-0.81725859642,0.798170804977,0.694201767445,-0.204368427396,0.358727484941,-0.589603304863
1555298875048904093,31588,1555298875048904093,world,-2.884308815,-0.817246675491,0.798223733902,0.694223284721,-0.204192772508,0.358455479145,-0.589804112911
1555298875048951170,31589,1555298875048951170,world,-2.88433551788,-0.81721329689,0.798248767853,0.69415307045,-0.204375252128,0.358477830887,-0.58981013298
1555298875058381316,31590,1555298875058381316,world,-2.88427448273,-0.817216396332,0.798228263855,0.694243490696,-0.204664111137,0.358555108309,-0.589556574821
1555298875068833318,31591,1555298875068833318,world,-2.88431835175,-0.817194223404,0.798212766647,0.694251656532,-0.204276636243,0.35852855444,-0.589697301388
1555298875078176229,31592,1555298875078176229,world,-2.88434886932,-0.817171096802,0.798168897629,0.69404399395,-0.204363241792,0.358405053616,-0.589986741543
1555298875088694829,31593,1555298875088694829,world,-2.88433647156,-0.817180395126,0.79816865921,0.694075644016,-0.204450920224,0.358808547258,-0.589673876762
1555298875099097384,31594,1555298875099097384,world,-2.88437080383,-0.817163228989,0.798221826553,0.694026231766,-0.204263314605,0.358575344086,-0.589938879013
1555298875099139762,31595,1555298875099139762,world,-2.88435268402,-0.817190885544,0.798252820969,0.694140613079,-0.204395145178,0.358696907759,-0.589684665203
1555298875138389851,31596,1555298875138389851,world,-2.88433933258,-0.817178964615,0.798232555389,0.694169461727,-0.204236775637,0.358697623014,-0.589705169201
1555298875138429550,31597,1555298875138429550,world,-2.88435077667,-0.817202806473,0.798186540604,0.694159567356,-0.204149439931,0.35851636529,-0.58985722065
1555298875138482223,31598,1555298875138482223,world,-2.88431358337,-0.81721830368,0.798154115677,0.694106578827,-0.204551801085,0.358683943748,-0.589678287506
1555298875138504009,31599,1555298875138504009,world,-2.88430404663,-0.817265510559,0.79817533493,0.694094538689,-0.204408302903,0.358669102192,-0.589751183987
1555298875148885307,31600,1555298875148885307,world,-2.88428783417,-0.817225217819,0.798258781433,0.694244861603,-0.204864233732,0.358422368765,-0.58956605196
1555298875158341914,31601,1555298875158341914,world,-2.88432312012,-0.817231178284,0.7982609272,0.694155454636,-0.204478308558,0.358507394791,-0.589753627777
1555298875168792597,31602,1555298875168792597,world,-2.88426971436,-0.817224740982,0.798181295395,0.694099247456,-0.204815104604,0.358439832926,-0.589743971825
1555298875178116660,31603,1555298875178116660,world,-2.88430786133,-0.817213535309,0.79817533493,0.694029211998,-0.204434767365,0.358523666859,-0.589907348156
1555298875188613489,31604,1555298875188613489,world,-2.88431358337,-0.817221164703,0.798172712326,0.694073736668,-0.204511478543,0.358758598566,-0.589685559273
1555298875229012168,31605,1555298875229012168,world,-2.88432598114,-0.817213058472,0.798238039017,0.69415140152,-0.204477354884,0.35883641243,-0.589558601379
1555298875229074370,31606,1555298875229074370,world,-2.88433837891,-0.817197561264,0.798259973526,0.694178402424,-0.204325392842,0.358640581369,-0.589698672295
1555298875229098266,31607,1555298875229098266,world,-2.88433551788,-0.817193031311,0.798206567764,0.694093227386,-0.204426214099,0.358613729477,-0.589780330658
1555298875229120152,31608,1555298875229120152,world,-2.88432407379,-0.817192554474,0.798172712326,0.694176673889,-0.204310402274,0.358690738678,-0.589675188065
1555298875229142454,31609,1555298875229142454,world,-2.88434123993,-0.817190170288,0.79816699028,0.694108486176,-0.204351231456,0.358811855316,-0.589667797089
1555298875248976167,31610,1555298875248976167,world,-2.88435268402,-0.817201375961,0.79825091362,0.694091141224,-0.204369202256,0.358711630106,-0.58974301815
1555298875249071158,31613,1555298875249071158,world,-2.88432502747,-0.81724524498,0.798168897629,0.694187700748,-0.204366758466,0.358578830957,-0.589710831642
1555298875258503334,31614,1555298875258503334,world,-2.88428592682,-0.817239522934,0.798170804977,0.694201946259,-0.20454403758,0.358280867338,-0.589813768864
1555298875308553365,31615,1555298875308553365,world,-2.8843164444,-0.817259788513,0.798194646835,0.694255888462,-0.204434469342,0.358558565378,-0.589619517326
1555298875308593891,31616,1555298875308593891,world,-2.88432216644,-0.817240715027,0.798238992691,0.694225668907,-0.20417805016,0.358524143696,-0.589764773846
1555298875308652637,31617,1555298875308652637,world,-2.88432025909,-0.817235708237,0.798235416412,0.694120466709,-0.204434350133,0.358691960573,-0.58969771862
1555298875308729526,31618,1555298875308729526,world,-2.88433456421,-0.817226409912,0.798220396042,0.694132685661,-0.204136684537,0.358621537685,-0.589829385281
1555298875308756026,31619,1555298875308756026,world,-2.88429450989,-0.817201852798,0.798202514648,0.694131195545,-0.204510703683,0.358297616243,-0.589898467064
1555298875308800149,31620,1555298875308800149,world,-2.88430023193,-0.817206859589,0.798174381256,0.694124102592,-0.20428211987,0.358555972576,-0.589828908443
1555298875328835598,31621,1555298875328835598,world,-2.88434505463,-0.817173242569,0.79823589325,0.694080531597,-0.204250127077,0.358450859785,-0.58995527029
1555298875328871447,31622,1555298875328871447,world,-2.8843421936,-0.817183256149,0.798232316971,0.694160997868,-0.204383462667,0.358425885439,-0.58982950449
1555298875338332279,31623,1555298875338332279,world,-2.88435268402,-0.817185163498,0.798238992691,0.694179952145,-0.204307541251,0.358388990164,-0.589856028557
1555298875348671017,31624,1555298875348671017,world,-2.88435554504,-0.817191839218,0.798182487488,0.694149494171,-0.20436643064,0.358568906784,-0.589761972427
1555298875348712370,31625,1555298875348712370,world,-2.88433170319,-0.817197561264,0.798162698746,0.694105386734,-0.204140543938,0.358646035194,-0.589845180511
1555298875359036860,31626,1555298875359036860,world,-2.88432407379,-0.817215204239,0.798182010651,0.694149076939,-0.204250529408,0.358669310808,-0.589741587639
1555298875368376543,31627,1555298875368376543,world,-2.88432788849,-0.817218542099,0.798222541809,0.694237232208,-0.204462811351,0.358593940735,-0.589610099792
1555298875378766805,31628,1555298875378766805,world,-2.88434028625,-0.817208051682,0.798246622086,0.69420671463,-0.204255029559,0.358314037323,-0.589888095856
1555298875388039562,31629,1555298875388039562,world,-2.88435840607,-0.817188024521,0.798204183578,0.694123804569,-0.204217329621,0.358233958483,-0.590047478676
1555298875398420411,31630,1555298875398420411,world,-2.88433456421,-0.817197799683,0.798180580139,0.693984806538,-0.204373434186,0.358488589525,-0.590002179146
1555298875398461959,31631,1555298875398461959,world,-2.88431453705,-0.817210912704,0.798185348511,0.694108963013,-0.204174563289,0.35838508606,-0.589987754822
1555298875408849115,31632,1555298875408849115,world,-2.88431167603,-0.817234039307,0.798246145248,0.694174826145,-0.204242542386,0.358578950167,-0.589769005775
1555298875418102699,31633,1555298875418102699,world,-2.88424015045,-0.8172352314,0.798251390457,0.694162249565,-0.204704299569,0.358457267284,-0.589697539806
1555298875428522246,31634,1555298875428522246,world,-2.8842830658,-0.81724023819,0.798216819763,0.694122552872,-0.20439851284,0.358531475067,-0.589805364609
1555298875438930219,31635,1555298875438930219,world,-2.88429546356,-0.817205429077,0.798177480698,0.6941421628,-0.204227879643,0.358543545008,-0.589834094048
1555298875448423076,31636,1555298875448423076,world,-2.88427448273,-0.817225217819,0.798161745071,0.69414794445,-0.204424872994,0.358713805676,-0.589655339718
1555298875448464925,31637,1555298875448464925,world,-2.88422870636,-0.817226886749,0.798204183578,0.694305360317,-0.20470944047,0.358519166708,-0.589489877224
1555298875458944426,31638,1555298875458944426,world,-2.88428688049,-0.817205190659,0.798230409622,0.694273710251,-0.204290911555,0.358555793762,-0.589649915695
1555298875468402842,31639,1555298875468402842,world,-2.88432312012,-0.817178726196,0.798211574554,0.694273591042,-0.204447999597,0.358588755131,-0.589575469494
1555298875478806395,31640,1555298875478806395,world,-2.88433456421,-0.817170143127,0.798174858093,0.694091379642,-0.204385176301,0.358629375696,-0.589787125587
1555298875488093775,31641,1555298875488093775,world,-2.88433456421,-0.817181587219,0.798181772232,0.693945765495,-0.204501703382,0.358727872372,-0.589858233929
1555298875498577178,31642,1555298875498577178,world,-2.88428974152,-0.817206382751,0.798187017441,0.694057643414,-0.204949051142,0.358669966459,-0.589606463909
1555298875498643972,31643,1555298875498643972,world,-2.88432693481,-0.817225456238,0.798208713531,0.694177269936,-0.20465888083,0.35877341032,-0.589503467083
1555298875508961869,31644,1555298875508961869,world,-2.88436126709,-0.817241191864,0.798221826553,0.694176256657,-0.204098954797,0.358800321817,-0.589682459831
1555298875518399974,31645,1555298875518399974,world,-2.88441085815,-0.817207098007,0.798208713531,0.694133520126,-0.20415507257,0.358575463295,-0.589849948883
1555298875528732073,31646,1555298875528732073,world,-2.88436126709,-0.817205905914,0.798181772232,0.69406247139,-0.204740151763,0.358461737633,-0.589799880981
1555298875539047005,31647,1555298875539047005,world,-2.88438606262,-0.817221164703,0.798186063766,0.6940574646,-0.204497799277,0.358565092087,-0.589827060699
1555298875539084077,31648,1555298875539084077,world,-2.88438796997,-0.817236423492,0.798205375671,0.694139063358,-0.20431239903,0.358567148447,-0.589794039726
1555298875548515373,31649,1555298875548515373,world,-2.88437747955,-0.817242622375,0.798228740692,0.694194376469,-0.204257801175,0.358699351549,-0.589667439461
1555298875558901374,31650,1555298875558901374,world,-2.88435554504,-0.817257165909,0.798210382462,0.694233953953,-0.204118326306,0.358616143465,-0.589719891548
1555298875568241261,31651,1555298875568241261,world,-2.88434696198,-0.817252397537,0.798177480698,0.694168686867,-0.204349115491,0.358742058277,-0.589640080929
1555298875578673408,31652,1555298875578673408,world,-2.88432216644,-0.817266225815,0.798191547394,0.694099962711,-0.20440274477,0.35891237855,-0.58959877491
1555298875589009803,31653,1555298875589009803,world,-2.88433361053,-0.817248344421,0.798211336136,0.694211959839,-0.204118594527,0.358607172966,-0.589751005173
1555298875598350568,31654,1555298875598350568,world,-2.88434028625,-0.817236423492,0.798226356506,0.694193661213,-0.204373791814,0.358403354883,-0.589808106422
1555298875598391746,31655,1555298875598391746,world,-2.88432598114,-0.817202806473,0.798237323761,0.694193661213,-0.204373255372,0.358381778002,-0.589821457863
1555298875608721088,31656,1555298875608721088,world,-2.88430404663,-0.817214012146,0.798205137253,0.694272756577,-0.204089745879,0.35823571682,-0.589915275574
1555298875619039962,31657,1555298875619039962,world,-2.88432598114,-0.817179203033,0.798206090927,0.694202423096,-0.204260095954,0.358393788338,-0.589843034744
1555298875638805418,31658,1555298875638805418,world,-2.88423728943,-0.817190408707,0.798193693161,0.694121837616,-0.204866498709,0.358571738005,-0.589619219303
1555298875638847142,31659,1555298875638847142,world,-2.8842830658,-0.81715965271,0.798213243484,0.694153666496,-0.20432497561,0.358486354351,-0.589821517467
1555298875638904393,31660,1555298875638904393,world,-2.88429069519,-0.817175149918,0.798211812973,0.694053649902,-0.204438611865,0.358705163002,-0.589766979218
1555298875648306446,31661,1555298875648306446,world,-2.88427829742,-0.817185640335,0.798208475113,0.694057106972,-0.204437568784,0.358704984188,-0.589763343334
1555298875658765318,31662,1555298875658765318,world,-2.8842754364,-0.817186594009,0.798182010651,0.694181263447,-0.204346373677,0.35859683156,-0.589714646339
1555298875668079604,31663,1555298875668079604,world,-2.8842830658,-0.817175626755,0.798184394836,0.694152355194,-0.204497441649,0.358743786812,-0.589606761932
1555298875678475779,31664,1555298875678475779,world,-2.88430023193,-0.817159891129,0.798210144043,0.694123506546,-0.204454645514,0.358433127403,-0.589844465256
1555298875688825271,31665,1555298875688825271,world,-2.88432216644,-0.817157030106,0.798241615295,0.694140791893,-0.204260483384,0.358419001102,-0.58989995718
1555298875688869788,31666,1555298875688869788,world,-2.884308815,-0.817193746567,0.798213243484,0.694186031818,-0.204303324223,0.358686119318,-0.589669585228
1555298875698121405,31667,1555298875698121405,world,-2.88424682617,-0.817216396332,0.798181295395,0.694120943546,-0.204865753651,0.358555465937,-0.589630484581
1555298875708524572,31668,1555298875708524572,world,-2.88431358337,-0.817222595215,0.798199653625,0.694124281406,-0.204450383782,0.358420044184,-0.589853167534
1555298875718980286,31669,1555298875718980286,world,-2.88434886932,-0.817240953445,0.798213481903,0.694117844105,-0.204299628735,0.358491927385,-0.589869141579
1555298875728446060,31670,1555298875728446060,world,-2.88436889648,-0.817256212234,0.798235177994,0.694118201733,-0.204344183207,0.358602613211,-0.589785993099
1555298875738866310,31671,1555298875738866310,world,-2.88437271118,-0.817266941071,0.798192501068,0.694225013256,-0.204110890627,0.358589738607,-0.589749038219
1555298875748258557,31672,1555298875748258557,world,-2.88438034058,-0.81728053093,0.798175096512,0.694315135479,-0.204085677862,0.358684509993,-0.589594066143
1555298875748311298,31673,1555298875748311298,world,-2.88439655304,-0.817251682281,0.798201084137,0.694196820259,-0.204037800431,0.358598530293,-0.589801967144
1555298875758598853,31674,1555298875758598853,world,-2.88440608978,-0.817235708237,0.798207044601,0.694177746773,-0.204295709729,0.358593285084,-0.589738309383
1555298875768969547,31675,1555298875768969547,world,-2.88440895081,-0.817220926285,0.798217773438,0.694142460823,-0.204492464662,0.358675062656,-0.589662015438
1555298875778319214,31676,1555298875778319214,world,-2.88438606262,-0.817237615585,0.798185110092,0.694190323353,-0.204547837377,0.358844786882,-0.589483141899
1555298875788734307,31677,1555298875788734307,world,-2.88436889648,-0.817245006561,0.798179388046,0.694200158119,-0.204239264131,0.358718812466,-0.589655101299
1555298875798052811,31678,1555298875798052811,world,-2.88436508179,-0.81724691391,0.798178195953,0.694152891636,-0.204325690866,0.358605772257,-0.589749693871
1555298875798106952,31679,1555298875798106952,world,-2.88435077667,-0.817237615585,0.798182964325,0.694178283215,-0.204414814711,0.358721703291,-0.589618384838
1555298875808540218,31680,1555298875808540218,world,-2.88433647156,-0.817226171494,0.798203468323,0.694130718708,-0.20437027514,0.358799248934,-0.589642643929
1555298875818995318,31681,1555298875818995318,world,-2.88431930542,-0.817244052887,0.798203468323,0.694173872471,-0.204190567136,0.358623057604,-0.589761376381
1555298875828457970,31682,1555298875828457970,world,-2.8843126297,-0.817233324051,0.798199176788,0.69416475296,-0.204437896609,0.35858643055,-0.589708566666
1555298875838857041,31683,1555298875838857041,world,-2.88431835175,-0.81721162796,0.798216342926,0.694119036198,-0.204380691051,0.358517438173,-0.589824080467
1555298875848181439,31684,1555298875848181439,world,-2.8843126297,-0.817234039307,0.798215389252,0.694189012051,-0.204193562269,0.358527392149,-0.589800775051
1555298875848222491,31685,1555298875848222491,world,-2.88429641724,-0.817233562469,0.798214435577,0.694144964218,-0.204193994403,0.35849750042,-0.589870452881
1555298875858564869,31686,1555298875858564869,world,-2.88429832458,-0.817234992981,0.798230648041,0.694160461426,-0.204218372703,0.358693599701,-0.58972454071
1555298875869040474,31687,1555298875869040474,world,-2.88429641724,-0.817224025726,0.79820895195,0.694055736065,-0.204579502344,0.358765214682,-0.589679181576
1555298875878493127,31688,1555298875878493127,world,-2.88430213928,-0.817217588425,0.798192739487,0.694023370743,-0.204685091972,0.358743071556,-0.589694023132
1555298875888947985,31689,1555298875888947985,world,-2.88432312012,-0.817193746567,0.798203468323,0.694077968597,-0.204508602619,0.3585460186,-0.589810848236
1555298875898341396,31690,1555298875898341396,world,-2.88430690765,-0.817214250565,0.79819560051,0.69415140152,-0.204567536712,0.358706712723,-0.589606285095
1555298875908796644,31691,1555298875908796644,world,-2.88431549072,-0.817204475403,0.798209905624,0.694165945053,-0.204515144229,0.358907699585,-0.589484930038
1555298875908838015,31692,1555298875908838015,world,-2.88433933258,-0.817191362381,0.798173666,0.694202780724,-0.20442391932,0.358707129955,-0.589595258236
1555298875918184323,31693,1555298875918184323,world,-2.88435554504,-0.817160606384,0.798165082932,0.694214403629,-0.204310849309,0.358565121889,-0.589707255363
1555298875928572548,31694,1555298875928572548,world,-2.88433742523,-0.817170619965,0.798161506653,0.694095253944,-0.204565182328,0.358675181866,-0.589692294598
1555298875938964271,31695,1555298875938964271,world,-2.88437175751,-0.81715297699,0.798211574554,0.694125235081,-0.204234197736,0.358488351107,-0.589885354042
1555298875948410139,31696,1555298875948410139,world,-2.88435459137,-0.81715464592,0.798220157623,0.694156706333,-0.204068481922,0.358503490686,-0.589896559715
1555298875948451310,31697,1555298875948451310,world,-2.88426113129,-0.817197799683,0.79817533493,0.694208204746,-0.204888775945,0.358723551035,-0.58941757679
1555298875958810009,31698,1555298875958810009,world,-2.88431930542,-0.817199707031,0.798187017441,0.694174408913,-0.204544022679,0.358530938625,-0.589694201946
1555298875968132941,31699,1555298875968132941,world,-2.88423442841,-0.817265510559,0.798172235489,0.694174051285,-0.204967290163,0.358640640974,-0.589480936527
1555298875978588966,31700,1555298875978588966,world,-2.88428401947,-0.817269563675,0.798196554184,0.694244325161,-0.204322963953,0.358642071486,-0.589621007442
1555298875989022977,31701,1555298875989022977,world,-2.88429450989,-0.817291498184,0.798228502274,0.694246172905,-0.204175129533,0.358713805676,-0.589626252651
1555298875998431979,31702,1555298875998431979,world,-2.884308815,-0.817315340042,0.798225402832,0.694196879864,-0.203998535872,0.358879894018,-0.589644372463
1555298875998478644,31703,1555298875998478644,world,-2.88433551788,-0.817297935486,0.79822063446,0.694214880466,-0.203919425607,0.358564883471,-0.589842200279
1555298876008855567,31704,1555298876008855567,world,-2.88436508179,-0.817264080048,0.7982172966,0.694261372089,-0.203950539231,0.358290702105,-0.589943289757
1555298876018123496,31705,1555298876018123496,world,-2.88433837891,-0.817271947861,0.798203468323,0.694099605083,-0.204215973616,0.358738988638,-0.589769542217
1555298876028415417,31706,1555298876028415417,world,-2.88435554504,-0.817212820053,0.798211574554,0.694103479385,-0.20456533134,0.358672380447,-0.589684247971
1555298876038786480,31707,1555298876038786480,world,-2.8843421936,-0.817189216614,0.798204421997,0.694071054459,-0.204634591937,0.358838558197,-0.589597225189
1555298876048072924,31708,1555298876048072924,world,-2.88433742523,-0.817170858383,0.798180818558,0.69405579567,-0.204641744494,0.358815073967,-0.589627027512
1555298876048149163,31709,1555298876048149163,world,-2.88432025909,-0.817166566849,0.79814696312,0.694017708302,-0.204763785005,0.359013229609,-0.589508891106
1555298876058598582,31710,1555298876058598582,world,-2.88436031342,-0.817129850388,0.79817700386,0.694140970707,-0.20419742167,0.358686000109,-0.589759469032
1555298876069091475,31711,1555298876069091475,world,-2.88435459137,-0.817141771317,0.798188686371,0.694097995758,-0.204326972365,0.358600854874,-0.589816808701
1555298876078529329,31712,1555298876078529329,world,-2.88439273834,-0.817163705826,0.798211336136,0.694245636463,-0.204271629453,0.358355075121,-0.589811682701
1555298876088981986,31713,1555298876088981986,world,-2.8843870163,-0.817198514938,0.798214435577,0.69418990612,-0.204251661897,0.358488023281,-0.589803397655
1555298876098431816,31714,1555298876098431816,world,-2.88436889648,-0.817242860794,0.798187971115,0.694142818451,-0.204449385405,0.358739584684,-0.589637339115
1555298876098472526,31715,1555298876098472526,world,-2.884349823,-0.817283153534,0.798176527023,0.694100916386,-0.20444239676,0.358617216349,-0.589763522148
1555298876108876355,31716,1555298876108876355,world,-2.88435077667,-0.817282915115,0.798199176788,0.694148361683,-0.204359948635,0.358642369509,-0.589720845222
1555298876118323736,31717,1555298876118323736,world,-2.88434123993,-0.817275285721,0.798232793808,0.69421261549,-0.204111367464,0.35856923461,-0.589775979519
1555298876128746183,31718,1555298876128746183,world,-2.88433647156,-0.817270040512,0.798259496689,0.69434595108,-0.203923925757,0.358417034149,-0.589776277542
1555298876138048968,31719,1555298876138048968,world,-2.88423347473,-0.817291498184,0.79819893837,0.694188594818,-0.204777166247,0.358626723289,-0.5895383358
1555298876148438659,31720,1555298876148438659,world,-2.88426113129,-0.817266225815,0.79815030098,0.694039642811,-0.204706802964,0.358893066645,-0.589576125145
1555298876148489151,31721,1555298876148489151,world,-2.88428878784,-0.817226648331,0.798157453537,0.694070398808,-0.204677715898,0.358761936426,-0.589629769325
1555298876158942792,31722,1555298876158942792,world,-2.88431835175,-0.817195415497,0.798237085342,0.694149851799,-0.204430475831,0.358625233173,-0.589705169201
1555298876168394703,31723,1555298876168394703,world,-2.88430976868,-0.817175388336,0.798261404037,0.69419336319,-0.204352319241,0.358636975288,-0.589673995972
1555298876178797912,31724,1555298876178797912,world,-2.88432216644,-0.817172288895,0.798228263855,0.694011688232,-0.204297527671,0.358743190765,-0.58984208107
1555298876188119604,31725,1555298876188119604,world,-2.88431453705,-0.817155361176,0.79815030098,0.693976461887,-0.204494908452,0.358748346567,-0.58981192112
1555298876198567855,31726,1555298876198567855,world,-2.88431167603,-0.817160367966,0.798158168793,0.694045126438,-0.20450861752,0.358688622713,-0.589762806892
1555298876208999481,31727,1555298876208999481,world,-2.88435459137,-0.81716132164,0.798218011856,0.694089949131,-0.204318240285,0.358625918627,-0.589814066887
1555298876218453882,31728,1555298876218453882,world,-2.88435077667,-0.817187070847,0.798218250275,0.694059073925,-0.204367667437,0.358597010374,-0.589850842953
1555298876218528616,31729,1555298876218528616,world,-2.88434505463,-0.817184448242,0.798216819763,0.694062650204,-0.204304307699,0.358472794294,-0.589944303036
1555298876229054824,31730,1555298876229054824,world,-2.88435268402,-0.817214488983,0.798165798187,0.694060325623,-0.204488918185,0.358568072319,-0.589824914932
1555298876238506876,31731,1555298876238506876,world,-2.88428688049,-0.817209482193,0.798182725906,0.694176256657,-0.204586699605,0.358522444963,-0.589682459831
1555298876248956882,31732,1555298876248956882,world,-2.88429546356,-0.817219257355,0.798213481903,0.694087088108,-0.204846978188,0.358486443758,-0.589718937874
1555298876248998642,31733,1555298876248998642,world,-2.8843536377,-0.817255735397,0.798225164413,0.694204628468,-0.204262271523,0.358430296183,-0.589817404747
1555298876258433535,31734,1555298876258433535,world,-2.88435935974,-0.817264795303,0.798230171204,0.694146871567,-0.20398311317,0.358476758003,-0.589953660965
1555298876268885519,31735,1555298876268885519,world,-2.88437366486,-0.817268371582,0.798210859299,0.694020092487,-0.204296961427,0.358556061983,-0.58994615078
1555298876278338247,31736,1555298876278338247,world,-2.88436031342,-0.817252635956,0.798182487488,0.694220781326,-0.204129755497,0.358510255814,-0.589795827866
1555298876288791687,31737,1555298876288791687,world,-2.88436985016,-0.817240953445,0.798185586929,0.694213569164,-0.204254195094,0.358569949865,-0.589724898338
1555298876288832839,31738,1555298876288832839,world,-2.88437747955,-0.817188739777,0.79823923111,0.694106519222,-0.204232782125,0.358456224203,-0.589927375317
1555298876298147395,31739,1555298876298147395,world,-2.88434028625,-0.817187070847,0.79825258255,0.694092869759,-0.204339936376,0.358731925488,-0.589738547802
1555298876308599379,31740,1555298876308599379,world,-2.88433551788,-0.817176818848,0.798230171204,0.694131195545,-0.204398944974,0.358715087175,-0.589683413506
1555298876318387843,31741,1555298876318387843,world,-2.8843126297,-0.817174196243,0.798191308975,0.694075167179,-0.204301014543,0.358501821756,-0.589913010597
1555298876328843784,31742,1555298876328843784,world,-2.88431835175,-0.81717133522,0.798166751862,0.693962991238,-0.204537302256,0.358462542295,-0.589986979961
1555298876338167099,31743,1555298876338167099,world,-2.88432979584,-0.817176580429,0.798176527023,0.693999946117,-0.20442083478,0.358790367842,-0.589784562588
1555298876348595030,31744,1555298876348595030,world,-2.88434791565,-0.81716299057,0.798232793808,0.694106757641,-0.204217642546,0.358649224043,-0.589815080166
1555298876348633395,31745,1555298876348633395,world,-2.884349823,-0.817213058472,0.798250675201,0.694161236286,-0.204369738698,0.358894497156,-0.589548945427
1555298876359056501,31746,1555298876359056501,world,-2.88435935974,-0.81719827652,0.798223972321,0.694091320038,-0.204416915774,0.358556389809,-0.589820623398
1555298876368508112,31747,1555298876368508112,world,-2.88433742523,-0.817232608795,0.798150539398,0.694135427475,-0.204337820411,0.358562469482,-0.589792490005
1555298876378959618,31748,1555298876378959618,world,-2.88433170319,-0.817266941071,0.798162698746,0.694120407104,-0.204513058066,0.358892798424,-0.58954834938
1555298876388414013,31749,1555298876388414013,world,-2.88433933258,-0.81726360321,0.798223733902,0.694186985493,-0.204404205084,0.358575612307,-0.589700758457
1555298876398778975,31750,1555298876398778975,world,-2.8843536377,-0.817261695862,0.798231601715,0.694210231304,-0.204381614923,0.358493417501,-0.589731156826
1555298876408108201,31751,1555298876408108201,world,-2.8843460083,-0.817245483398,0.798201322556,0.694135248661,-0.204533413053,0.358652025461,-0.589670300484
1555298876408149833,31752,1555298876408149833,world,-2.88434123993,-0.817248106003,0.798173666,0.6940985322,-0.204418256879,0.358697086573,-0.589726090431
1555298876418589282,31753,1555298876418589282,world,-2.88432788849,-0.817238092422,0.798183917999,0.694063723087,-0.204474166036,0.358956962824,-0.589589476585
1555298876428902057,31754,1555298876428902057,world,-2.88432025909,-0.817235708237,0.798185825348,0.694085896015,-0.204562023282,0.358870536089,-0.589585661888
1555298876438252703,31755,1555298876438252703,world,-2.88434410095,-0.817194700241,0.798238515854,0.69412702322,-0.204259544611,0.358613222837,-0.589798629284
1555298876448690743,31756,1555298876448690743,world,-2.88436222076,-0.817199468613,0.798216104507,0.694179773331,-0.204306006432,0.358612179756,-0.589720964432
1555298876448731192,31757,1555298876448731192,world,-2.88428783417,-0.817189693451,0.798181772232,0.694232344627,-0.204813376069,0.358426868916,-0.589595735073
1555298876459172342,31758,1555298876459172342,world,-2.88433742523,-0.817190408707,0.798187971115,0.694119572639,-0.204573228955,0.358531415462,-0.589748322964
1555298876468638717,31759,1555298876468638717,world,-2.88433170319,-0.817221879959,0.798200845718,0.694071829319,-0.204444050789,0.35877135396,-0.589703440666
1555298876479084100,31760,1555298876479084100,world,-2.88436317444,-0.817195653915,0.798248052597,0.694013834,-0.204297944903,0.358664751053,-0.589887142181
1555298876488486709,31761,1555298876488486709,world,-2.88436031342,-0.817219257355,0.798242807388,0.694116175175,-0.204181089997,0.35869577527,-0.58978831768
1555298876498938098,31762,1555298876498938098,world,-2.88435935974,-0.817235469818,0.798214197159,0.69413870573,-0.204284518957,0.358780235052,-0.589674651623
1555298876498978897,31763,1555298876498978897,world,-2.88434791565,-0.817258358002,0.798171043396,0.694241344929,-0.204192638397,0.358590036631,-0.589701294899
1555298876508407951,31764,1555298876508407951,world,-2.88434505463,-0.817251205444,0.79817533493,0.694105386734,-0.204328641295,0.358663201332,-0.589769601822
1555298876518858805,31765,1555298876518858805,world,-2.88433074951,-0.817266941071,0.798205137253,0.694160401821,-0.204574376345,0.358944267035,-0.58944863081
1555298876528169708,31766,1555298876528169708,world,-2.88435840607,-0.817241191864,0.79824090004,0.694158315659,-0.20444022119,0.358646988869,-0.589678525925
1555298876538556863,31767,1555298876538556863,world,-2.88436222076,-0.817229032516,0.798217058182,0.694152772427,-0.204359322786,0.358662098646,-0.589703977108
1555298876548944315,31768,1555298876548944315,world,-2.88434410095,-0.817231655121,0.798165798187,0.694088995457,-0.204454138875,0.358776241541,-0.589676737785
1555298876558395138,31769,1555298876558395138,world,-2.88435745239,-0.817221403122,0.798153400421,0.694065332413,-0.204531669617,0.358717560768,-0.589713335037
1555298876558439866,31770,1555298876558439866,world,-2.88436794281,-0.817198991776,0.798194885254,0.694165945053,-0.204353317618,0.358508110046,-0.589784145355
1555298876568880259,31771,1555298876568880259,world,-2.88435840607,-0.817225217819,0.798233509064,0.694195330143,-0.204376474023,0.358617454767,-0.589675068855
1555298876578278231,31772,1555298876578278231,world,-2.88439655304,-0.817211151123,0.798256397247,0.694183409214,-0.204284325242,0.358451515436,-0.5898219347
1555298876588716424,31773,1555298876588716424,world,-2.8843421936,-0.817231416702,0.798193216324,0.694218456745,-0.204329565167,0.358760744333,-0.589576840401
1555298876588791815,31774,1555298876588791815,world,-2.88433074951,-0.817221641541,0.798140525818,0.694064557552,-0.20452067256,0.358643144369,-0.589763343334
1555298876598043514,31775,1555298876598043514,world,-2.88434791565,-0.817206382751,0.798174619675,0.694094598293,-0.204202800989,0.35842987895,-0.589967906475
1555298876608490126,31776,1555298876608490126,world,-2.88432693481,-0.817259788513,0.798221588135,0.694212734699,-0.204313591123,0.35883000493,-0.589547038078
1555298876618942022,31777,1555298876618942022,world,-2.88429260254,-0.817224502563,0.798272609711,0.694276094437,-0.204692035913,0.358490794897,-0.589547455311
1555298876628336697,31778,1555298876628336697,world,-2.88433551788,-0.817220687866,0.798233509064,0.694219708443,-0.20411773026,0.358388006687,-0.589875400066
1555298876638754242,31779,1555298876638754242,world,-2.88432502747,-0.817253351212,0.79815030098,0.694133102894,-0.204250514507,0.358810573816,-0.5896743536
1555298876638792394,31780,1555298876638792394,world,-2.88433742523,-0.817249059677,0.798154830933,0.694072127342,-0.204460456967,0.358780801296,-0.589691579342
1555298876658419346,31781,1555298876658419346,world,-2.88433933258,-0.817251682281,0.798229455948,0.694130957127,-0.204546049237,0.358592540026,-0.589707255363
