%time,field.header.seq,field.header.stamp,field.header.frame_id,field.pose.position.x,field.pose.position.y,field.pose.position.z,field.pose.orientation.x,field.pose.orientation.y,field.pose.orientation.z,field.pose.orientation.w
1555296558988371088,6506,1555296558988371088,world,-2.89528751373,-0.821135759354,0.797924757004,-0.715883791447,0.104358479381,-0.260842859745,0.639203190804
1555296558988443486,6508,1555296558988443486,world,-2.89592266083,-0.82026386261,0.798221349716,-0.719682276249,0.107983067632,-0.280039221048,0.626079022884
1555296558998798656,6509,1555296558998798656,world,-2.89556217194,-0.820751905441,0.797991514206,-0.71732878685,0.105893015862,-0.268278717995,0.634233951569
1555296559008008603,6510,1555296559008008603,world,-2.89581489563,-0.820351600647,0.798129320145,-0.719125390053,0.107536017895,-0.277248322964,0.628035187721
1555296559008076941,6511,1555296559008076941,world,-2.89590072632,-0.82021188736,0.798175811768,-0.719611406326,0.108151949942,-0.28006207943,0.626121163368
1555296559028599416,6512,1555296559028599416,world,-2.89592456818,-0.820142030716,0.798242092133,-0.719647467136,0.107937142253,-0.280162632465,0.626071810722
1555296559038898500,6513,1555296559038898500,world,-2.89587879181,-0.820163726807,0.798221349716,-0.719577550888,0.107711039484,-0.279557734728,0.626461565495
1555296559038938924,6514,1555296559038938924,world,-2.89580535889,-0.820235729218,0.798204183578,-0.719410300255,0.107853546739,-0.279043346643,0.626858234406
1555296559048384354,6515,1555296559048384354,world,-2.89571762085,-0.820252180099,0.79819893837,-0.719188213348,0.107243433595,-0.278411537409,0.627498328686
1555296559058789841,6516,1555296559058789841,world,-2.89521121979,-0.820883512497,0.797955036163,-0.716605782509,0.1052647084,-0.265648126602,0.63625985384
1555296559058830381,6517,1555296559058830381,world,-2.89552211761,-0.820521831512,0.79816365242,-0.718530774117,0.10694579035,-0.273992329836,0.630241572857
1555296559068081410,6518,1555296559068081410,world,-2.8951625824,-0.820936203003,0.797997951508,-0.716675698757,0.105048723519,-0.264382690191,0.636743605137
1555296559078429818,6519,1555296559078429818,world,-2.8954706192,-0.820526838303,0.798179864883,-0.718621909618,0.106883570552,-0.275012224913,0.629703819752
1555296559088815130,6520,1555296559088815130,world,-2.89516448975,-0.820937156677,0.798020839691,-0.716926634312,0.105604924262,-0.265866398811,0.635750710964
1555296559098082839,6521,1555296559098082839,world,-2.89557266235,-0.820515394211,0.798184633255,-0.718920052052,0.107599653304,-0.276054561138,0.628784835339
1555296559108346954,6522,1555296559108346954,world,-2.89528083801,-0.820876598358,0.798010349274,-0.7170779109,0.105771638453,-0.26703748107,0.635061085224
1555296559118717728,6523,1555296559118717728,world,-2.8952589035,-0.820957183838,0.798007965088,-0.716415822506,0.104815781116,-0.263264358044,0.637537479401
1555296559118801885,6524,1555296559118801885,world,-2.89564037323,-0.820446968079,0.798196315765,-0.7188783288,0.107257597148,-0.276751071215,0.628584682941
1555296559128031141,6525,1555296559128031141,world,-2.89588737488,-0.820212602615,0.7982609272,-0.719741642475,0.107937343419,-0.280373871326,0.625869095325
1555296559138516946,6526,1555296559138516946,world,-2.89554405212,-0.820743560791,0.798007488251,-0.717395186424,0.105875574052,-0.268437981606,0.634094297886
1555296559148865981,6527,1555296559148865981,world,-2.89540672302,-0.820873498917,0.797912120819,-0.716501951218,0.104763075709,-0.264533221722,0.636923849583
1555296559158306575,6528,1555296559158306575,world,-2.89583110809,-0.820371389389,0.798186302185,-0.718937635422,0.107305899262,-0.276339262724,0.628689646721
1555296559168706702,6529,1555296559168706702,world,-2.89597892761,-0.820236206055,0.798269748688,-0.719720721245,0.108202651143,-0.280494421721,0.625793218613
1555296559168748703,6530,1555296559168748703,world,-2.8959569931,-0.820150613785,0.798238039017,-0.719707489014,0.107786364853,-0.28121060133,0.625558912754
1555296559188450061,6531,1555296559188450061,world,-2.89595794678,-0.820182800293,0.798175811768,-0.71971732378,0.107938967645,-0.280257254839,0.625948905945
1555296559198794107,6532,1555296559198794107,world,-2.89589214325,-0.820288658142,0.79814696312,-0.719687402248,0.108148351312,-0.279548496008,0.626264035702
1555296559198849168,6533,1555296559198849168,world,-2.89619922638,-0.82079577446,0.798517942429,-0.716850221157,0.107245773077,-0.279819011688,0.62954390049
1555296559198919353,6534,1555296559198919353,world,-2.89589881897,-0.82049703598,0.798344612122,-0.718577086926,0.107658393681,-0.278224468231,0.628210008144
1555296559208216089,6535,1555296559208216089,world,-2.89573192596,-0.820394515991,0.798201799393,-0.719356179237,0.107642613351,-0.277338534594,0.627712666988
1555296559218701379,6536,1555296559218701379,world,-2.89563369751,-0.820373296738,0.798117876053,-0.719527482986,0.107846327126,-0.277125865221,0.627575218678
1555296559228997466,6537,1555296559228997466,world,-2.89561080933,-0.820376634598,0.798144340515,-0.719427704811,0.107882797718,-0.276970297098,0.627752065659
1555296559238309027,6538,1555296559238309027,world,-2.8951883316,-0.820938825607,0.797949075699,-0.716812908649,0.105352967978,-0.263774365187,0.636791288853
1555296559248630314,6539,1555296559248630314,world,-2.89549446106,-0.82057261467,0.798131227493,-0.718581199646,0.107099920511,-0.273242473602,0.630483388901
1555296559258956876,6540,1555296559258956876,world,-2.89560890198,-0.820363044739,0.798176765442,-0.71908813715,0.107101008296,-0.276863157749,0.628322005272
1555296559259011620,6541,1555296559259011620,world,-2.89523887634,-0.820876836777,0.797970533371,-0.716799259186,0.105059057474,-0.265568107367,0.636109232903
1555296559278735713,6542,1555296559278735713,world,-2.8955821991,-0.820461273193,0.798139572144,-0.718560993671,0.106582783163,-0.274746388197,0.629940152168
1555296559278771350,6543,1555296559278771350,world,-2.89539432526,-0.820830583572,0.797986268997,-0.716756165028,0.104942776263,-0.264975726604,0.636423945427
1555296559289171242,6544,1555296559289171242,world,-2.89574718475,-0.820423364639,0.798143625259,-0.718768835068,0.107090398669,-0.275036782026,0.629490077496
1555296559298518319,6545,1555296559298518319,world,-2.89588260651,-0.820274114609,0.798222303391,-0.719394683838,0.107829399407,-0.278803497553,0.626987040043
1555296559308866370,6546,1555296559308866370,world,-2.89590263367,-0.82026553154,0.798239469528,-0.719625651836,0.108032733202,-0.279795110226,0.626244783401
1555296559308934916,6547,1555296559308934916,world,-2.89588737488,-0.820276260376,0.798187017441,-0.719627022743,0.10800409317,-0.279468894005,0.626393854618
1555296559318666339,6548,1555296559318666339,world,-2.89584636688,-0.820328712463,0.798130512238,-0.719506204128,0.10806402564,-0.278996109962,0.626733005047
1555296559329023868,6549,1555296559329023868,world,-2.89584827423,-0.820329904556,0.798160076141,-0.719307005405,0.107702530921,-0.277919352055,0.62750184536
1555296559338466919,6550,1555296559338466919,world,-2.89581680298,-0.820370912552,0.798199176788,-0.719242751598,0.107688635588,-0.277638971806,0.627701878548
1555296559348817792,6551,1555296559348817792,world,-2.89577388763,-0.820402860641,0.798223495483,-0.719164311886,0.107757225633,-0.27742883563,0.627872824669
1555296559358028079,6552,1555296559358028079,world,-2.89569282532,-0.820400238037,0.798168182373,-0.718980133533,0.107442848384,-0.277422964573,0.628140211105
1555296559368422990,6553,1555296559368422990,world,-2.89572525024,-0.820389032364,0.798153877258,-0.719063520432,0.107457026839,-0.276770234108,0.628330230713
1555296559368461253,6554,1555296559368461253,world,-2.89529800415,-0.82092165947,0.797935962677,-0.716578602791,0.104789823294,-0.263031095266,0.637454986572
1555296559378873628,6555,1555296559378873628,world,-2.89559078217,-0.820563554764,0.798148393631,-0.718373000622,0.106539718807,-0.27259427309,0.631095945835
1555296559388280079,6556,1555296559388280079,world,-2.89570140839,-0.820383071899,0.798234939575,-0.719093799591,0.107281781733,-0.27647125721,0.628457129002
1555296559398683474,6557,1555296559398683474,world,-2.89525413513,-0.82089972496,0.797998428345,-0.716658711433,0.105307981372,-0.265784710646,0.636135995388
1555296559408952481,6558,1555296559408952481,world,-2.89513015747,-0.821045398712,0.79788851738,-0.715906023979,0.104608088732,-0.262427479029,0.638488471508
1555296559418331364,6559,1555296559418331364,world,-2.89557266235,-0.820492744446,0.798114538193,-0.718670904636,0.107216089964,-0.274849325418,0.629662513733
1555296559418369640,6560,1555296559418369640,world,-2.89543437958,-0.820805072784,0.798044204712,-0.716897785664,0.105108559132,-0.26597610116,0.635819494724
1555296559428750952,6561,1555296559428750952,world,-2.89575481415,-0.820414543152,0.798220872879,-0.719045042992,0.107312522829,-0.276567220688,0.628465473652
1555296559438021077,6562,1555296559438021077,world,-2.895860672,-0.82025718689,0.798249006271,-0.719753742218,0.108099199831,-0.280098676682,0.625950455666
1555296559448410412,6563,1555296559448410412,world,-2.895819664,-0.820243358612,0.798178434372,-0.71965187788,0.108185946941,-0.281120121479,0.625594556332
1555296559458804706,6564,1555296559458804706,world,-2.89547634125,-0.820818424225,0.797971963882,-0.717094779015,0.105655238032,-0.267286628485,0.634956717491
1555296559458856187,6565,1555296559458856187,world,-2.89575862885,-0.820465326309,0.798140287399,-0.718890547752,0.107261411846,-0.275681465864,0.629039764404
1555296559468104787,6566,1555296559468104787,world,-2.89626026154,-0.820777893066,0.798535346985,-0.716790020466,0.107092313468,-0.279612779617,0.629730165005
1555296559478516701,6567,1555296559478516701,world,-2.89598464966,-0.820439100266,0.798307180405,-0.718822002411,0.107692867517,-0.279478371143,0.62736672163
1555296559498064213,6568,1555296559498064213,world,-2.89585018158,-0.820316553116,0.798169374466,-0.719546496868,0.107925534248,-0.279064416885,0.626680254936
1555296559498107431,6569,1555296559498107431,world,-2.89575099945,-0.82030749321,0.798124074936,-0.71962839365,0.108114629984,-0.278653711081,0.626736283302
1555296559508486735,6570,1555296559508486735,world,-2.89569759369,-0.82036614418,0.798162221909,-0.719600558281,0.108312219381,-0.278212815523,0.626929998398
1555296559508527928,6571,1555296559508527928,world,-2.89570045471,-0.820348978043,0.798188686371,-0.719530284405,0.107779726386,-0.277427405119,0.627450227737
1555296559518821350,6572,1555296559518821350,world,-2.89527893066,-0.820878982544,0.797955274582,-0.716845989227,0.105046004057,-0.263667970896,0.63684886694
1555296559528069100,6573,1555296559528069100,world,-2.89556312561,-0.820470094681,0.79806804657,-0.718442201614,0.106423482299,-0.273116499186,0.630810856819
1555296559538349006,6574,1555296559538349006,world,-2.8952922821,-0.820902347565,0.797916412354,-0.71667444706,0.104768425226,-0.263596892357,0.637117028236
1555296559548790871,6575,1555296559548790871,world,-2.89522171021,-0.821025133133,0.79790854454,-0.716158688068,0.104340359569,-0.260936111212,0.638860046864
1555296559558099341,6576,1555296559558099341,world,-2.89567279816,-0.820449113846,0.798195362091,-0.718722224236,0.106975764036,-0.274582833052,0.629761099815
1555296559558143617,6577,1555296559558143617,world,-2.89577674866,-0.820283412933,0.798237800598,-0.719671010971,0.108190536499,-0.279846906662,0.626142323017
1555296559578750191,6578,1555296559578750191,world,-2.89542579651,-0.820794820786,0.797994613647,-0.717295408249,0.105840951204,-0.267837911844,0.634466528893
1555296559578829228,6579,1555296559578829228,world,-2.89533996582,-0.820951938629,0.797914266586,-0.716568470001,0.10529922694,-0.264324218035,0.636847198009
1555296559598500778,6580,1555296559598500778,world,-2.8956785202,-0.820423126221,0.79815196991,-0.71878862381,0.107327923179,-0.276711076498,0.628692746162
1555296559598566263,6581,1555296559598566263,world,-2.89577770233,-0.820244789124,0.798224925995,-0.71956974268,0.107875682414,-0.280837237835,0.625869452953
1555296559608833770,6582,1555296559608833770,world,-2.89588356018,-0.820184230804,0.798247814178,-0.719810545444,0.108103044331,-0.281009793282,0.625475823879
1555296559608861725,6583,1555296559608861725,world,-2.89581108093,-0.820221185684,0.798207044601,-0.719611525536,0.107989780605,-0.2810125947,0.625723063946
1555296559618099497,6584,1555296559618099497,world,-2.89542293549,-0.820848464966,0.797978878021,-0.717033982277,0.105843022466,-0.267054617405,0.635091662407
1555296559628410942,6585,1555296559628410942,world,-2.89532661438,-0.821024894714,0.79793381691,-0.716216802597,0.104964338243,-0.262440562248,0.638075947762
1555296559638772623,6586,1555296559638772623,world,-2.89566612244,-0.820437908173,0.798138380051,-0.718565046787,0.106699071825,-0.274728506804,0.629923701286
1555296559648018111,6587,1555296559648018111,world,-2.89584064484,-0.82028222084,0.798231124878,-0.719536304474,0.107580952346,-0.278982073069,0.62678784132
1555296559658592986,6588,1555296559658592986,world,-2.89586639404,-0.820212125778,0.798250198364,-0.719722390175,0.10789142549,-0.279809117317,0.626151740551
1555296559658663621,6589,1555296559658663621,world,-2.89583969116,-0.820255279541,0.798214197159,-0.719668030739,0.108187705278,-0.279897093773,0.626123666763
1555296559668989488,6590,1555296559668989488,world,-2.89579677582,-0.820281028748,0.798206329346,-0.719531178474,0.108026452363,-0.279064446688,0.626680254936
1555296559678306098,6591,1555296559678306098,world,-2.89575099945,-0.820323228836,0.798227310181,-0.719428181648,0.107846878469,-0.278406918049,0.627121865749
1555296559688641512,6592,1555296559688641512,world,-2.89569759369,-0.820347547531,0.798227548599,-0.7192466259,0.108029492199,-0.27805775404,0.627453625202
1555296559698991765,6593,1555296559698991765,world,-2.89522266388,-0.820869445801,0.797976255417,-0.716585040092,0.10510481894,-0.26479575038,0.636664807796
1555296559708402502,6594,1555296559708402502,world,-2.89508056641,-0.821083068848,0.79785990715,-0.71571201086,0.104591108859,-0.261455476284,0.639107167721
1555296559708443074,6595,1555296559708443074,world,-2.89550971985,-0.820510864258,0.798064947128,-0.718336164951,0.106798611581,-0.274141997099,0.630423307419
1555296559718834438,6596,1555296559718834438,world,-2.89576625824,-0.820288896561,0.79821228981,-0.719341158867,0.107597194612,-0.278229653835,0.627343177795
1555296559728095208,6597,1555296559728095208,world,-2.89583873749,-0.820262432098,0.798271894455,-0.719655454159,0.10793902725,-0.279319375753,0.626439154148
1555296559738476463,6598,1555296559738476463,world,-2.89586162567,-0.820246219635,0.798274040222,-0.719605922699,0.107785508037,-0.279054909945,0.626640200615
1555296559748922873,6599,1555296559748922873,world,-2.89585113525,-0.820255756378,0.798219442368,-0.719478607178,0.107671074569,-0.278474867344,0.627063989639
1555296559758379063,6600,1555296559758379063,world,-2.89580059052,-0.820333003998,0.798139572144,-0.719404935837,0.108014084399,-0.27841758728,0.627114951611
1555296559758408121,6601,1555296559758408121,world,-2.89542579651,-0.820860385895,0.797953367233,-0.716704547405,0.105266824365,-0.264887064695,0.636465489864
1555296559768710579,6602,1555296559768710579,world,-2.89570140839,-0.820493221283,0.798130512238,-0.718480110168,0.107111282647,-0.2738943398,0.630313754082
1555296559779087186,6603,1555296559779087186,world,-2.89583015442,-0.820330619812,0.798186540604,-0.719087302685,0.107432670891,-0.276923507452,0.628239631653
1555296559788541732,6604,1555296559788541732,world,-2.89583683014,-0.820327758789,0.798176765442,-0.719304561615,0.107929721475,-0.278509199619,0.627203941345
1555296559798871602,6605,1555296559798871602,world,-2.89543437958,-0.820857524872,0.797964572906,-0.716761887074,0.105451986194,-0.265800148249,0.635989487171
1555296559808345675,6606,1555296559808345675,world,-2.89526748657,-0.821003913879,0.797879219055,-0.71600073576,0.104522503912,-0.261143743992,0.638922452927
1555296559808399024,6607,1555296559808399024,world,-2.89524078369,-0.821026086807,0.79790687561,-0.716011464596,0.104561924934,-0.26110458374,0.638920009136
1555296559818781721,6608,1555296559818781721,world,-2.89571094513,-0.820415496826,0.798181533813,-0.718748807907,0.107041865587,-0.275017797947,0.62952953577
1555296559828054503,6609,1555296559828054503,world,-2.89582824707,-0.820249080658,0.798268556595,-0.719681203365,0.108283922076,-0.280369371176,0.62588083744
1555296559838411760,6610,1555296559838411760,world,-2.89576053619,-0.820202827454,0.798252105713,-0.719805121422,0.108190320432,-0.281873762608,0.625078141689
1555296559848808623,6611,1555296559848808623,world,-2.89576625824,-0.820237159729,0.798211812973,-0.719855427742,0.108362004161,-0.28104993701,0.625361323357
1555296559858040109,6612,1555296559858040109,world,-2.89570522308,-0.820235729218,0.798197984695,-0.719565868378,0.107655063272,-0.280142784119,0.626223087311
1555296559858079478,6613,1555296559858079478,world,-2.89570045471,-0.820320606232,0.798232555389,-0.719446957111,0.108017072082,-0.279295414686,0.626675665379
1555296559868463881,6614,1555296559868463881,world,-2.89572143555,-0.820330142975,0.79825925827,-0.719285726547,0.107679456472,-0.278094083071,0.627452671528
1555296559878857354,6615,1555296559878857354,world,-2.89569187164,-0.820314407349,0.798233270645,-0.719082355499,0.107020922005,-0.277560353279,0.628034472466
1555296559888126754,6616,1555296559888126754,world,-2.8952255249,-0.820878505707,0.797935724258,-0.716589450836,0.104766137898,-0.264122903347,0.636995017529
1555296559898465260,6617,1555296559898465260,world,-2.89553928375,-0.820517063141,0.798057556152,-0.718355774879,0.10650306195,-0.273670911789,0.63065546751
1555296559908802135,6618,1555296559908802135,world,-2.89571762085,-0.820403337479,0.798144340515,-0.719172298908,0.107806302607,-0.27712354064,0.627990067005
1555296559918074725,6619,1555296559918074725,world,-2.89582157135,-0.8203125,0.798227071762,-0.719315946102,0.107551008463,-0.277883976698,0.627533137798
1555296559918116017,6620,1555296559918116017,world,-2.89616203308,-0.820741891861,0.798528671265,-0.716482460499,0.10680694133,-0.279647022486,0.630113303661
1555296559928507857,6621,1555296559928507857,world,-2.8959197998,-0.820435762405,0.798272609711,-0.718446493149,0.107548385859,-0.278187870979,0.628394365311
1555296559938887939,6622,1555296559938887939,world,-2.8957862854,-0.820341348648,0.798141717911,-0.719300150871,0.107853710651,-0.277508676052,0.62766546011
1555296559948281026,6623,1555296559948281026,world,-2.89574337006,-0.820305109024,0.798103809357,-0.719482243061,0.107828080654,-0.277045726776,0.627665698528
1555296559958694917,6624,1555296559958694917,world,-2.89572525024,-0.820327758789,0.798136472702,-0.719428360462,0.107758648694,-0.276799887419,0.627847731113
1555296559958734036,6625,1555296559958734036,world,-2.89573192596,-0.820310354233,0.798199892044,-0.719246447086,0.107391148806,-0.276527255774,0.628239035606
1555296559968028820,6626,1555296559968028820,world,-2.89571475983,-0.820345163345,0.798182010651,-0.719275414944,0.107675328851,-0.276580035686,0.628133952618
1555296559978301662,6627,1555296559978301662,world,-2.8956861496,-0.820339918137,0.798158168793,-0.719182193279,0.107401721179,-0.276316851377,0.628403484821
1555296559988699287,6628,1555296559988699287,world,-2.89527606964,-0.820913553238,0.797911167145,-0.716588973999,0.105019934475,-0.263588696718,0.637175023556
1555296559999028201,6629,1555296559999028201,world,-2.89554023743,-0.820547819138,0.798074483871,-0.718394100666,0.106960482895,-0.273136079311,0.63076621294
1555296560008493428,6630,1555296560008493428,world,-2.89565372467,-0.820393323898,0.798189878464,-0.71910649538,0.107647359371,-0.276802957058,0.628234148026
1555296560008534374,6631,1555296560008534374,world,-2.89568996429,-0.820358037949,0.798243284225,-0.71932053566,0.108015589416,-0.27810099721,0.627351939678
1555296560028051922,6632,1555296560028051922,world,-2.89570903778,-0.820334672928,0.798223018646,-0.719389438629,0.107932299376,-0.278167128563,0.627257883549
1555296560028103908,6633,1555296560028103908,world,-2.89524173737,-0.820881128311,0.797934532166,-0.716700196266,0.105334937572,-0.265563964844,0.636177062988
1555296560038407869,6634,1555296560038407869,world,-2.89512634277,-0.821017980576,0.797854185104,-0.715912163258,0.104493461549,-0.26171079278,0.638794541359
1555296560048699352,6635,1555296560048699352,world,-2.89559173584,-0.820499897003,0.798119068146,-0.718482255936,0.10698299855,-0.27410286665,0.630242586136
1555296560058990801,6636,1555296560058990801,world,-2.89576911926,-0.820328474045,0.798229932785,-0.719467759132,0.108012959361,-0.278842926025,0.626854121685
1555296560059061598,6637,1555296560059061598,world,-2.89585971832,-0.820232391357,0.798249721527,-0.719720244408,0.108015403152,-0.279653459787,0.626202344894
1555296560068406513,6638,1555296560068406513,world,-2.89583396912,-0.820207595825,0.798200845718,-0.719452559948,0.107427127659,-0.279505342245,0.626677036285
1555296560078744106,6639,1555296560078744106,world,-2.8957862854,-0.820230960846,0.798165559769,-0.719297885895,0.107040509582,-0.278919398785,0.627181708813
1555296560088000352,6640,1555296560088000352,world,-2.89581108093,-0.820261478424,0.798175811768,-0.719287157059,0.107404351234,-0.27810254693,0.627494394779
1555296560098288458,6641,1555296560098288458,world,-2.89536190033,-0.82084774971,0.797979831696,-0.716697156429,0.105070307851,-0.265318334103,0.636326611042
1555296560108691681,6642,1555296560108691681,world,-2.89569187164,-0.820499897003,0.798176050186,-0.718458354473,0.106777325273,-0.273705333471,0.630477249622
1555296560108735566,6643,1555296560108735566,world,-2.89576625824,-0.820380687714,0.798214912415,-0.719135761261,0.107723809779,-0.27728202939,0.627976238728
1555296560119058385,6644,1555296560119058385,world,-2.89538002014,-0.82087635994,0.797979831696,-0.716889262199,0.10534299165,-0.265116393566,0.636149227619
1555296560138770872,6645,1555296560138770872,world,-2.89559078217,-0.820467948914,0.798093080521,-0.71860653162,0.10696721822,-0.275077462196,0.629678606987
1555296560138812080,6646,1555296560138812080,world,-2.89567279816,-0.820318460464,0.798164367676,-0.719129920006,0.10760679841,-0.278602749109,0.627418041229
1555296560148002709,6647,1555296560148002709,world,-2.89568996429,-0.820295572281,0.798227548599,-0.719274699688,0.107631117105,-0.279495060444,0.62685084343
1555296560158456048,6648,1555296560158456048,world,-2.89574718475,-0.820329666138,0.798248767853,-0.719445168972,0.107973098755,-0.278921365738,0.626851975918
1555296560168890072,6649,1555296560168890072,world,-2.89573383331,-0.820322751999,0.798219203949,-0.719435572624,0.108004592359,-0.278348386288,0.627112329006
1555296560168931224,6650,1555296560168931224,world,-2.89533805847,-0.82089138031,0.797972679138,-0.716789126396,0.105480223894,-0.265030741692,0.63627499342
1555296560178313432,6651,1555296560178313432,world,-2.89520263672,-0.821071386337,0.797908782959,-0.715932130814,0.104930348694,-0.261363059282,0.638842821121
1555296560188779227,6652,1555296560188779227,world,-2.89514160156,-0.821035861969,0.797918796539,-0.715947687626,0.104583464563,-0.260919451714,0.639063596725
1555296560199052434,6653,1555296560199052434,world,-2.89562511444,-0.82048034668,0.79816365242,-0.718802034855,0.107376217842,-0.275102972984,0.629374623299
1555296560208367845,6654,1555296560208367845,world,-2.895819664,-0.820241689682,0.798256397247,-0.719720840454,0.108133882284,-0.279982566833,0.626034259796
1555296560208409425,6655,1555296560208409425,world,-2.89587974548,-0.820187091827,0.798227310181,-0.719957709312,0.108295358717,-0.280925363302,0.625311017036
1555296560218723088,6656,1555296560218723088,world,-2.89583873749,-0.820226192474,0.798192501068,-0.719863593578,0.108330346644,-0.280757576227,0.625488817692
1555296560229107455,6657,1555296560229107455,world,-2.89582633972,-0.820273637772,0.7982172966,-0.719718754292,0.108282878995,-0.279793828726,0.626095116138
1555296560238494521,6658,1555296560238494521,world,-2.89581203461,-0.820307016373,0.798231601715,-0.719471275806,0.108007639647,-0.278828620911,0.626857280731
1555296560249048407,6659,1555296560249048407,world,-2.89580440521,-0.820320129395,0.798202753067,-0.719330608845,0.107507511973,-0.277917385101,0.627509117126
1555296560249118259,6660,1555296560249118259,world,-2.89538669586,-0.820888519287,0.797956466675,-0.716570794582,0.104990318418,-0.264612317085,0.636775910854
1555296560258558688,6661,1555296560258558688,world,-2.89567375183,-0.820477962494,0.79812169075,-0.718435585499,0.106572777033,-0.273368924856,0.630683779716
1555296560268879697,6662,1555296560268879697,world,-2.89567947388,-0.820383310318,0.798164129257,-0.719064116478,0.10736490041,-0.277728229761,0.627922415733
1555296560278269733,6663,1555296560278269733,world,-2.89577293396,-0.820296287537,0.798232793808,-0.719240486622,0.107388183475,-0.27808791399,0.62755715847
1555296560288701678,6664,1555296560288701678,world,-2.89536094666,-0.820888996124,0.797996520996,-0.716776072979,0.105631664395,-0.265719145536,0.635977447033
1555296560299175082,6665,1555296560299175082,world,-2.89519882202,-0.821012735367,0.79793381691,-0.716044902802,0.104574434459,-0.261027097702,0.638912200928
1555296560299246068,6666,1555296560299246068,world,-2.89513015747,-0.821068763733,0.797885417938,-0.715990543365,0.104900032282,-0.262032151222,0.638508200645
1555296560308689894,6667,1555296560308689894,world,-2.89565563202,-0.820430994034,0.798146247864,-0.718873918056,0.107047393918,-0.275414168835,0.629212498665
1555296560318417312,6668,1555296560318417312,world,-2.89576721191,-0.82022356987,0.798226356506,-0.719652533531,0.10788384825,-0.280716300011,0.62582719326
1555296560328814777,6669,1555296560328814777,world,-2.89586544037,-0.820151805878,0.798277139664,-0.719922065735,0.107981696725,-0.281099259853,0.625328242779
1555296560338131749,6670,1555296560338131749,world,-2.89582920074,-0.820230484009,0.798236608505,-0.719933390617,0.108282767236,-0.280792176723,0.625401079655
1555296560348524884,6671,1555296560348524884,world,-2.89543533325,-0.820809364319,0.798015594482,-0.717083692551,0.105631291866,-0.266978502274,0.635102689266
1555296560358987411,6672,1555296560358987411,world,-2.89526939392,-0.820965766907,0.797908067703,-0.716116249561,0.104494839907,-0.262656837702,0.638176858425
1555296560359041332,6673,1555296560359041332,world,-2.89567756653,-0.820454120636,0.798130989075,-0.718651652336,0.106854319572,-0.274768203497,0.629781365395
1555296560368468798,6674,1555296560368468798,world,-2.89618682861,-0.820737600327,0.798544883728,-0.716909885406,0.107358880341,-0.280404835939,0.629195868969
1555296560378888587,6675,1555296560378888587,world,-2.8959646225,-0.820363521576,0.798344135284,-0.719049870968,0.107871651649,-0.280366361141,0.626678347588
1555296560388171445,6676,1555296560388171445,world,-2.89542007446,-0.820801973343,0.797981500626,-0.71722227335,0.105812482536,-0.26700180769,0.634906291962
1555296560398510528,6677,1555296560398510528,world,-2.89562129974,-0.82035946846,0.798085927963,-0.718940198421,0.107130967081,-0.275808721781,0.628949522972
1555296560408841402,6678,1555296560408841402,world,-2.89527416229,-0.820751428604,0.797926664352,-0.71724152565,0.105149462819,-0.265395581722,0.635667681694
1555296560408882592,6679,1555296560408882592,world,-2.89562511444,-0.820413589478,0.798110485077,-0.719239234924,0.107501223683,-0.275651335716,0.62861353159
1555296560418309822,6680,1555296560418309822,world,-2.89574241638,-0.820217609406,0.798206567764,-0.71957552433,0.107618167996,-0.27931907773,0.626586258411
1555296560428716150,6681,1555296560428716150,world,-2.89576721191,-0.820261716843,0.798216819763,-0.719795644283,0.108386486769,-0.280210644007,0.625802457333
1555296560439106086,6682,1555296560439106086,world,-2.89573383331,-0.820239543915,0.798187971115,-0.719578027725,0.107487566769,-0.279703527689,0.626434385777
1555296560448499426,6683,1555296560448499426,world,-2.8953704834,-0.820827722549,0.797969818115,-0.716998755932,0.10557217896,-0.266113042831,0.635571599007
1555296560458951149,6684,1555296560458951149,world,-2.89558792114,-0.820464611053,0.798133611679,-0.718577206135,0.106957770884,-0.275086402893,0.629709720612
1555296560459000768,6685,1555296560459000768,world,-2.89573574066,-0.820377588272,0.798232555389,-0.719351708889,0.107903137803,-0.278027653694,0.627368032932
1555296560488083394,6686,1555296560488083394,world,-2.89577579498,-0.820318698883,0.798247814178,-0.719453692436,0.108013905585,-0.27874353528,0.626914203167
1555296560488170105,6688,1555296560488170105,world,-2.89568710327,-0.820299386978,0.798145532608,-0.719245314598,0.107347816229,-0.278569489717,0.627344846725
1555296560498547573,6689,1555296560498547573,world,-2.8957118988,-0.820300102234,0.798145294189,-0.719078660011,0.107206217945,-0.277993112803,0.627815783024
1555296560508890513,6690,1555296560508890513,world,-2.89576435089,-0.820330142975,0.798190355301,-0.71911585331,0.107555016875,-0.277215272188,0.62805724144
1555296560518340756,6691,1555296560518340756,world,-2.89580917358,-0.820343971252,0.798227548599,-0.719141066074,0.107355795801,-0.276625692844,0.6283223629
1555296560528806886,6692,1555296560528806886,world,-2.89570808411,-0.820390701294,0.798179149628,-0.719004154205,0.107449054718,-0.277348667383,0.628144562244
1555296560528845066,6693,1555296560528845066,world,-2.89535331726,-0.8209233284,0.797914505005,-0.716500937939,0.105139896274,-0.264039367437,0.637067735195
1555296560538147409,6694,1555296560538147409,world,-2.89567756653,-0.820508718491,0.798066139221,-0.718373417854,0.106688797474,-0.27285733819,0.630956470966
1555296560548622714,6695,1555296560548622714,world,-2.89579486847,-0.820364952087,0.798171758652,-0.719125747681,0.107519611716,-0.276558160782,0.628341674805
1555296560558977187,6696,1555296560558977187,world,-2.89579868317,-0.820331811905,0.798225402832,-0.719338357449,0.107912644744,-0.277941823006,0.627419769764
1555296560568386890,6697,1555296560568386890,world,-2.89579963684,-0.820301055908,0.79823756218,-0.719335615635,0.107650816441,-0.277712076902,0.627569675446
1555296560568425888,6698,1555296560568425888,world,-2.89576435089,-0.820327997208,0.798172235489,-0.719347774982,0.107713840902,-0.277791112661,0.627509951591
1555296560578746248,6699,1555296560578746248,world,-2.89534187317,-0.820891857147,0.797911882401,-0.716710627079,0.105351440609,-0.264692485332,0.636525511742
1555296560589097488,6700,1555296560589097488,world,-2.89522457123,-0.821039199829,0.797895908356,-0.715858399868,0.104413844645,-0.260725975037,0.639270365238
1555296560598434475,6701,1555296560598434475,world,-2.89555549622,-0.820506811142,0.798125505447,-0.718362808228,0.10684338212,-0.274182915688,0.630367517471
1555296560608769167,6702,1555296560608769167,world,-2.89576530457,-0.820264816284,0.798272371292,-0.719350457191,0.107618786395,-0.278250128031,0.627319693565
1555296560608813389,6703,1555296560608813389,world,-2.89581298828,-0.820207357407,0.798250675201,-0.719643652439,0.107819564641,-0.279371082783,0.626450181007
1555296560617999424,6704,1555296560617999424,world,-2.89573192596,-0.820222139359,0.798158168793,-0.719551503658,0.107791699469,-0.279842674732,0.626350224018
1555296560628440673,6705,1555296560628440673,world,-2.89577484131,-0.820245027542,0.798190355301,-0.71943116188,0.107790179551,-0.278958231211,0.626883089542
1555296560638838970,6706,1555296560638838970,world,-2.89612388611,-0.820751428604,0.798503637314,-0.716748058796,0.107218161225,-0.279270172119,0.629908502102
1555296560648155413,6707,1555296560648155413,world,-2.89579200745,-0.820402622223,0.798315048218,-0.718383193016,0.10713801533,-0.278171896935,0.628543913364
1555296560658603641,6708,1555296560658603641,world,-2.89570903778,-0.820295095444,0.798207521439,-0.719201922417,0.107550576329,-0.277277261019,0.627932071686
1555296560658670910,6709,1555296560658670910,world,-2.89565658569,-0.820297718048,0.798121213913,-0.719520747662,0.107863672078,-0.276989430189,0.627640247345
1555296560678493381,6710,1555296560678493381,world,-2.89564323425,-0.820323705673,0.79807305336,-0.719530165195,0.107898339629,-0.276870906353,0.627675771713
1555296560678580784,6711,1555296560678580784,world,-2.89557552338,-0.820367097855,0.798089027405,-0.719327509403,0.107725329697,-0.277373492718,0.627715706825
1555296560689018476,6712,1555296560689018476,world,-2.89563751221,-0.820331811905,0.798176050186,-0.719033122063,0.106936380267,-0.276891440153,0.62840038538
1555296560698359060,6713,1555296560698359060,world,-2.89569759369,-0.820358753204,0.798230409622,-0.719065845013,0.107374228537,-0.27641326189,0.628498852253
1555296560708640717,6714,1555296560708640717,world,-2.89570236206,-0.820393562317,0.798189401627,-0.71917039156,0.107547365129,-0.276351034641,0.628377079964
1555296560718961032,6715,1555296560718961032,world,-2.89523124695,-0.820919036865,0.797886371613,-0.716617822647,0.105019725859,-0.263416588306,0.637213766575
1555296560718993038,6716,1555296560718993038,world,-2.89511299133,-0.821102619171,0.797817468643,-0.715800642967,0.1044549793,-0.260626643896,0.639368593693
1555296560728324882,6717,1555296560728324882,world,-2.89558315277,-0.820517539978,0.798127174377,-0.718364477158,0.106833837926,-0.27316814661,0.630807638168
1555296560738723703,6718,1555296560738723703,world,-2.89579772949,-0.820270776749,0.798290967941,-0.719244480133,0.107566252351,-0.277833759785,0.627634704113
1555296560749143187,6719,1555296560749143187,world,-2.89541244507,-0.820715665817,0.798070669174,-0.717048883438,0.105313561857,-0.265886902809,0.63565248251
1555296560749186447,6720,1555296560749186447,world,-2.89560508728,-0.820348262787,0.798095941544,-0.718797028065,0.107156686485,-0.27613723278,0.628964662552
1555296560758603374,6721,1555296560758603374,world,-2.89527988434,-0.820763587952,0.797904014587,-0.716930031776,0.105375289917,-0.266759008169,0.635410904884
1555296560769045684,6722,1555296560769045684,world,-2.89565658569,-0.820362567902,0.798156023026,-0.718893766403,0.107687480748,-0.276594609022,0.628562450409
1555296560778496520,6723,1555296560778496520,world,-2.89572429657,-0.820208787918,0.798283100128,-0.71934312582,0.107864379883,-0.280092179775,0.62646561861
1555296560788841426,6724,1555296560788841426,world,-2.89573192596,-0.820204019547,0.798287630081,-0.719512581825,0.107996463776,-0.280706882477,0.625972986221
1555296560798118050,6725,1555296560798118050,world,-2.89576816559,-0.820261716843,0.798219442368,-0.719650566578,0.108248509467,-0.27992734313,0.626119911671
1555296560808520057,6726,1555296560808520057,world,-2.89536952972,-0.82087635994,0.797964572906,-0.717018723488,0.105826824903,-0.26628857851,0.635433137417
1555296560808561878,6727,1555296560808561878,world,-2.8952331543,-0.821053981781,0.797919988632,-0.716040015221,0.104552693665,-0.262167990208,0.638453781605
1555296560818987007,6728,1555296560818987007,world,-2.89564800262,-0.8204870224,0.798186540604,-0.718424677849,0.106340110302,-0.274287074804,0.630336880684
1555296560838798991,6729,1555296560838798991,world,-2.89584064484,-0.820326328278,0.798277378082,-0.719479858875,0.107627369463,-0.278653860092,0.626990556717
1555296560838841787,6730,1555296560838841787,world,-2.89538383484,-0.820868253708,0.798004865646,-0.717308700085,0.105644457042,-0.267304241657,0.63470941782
1555296560848230363,6731,1555296560848230363,world,-2.89573001862,-0.820477962494,0.798170089722,-0.719016432762,0.107426308095,-0.276131272316,0.62867051363
1555296560858611577,6732,1555296560858611577,world,-2.89543628693,-0.820884466171,0.797975540161,-0.717041492462,0.105749584734,-0.266428440809,0.635361731052
1555296560858708406,6733,1555296560858708406,world,-2.89538383484,-0.82094836235,0.797996282578,-0.716273009777,0.104696199298,-0.263132333755,0.637772083282
1555296560869144400,6734,1555296560869144400,world,-2.89570808411,-0.820397138596,0.79821062088,-0.718724370003,0.106888107955,-0.27622076869,0.629056692123
1555296560878661911,6735,1555296560878661911,world,-2.89583969116,-0.820226669312,0.798279523849,-0.71970897913,0.108074948192,-0.280515819788,0.625819206238
1555296560889059062,6736,1555296560889059062,world,-2.89581298828,-0.820141792297,0.798241138458,-0.719735741615,0.107967153192,-0.281350761652,0.625432193279
1555296560898402578,6737,1555296560898402578,world,-2.8953962326,-0.82074379921,0.797960042953,-0.71727001667,0.106027334929,-0.268213778734,0.634305298328
1555296560908797366,6738,1555296560908797366,world,-2.89566421509,-0.820375680923,0.798134326935,-0.718988656998,0.10755777359,-0.27626645565,0.628620386124
1555296560918066995,6739,1555296560918066995,world,-2.89576148987,-0.820245981216,0.798254013062,-0.719591617584,0.108080282807,-0.278892874718,0.626677930355
1555296560928423499,6740,1555296560928423499,world,-2.89578914642,-0.820229530334,0.798297643661,-0.719557881355,0.108039036393,-0.279376059771,0.626508653164
1555296560938829434,6741,1555296560938829434,world,-2.89569664001,-0.820260763168,0.798207521439,-0.71943539381,0.107696466148,-0.279440253973,0.62667965889
1555296560938874619,6742,1555296560938874619,world,-2.89526939392,-0.820843458176,0.797958850861,-0.71680188179,0.105287879705,-0.265271574259,0.636192321777
1555296560948108953,6743,1555296560948108953,world,-2.89556598663,-0.820473909378,0.798124790192,-0.718397498131,0.106664024293,-0.274673044682,0.630144894123
1555296560958568713,6744,1555296560958568713,world,-2.89525985718,-0.820886611938,0.798014163971,-0.716661334038,0.104889757931,-0.264867246151,0.636584639549
1555296560978364952,6745,1555296560978364952,world,-2.89566326141,-0.82049536705,0.798212766647,-0.718674123287,0.107141636312,-0.275075793266,0.629572451115
1555296560978405749,6746,1555296560978405749,world,-2.89582538605,-0.820341110229,0.798250436783,-0.719439089298,0.107705496252,-0.278511583805,0.627087116241
1555296560978459746,6747,1555296560978459746,world,-2.89546203613,-0.820875644684,0.798010587692,-0.717082083225,0.10564288497,-0.266841888428,0.635160028934
1555296561008337212,6748,1555296561008337212,world,-2.89570331573,-0.820505857468,0.798132896423,-0.71896314621,0.107700876892,-0.276176929474,0.628664433956
1555296561008386413,6749,1555296561008386413,world,-2.89538860321,-0.820860862732,0.798005819321,-0.717002689838,0.105863183737,-0.265942782164,0.635589897633
1555296561018691591,6750,1555296561018691591,world,-2.89573478699,-0.820412874222,0.798199415207,-0.71892362833,0.107325389981,-0.27581769228,0.628931581974
1555296561028974987,6751,1555296561028974987,world,-2.89586448669,-0.820243835449,0.798259973526,-0.719579815865,0.107591435313,-0.279002487659,0.626726925373
1555296561029010251,6752,1555296561029010251,world,-2.8958530426,-0.820210933685,0.798237800598,-0.719712197781,0.107823319733,-0.280076682568,0.626055538654
1555296561029055700,6753,1555296561029055700,world,-2.89529418945,-0.820778369904,0.797947406769,-0.717153191566,0.105760030448,-0.267331629992,0.634854197502
1555296561038476692,6754,1555296561038476692,world,-2.89556598663,-0.82039475441,0.798099756241,-0.718631327152,0.10700519383,-0.275974690914,0.629251182079
1555296561048923012,6755,1555296561048923012,world,-2.89567470551,-0.820237398148,0.79820728302,-0.719124078751,0.107338406146,-0.278786092997,0.62738931179
1555296561058409435,6756,1555296561058409435,world,-2.89574432373,-0.820268154144,0.798255205154,-0.719446957111,0.107946641743,-0.27929469943,0.626688301563
1555296561068739608,6757,1555296561068739608,world,-2.89577007294,-0.820257902145,0.798258781433,-0.719454944134,0.10763797909,-0.278654307127,0.627017080784
1555296561068780567,6758,1555296561068780567,world,-2.8957529068,-0.820295095444,0.798208475113,-0.719418048859,0.107682839036,-0.277994513512,0.627344548702
1555296561079031814,6759,1555296561079031814,world,-2.89570236206,-0.820321559906,0.798202037811,-0.719325244427,0.107709869742,-0.277610391378,0.627616345882
1555296561088398458,6760,1555296561088398458,world,-2.895611763,-0.820383548737,0.798207998276,-0.719079315662,0.107662819326,-0.277966678143,0.627748548985
1555296561098783829,6761,1555296561098783829,world,-2.89562129974,-0.820346832275,0.798246860504,-0.718802511692,0.107222512364,-0.277447402477,0.628370285034
1555296561108089305,6762,1555296561108089305,world,-2.89520549774,-0.820979833603,0.797978401184,-0.716522753239,0.105339966714,-0.264038681984,0.637010395527
1555296561108130939,6763,1555296561108130939,world,-2.89558315277,-0.820559501648,0.798122882843,-0.718414247036,0.106864467263,-0.273114532232,0.630769073963
1555296561128852779,6764,1555296561128852779,world,-2.89528751373,-0.820921182632,0.797946691513,-0.716618955135,0.105190098286,-0.263479739428,0.637158334255
1555296561128903533,6765,1555296561128903533,world,-2.89561748505,-0.820485115051,0.798121452332,-0.718717873096,0.107391707599,-0.274498194456,0.629731953144
1555296561138318641,6766,1555296561138318641,world,-2.89568519592,-0.820307970047,0.79821562767,-0.719213426113,0.107747703791,-0.278968781233,0.627135515213
1555296561148768872,6767,1555296561148768872,world,-2.89571380615,-0.82023191452,0.798223018646,-0.719376266003,0.107872277498,-0.279960334301,0.626485049725
1555296561158117484,6768,1555296561158117484,world,-2.89537334442,-0.820757865906,0.798021793365,-0.71694290638,0.10550237447,-0.26650094986,0.635483503342
1555296561158187919,6769,1555296561158187919,world,-2.89517593384,-0.820934057236,0.797887086868,-0.716111004353,0.104839272797,-0.262744277716,0.638090252876
1555296561168596847,6770,1555296561168596847,world,-2.8956155777,-0.820389509201,0.798110723495,-0.718808591366,0.107243567705,-0.274935990572,0.629462659359
1555296561178882471,6771,1555296561178882471,world,-2.89572525024,-0.820187091827,0.798206329346,-0.719485402107,0.107696674764,-0.279417663813,0.626632273197
1555296561188271067,6772,1555296561188271067,world,-2.89581680298,-0.820182323456,0.798270225525,-0.719692647457,0.107913598418,-0.27996212244,0.626113653183
1555296561198672022,6773,1555296561198672022,world,-2.89533233643,-0.820738077164,0.798046112061,-0.717115581036,0.105505637825,-0.267091274261,0.635040283203
1555296561209066747,6774,1555296561209066747,world,-2.89515590668,-0.820910692215,0.797911882401,-0.716280698776,0.104856140912,-0.262923568487,0.637823224068
1555296561218472641,6775,1555296561218472641,world,-2.89517402649,-0.821015834808,0.797879219055,-0.716192007065,0.104978084564,-0.262021422386,0.638273835182
1555296561218509914,6776,1555296561218509914,world,-2.89522171021,-0.820979118347,0.79794049263,-0.716405034065,0.104980058968,-0.262547194958,0.637818217278
1555296561228757835,6777,1555296561228757835,world,-2.89570426941,-0.820419549942,0.798238992691,-0.719183146954,0.107808344066,-0.277277171612,0.627909481525
1555296561239081533,6778,1555296561239081533,world,-2.89588260651,-0.820209741592,0.798346996307,-0.719934999943,0.10842178762,-0.281754463911,0.624942183495
1555296561248551051,6779,1555296561248551051,world,-2.89590263367,-0.820169448853,0.798290967941,-0.720132827759,0.108371727169,-0.282416880131,0.62442368269
1555296561259015172,6780,1555296561259015172,world,-2.89549922943,-0.820728063583,0.798012971878,-0.717458844185,0.105833984911,-0.268827259541,0.633864283562
1555296561268418326,6781,1555296561268418326,world,-2.89573383331,-0.820372819901,0.798146009445,-0.719141721725,0.107496976852,-0.276904970407,0.628174602985
1555296561268460543,6782,1555296561268460543,world,-2.89580059052,-0.820288181305,0.798218250275,-0.719544887543,0.108234897256,-0.279687792063,0.626350700855
1555296561278847299,6783,1555296561278847299,world,-2.89615440369,-0.820673465729,0.798546075821,-0.716832876205,0.107298389077,-0.281455665827,0.628824591637
1555296561288162004,6784,1555296561288162004,world,-2.89552211761,-0.820872306824,0.79810833931,-0.716163158417,0.105252414942,-0.266952544451,0.636214256287
1555296561298655745,6785,1555296561298655745,world,-2.89528274536,-0.820958614349,0.797890663147,-0.716150581837,0.104853115976,-0.262453913689,0.638163089752
1555296561309050822,6786,1555296561309050822,world,-2.89522457123,-0.820916652679,0.797850131989,-0.716305732727,0.10474652797,-0.261697500944,0.638317108154
1555296561318752974,6787,1555296561318752974,world,-2.89564704895,-0.820329904556,0.798118829727,-0.719220221043,0.107454486191,-0.275425493717,0.628742158413
1555296561318793564,6788,1555296561318793564,world,-2.89539432526,-0.820651769638,0.798067808151,-0.717603445053,0.105577647686,-0.266835540533,0.634584486485
1555296561338418827,6789,1555296561338418827,world,-2.89565849304,-0.820264339447,0.798191308975,-0.719409227371,0.107321456075,-0.277853518724,0.627478957176
1555296561338472762,6790,1555296561338472762,world,-2.89570903778,-0.820191383362,0.798178672791,-0.719845056534,0.108164891601,-0.281626373529,0.625148057938
1555296561348898522,6791,1555296561348898522,world,-2.89539051056,-0.820748090744,0.797965526581,-0.717436015606,0.1061116606,-0.268746882677,0.633877873421
1555296561368758302,6792,1555296561368758302,world,-2.89528274536,-0.820981502533,0.797932624817,-0.71661055088,0.105445042253,-0.264515370131,0.636696457863
1555296561368809931,6793,1555296561368809931,world,-2.89564800262,-0.820430517197,0.798206806183,-0.718822479248,0.10724041611,-0.276529788971,0.628748774529
1555296561378060323,6794,1555296561378060323,world,-2.8957901001,-0.820272684097,0.798293352127,-0.719779133797,0.108367532492,-0.280555337667,0.62567025423
1555296561378100719,6795,1555296561378100719,world,-2.89583206177,-0.820246934891,0.798252344131,-0.719966888428,0.108465835452,-0.281120240688,0.625183343887
1555296561388476441,6796,1555296561388476441,world,-2.89541721344,-0.82079076767,0.797967672348,-0.717332959175,0.106088839471,-0.267870217562,0.634369075298
1555296561398858996,6797,1555296561398858996,world,-2.89524364471,-0.820991516113,0.797883749008,-0.716406524181,0.105627849698,-0.264105558395,0.637065768242
1555296561408137145,6798,1555296561408137145,world,-2.89558887482,-0.820423603058,0.798159837723,-0.718573749065,0.107264623046,-0.276108324528,0.629214167595
1555296561418527309,6799,1555296561418527309,world,-2.89611816406,-0.820648431778,0.798549890518,-0.71675914526,0.106977321208,-0.281197547913,0.629078924656
1555296561428801016,6800,1555296561428801016,world,-2.89589214325,-0.820253372192,0.798312187195,-0.718930602074,0.107546389103,-0.281112790108,0.626536726952
1555296561428839900,6801,1555296561428839900,world,-2.89581871033,-0.820158004761,0.798162937164,-0.719826221466,0.108103714883,-0.280131936073,0.625851392746
1555296561438108648,6802,1555296561438108648,world,-2.89530563354,-0.820716619492,0.797886610031,-0.717336714268,0.105870433152,-0.267010807991,0.634763538837
1555296561448496939,6803,1555296561448496939,world,-2.89562988281,-0.82034945488,0.798104286194,-0.719093501568,0.107110463083,-0.274696230888,0.62926453352
1555296561458877601,6804,1555296561458877601,world,-2.89573574066,-0.820246458054,0.798213720322,-0.719671666622,0.108020246029,-0.277771443129,0.627094447613
1555296561468340572,6805,1555296561468340572,world,-2.89576148987,-0.820234060287,0.798254728317,-0.719659388065,0.107963725924,-0.278624713421,0.626739501953
1555296561489087649,6806,1555296561489087649,world,-2.89574050903,-0.820295333862,0.798186540604,-0.719627439976,0.108140073717,-0.278774261475,0.626679301262
1555296561489151077,6808,1555296561489151077,world,-2.89573192596,-0.820335149765,0.79812335968,-0.719368875027,0.107661895454,-0.277711600065,0.627529799938
1555296561498527114,6809,1555296561498527114,world,-2.89568424225,-0.820324420929,0.798186540604,-0.719012320042,0.107175603509,-0.277547806501,0.628093898296
1555296561508799825,6810,1555296561508799825,world,-2.89605331421,-0.820806741714,0.798552513123,-0.7162784338,0.106628641486,-0.278607875109,0.630835294724
1555296561528263340,6811,1555296561528263340,world,-2.89580249786,-0.82053232193,0.798299789429,-0.71834564209,0.107469312847,-0.277486592531,0.62883323431
1555296561528337296,6813,1555296561528337296,world,-2.89511966705,-0.820973396301,0.797754764557,-0.71606272459,0.104295328259,-0.260377556086,0.639202773571
1555296561538685048,6814,1555296561538685048,world,-2.89555549622,-0.820453166962,0.798055410385,-0.718680679798,0.107185602188,-0.273224323988,0.630363225937
1555296561549004763,6815,1555296561549004763,world,-2.89569377899,-0.820254325867,0.798223733902,-0.719392478466,0.107708781958,-0.27837690711,0.62719976902
1555296561558333052,6816,1555296561558333052,world,-2.8957233429,-0.820194482803,0.798222541809,-0.719656944275,0.10792658478,-0.279909223318,0.626176059246
1555296561568659127,6817,1555296561568659127,world,-2.89538764954,-0.820755958557,0.797949314117,-0.717275202274,0.105690337718,-0.266601204872,0.635035097599
1555296561578930770,6818,1555296561578930770,world,-2.89559364319,-0.820388793945,0.798020362854,-0.718919456005,0.107330419123,-0.275706321001,0.62898427248
1555296561578973486,6819,1555296561578973486,world,-2.89569759369,-0.8202688694,0.798116207123,-0.719358801842,0.107584089041,-0.278849542141,0.627049982548
1555296561598685114,6820,1555296561598685114,world,-2.89618206024,-0.820703744888,0.798590660095,-0.716813385487,0.107134118676,-0.280090600252,0.629484176636
1555296561598757099,6821,1555296561598757099,world,-2.89591503143,-0.820431232452,0.79837179184,-0.718779563904,0.107908792794,-0.279212146997,0.62749683857
1555296561608068677,6822,1555296561608068677,world,-2.89538574219,-0.820867300034,0.798001050949,-0.716987192631,0.105515524745,-0.265485703945,0.635856330395
1555296561618516749,6823,1555296561618516749,world,-2.89557552338,-0.820474863052,0.798025846481,-0.718955755234,0.107619851828,-0.274525463581,0.62940955162
1555296561618558850,6824,1555296561618558850,world,-2.8953037262,-0.820873022079,0.797868013382,-0.717037439346,0.105732545257,-0.264866739511,0.636021673679
1555296561628919983,6825,1555296561628919983,world,-2.89560890198,-0.82035779953,0.798124074936,-0.718794226646,0.106772869825,-0.275091826916,0.629490971565
1555296561638301213,6826,1555296561638301213,world,-2.89573287964,-0.820194244385,0.798225879669,-0.719408333302,0.107354342937,-0.278843820095,0.627034902573
1555296561648734225,6827,1555296561648734225,world,-2.89575099945,-0.820135116577,0.798237085342,-0.719517529011,0.107259109616,-0.279563248158,0.626605510712
1555296561658073519,6828,1555296561658073519,world,-2.8953371048,-0.820690870285,0.797957658768,-0.717065513134,0.105085298419,-0.266520559788,0.635406136513
1555296561668428904,6829,1555296561668428904,world,-2.89521789551,-0.820916414261,0.797885417938,-0.716219842434,0.10478464514,-0.262243747711,0.638182997704
1555296561678711285,6830,1555296561678711285,world,-2.89560604095,-0.820430517197,0.79812169075,-0.71880787611,0.107308074832,-0.274725556374,0.629544436932
1555296561678761126,6831,1555296561678761126,world,-2.89575004578,-0.82025885582,0.798250675201,-0.719663619995,0.108142837882,-0.279251605272,0.626424789429
1555296561688015104,6832,1555296561688015104,world,-2.89576721191,-0.820201158524,0.798287153244,-0.719600260258,0.107939340174,-0.280389845371,0.626024127007
1555296561698412840,6833,1555296561698412840,world,-2.89580345154,-0.820237398148,0.798256397247,-0.719662666321,0.10809455812,-0.279907315969,0.626141488552
1555296561708761806,6834,1555296561708761806,world,-2.89569282532,-0.820318460464,0.798127174377,-0.719527006149,0.108239248395,-0.279864907265,0.626291394234
1555296561708803456,6835,1555296561708803456,world,-2.89528369904,-0.820879459381,0.797876834869,-0.71696460247,0.105517074466,-0.266222298145,0.635573446751
1555296561719049587,6836,1555296561719049587,world,-2.89559650421,-0.82050037384,0.798087596893,-0.718611717224,0.106833428144,-0.274636209011,0.629887938499
1555296561728350846,6837,1555296561728350846,world,-2.89579486847,-0.82034277916,0.798251867294,-0.719276249409,0.107380367815,-0.277350395918,0.627843916416
1555296561738616069,6838,1555296561738616069,world,-2.89620876312,-0.820738554001,0.798540830612,-0.716856539249,0.107358589768,-0.279518723488,0.629650890827
1555296561749016206,6839,1555296561749016206,world,-2.89594841003,-0.820397138596,0.79823589325,-0.718713283539,0.107644289732,-0.278543382883,0.627915203571
1555296561758485594,6840,1555296561758485594,world,-2.89545536041,-0.820824384689,0.797884702682,-0.716757595539,0.105269096792,-0.264875024557,0.636410355568
1555296561758525454,6841,1555296561758525454,world,-2.89566993713,-0.820366382599,0.798015594482,-0.71874499321,0.106749452651,-0.274048954248,0.630005836487
1555296561768980167,6842,1555296561768980167,world,-2.89575958252,-0.820209980011,0.79816865921,-0.719332098961,0.107167430222,-0.277498543262,0.627750813961
1555296561778404343,6843,1555296561778404343,world,-2.89578342438,-0.820186138153,0.798198461533,-0.719403207302,0.107411585748,-0.278500974178,0.627183318138
1555296561788851999,6844,1555296561788851999,world,-2.89579677582,-0.820218086243,0.798125267029,-0.719581365585,0.108073368669,-0.27837407589,0.626921653748
1555296561798127877,6845,1555296561798127877,world,-2.89580821991,-0.820255756378,0.7980697155,-0.719576597214,0.107757404447,-0.277821600437,0.627226412296
1555296561808585374,6846,1555296561808585374,world,-2.89575386047,-0.820308685303,0.798090219498,-0.719416379929,0.108064286411,-0.277539521456,0.627482175827
1555296561808630818,6847,1555296561808630818,world,-2.89572715759,-0.820316314697,0.79819393158,-0.719059050083,0.10744035244,-0.277406334877,0.628057658672
1555296561819055586,6848,1555296561819055586,world,-2.89572620392,-0.820368528366,0.798254013062,-0.719079375267,0.10758497566,-0.276886940002,0.628238797188
1555296561828374911,6849,1555296561828374911,world,-2.89532566071,-0.820927619934,0.797996759415,-0.71646630764,0.104920975864,-0.263786196709,0.637247681618
1555296561838673161,6850,1555296561838673161,world,-2.89517116547,-0.821099996567,0.797844409943,-0.715838134289,0.104578174651,-0.260342925787,0.639422237873
1555296561848996374,6851,1555296561848996374,world,-2.89521121979,-0.821090221405,0.797861814499,-0.715848088264,0.104417189956,-0.260396778584,0.639415442944
1555296561858299707,6852,1555296561858299707,world,-2.89570617676,-0.820473909378,0.798154354095,-0.718708515167,0.106911040843,-0.27435785532,0.629885733128
1555296561858343207,6853,1555296561858343207,world,-2.89585494995,-0.820273637772,0.798305034637,-0.719652950764,0.107923045754,-0.279710620642,0.626270115376
1555296561878083301,6854,1555296561878083301,world,-2.89591598511,-0.820225000381,0.79829955101,-0.719773828983,0.108151845634,-0.280748873949,0.625626921654
1555296561878134236,6855,1555296561878134236,world,-2.8958902359,-0.82023024559,0.798179626465,-0.719917058945,0.108327969909,-0.280439585447,0.625570297241
1555296561888561426,6856,1555296561888561426,world,-2.8954744339,-0.820820569992,0.79789352417,-0.717040896416,0.105794489384,-0.267057061195,0.635090947151
1555296561899015143,6857,1555296561899015143,world,-2.89536857605,-0.820962190628,0.797868967056,-0.716154277325,0.10463591665,-0.26222383976,0.638289213181
1555296561918766523,6858,1555296561918766523,world,-2.89577007294,-0.820442914963,0.798169374466,-0.718654990196,0.107077531517,-0.274647146463,0.629792273045
1555296561918831812,6860,1555296561918831812,world,-2.89552116394,-0.820767641068,0.797981262207,-0.717112064362,0.105800978839,-0.267589151859,0.634785473347
1555296561928071716,6861,1555296561928071716,world,-2.89536190033,-0.820892810822,0.797828197479,-0.716359376907,0.104940220714,-0.263999253511,0.637276470661
1555296561938400213,6862,1555296561938400213,world,-2.89537811279,-0.820971012115,0.797847747803,-0.716321825981,0.105169869959,-0.263257443905,0.637587547302
1555296561948847330,6863,1555296561948847330,world,-2.89578151703,-0.820394992828,0.798173666,-0.719088375568,0.107626378536,-0.276539623737,0.62837433815
1555296561958100840,6864,1555296561958100840,world,-2.89593982697,-0.820190668106,0.79830789566,-0.719887316227,0.108249552548,-0.280824005604,0.625445663929
1555296561958156962,6865,1555296561958156962,world,-2.89554977417,-0.820693492889,0.798052072525,-0.71736741066,0.105809770525,-0.268737226725,0.634009897709
1555296561968587894,6866,1555296561968587894,world,-2.89536476135,-0.820928812027,0.797888755798,-0.716592133045,0.105485618114,-0.264941930771,0.636533021927
1555296561988289072,6867,1555296561988289072,world,-2.89537143707,-0.820919513702,0.797911643982,-0.716497838497,0.104862049222,-0.263687908649,0.637262701988
1555296561988331890,6868,1555296561988331890,world,-2.89539337158,-0.820876836777,0.798010826111,-0.716493427753,0.104723498225,-0.264046728611,0.63714158535
1555296561998711050,6869,1555296561998711050,world,-2.89579677582,-0.820308685303,0.798263788223,-0.719308078289,0.107574351132,-0.277725338936,0.627608478069
1555296561998753955,6870,1555296561998753955,world,-2.89590167999,-0.820136547089,0.798285007477,-0.720095992088,0.108543023467,-0.282334387302,0.624473810196
1555296562009120999,6871,1555296562009120999,world,-2.89554977417,-0.820662260056,0.79801774025,-0.717613279819,0.106154628098,-0.269908845425,0.633175849915
1555296562018555143,6872,1555296562018555143,world,-2.89541149139,-0.820858955383,0.797929048538,-0.716690003872,0.105602949858,-0.265796601772,0.636046886444
1555296562029024661,6873,1555296562029024661,world,-2.89579105377,-0.820361852646,0.798164367676,-0.719108521938,0.107776023448,-0.27732655406,0.627978682518
1555296562038487657,6874,1555296562038487657,world,-2.8959312439,-0.820154666901,0.798288106918,-0.719802200794,0.108104497194,-0.280853867531,0.625555276871
1555296562048828884,6875,1555296562048828884,world,-2.8959646225,-0.820125341415,0.798287153244,-0.719936490059,0.10815294832,-0.281305164099,0.62518954277
1555296562048870038,6876,1555296562048870038,world,-2.89591312408,-0.820185899734,0.798190355301,-0.719854652882,0.108326941729,-0.280840069056,0.625462651253
1555296562058108102,6877,1555296562058108102,world,-2.89551639557,-0.820780277252,0.797923326492,-0.717039585114,0.105668470263,-0.266804486513,0.63521951437
1555296562068500749,6878,1555296562068500749,world,-2.89578056335,-0.820436954498,0.798089265823,-0.718681931496,0.107207886875,-0.275279223919,0.629463434219
1555296562078807347,6879,1555296562078807347,world,-2.89582061768,-0.820296049118,0.798180103302,-0.719188094139,0.107427723706,-0.278604656458,0.627381205559
1555296562088001861,6880,1555296562088001861,world,-2.89591884613,-0.820247650146,0.7982609272,-0.719310820103,0.107277669013,-0.278637170792,0.62725186348
1555296562098265659,6881,1555296562098265659,world,-2.89588546753,-0.820306539536,0.79821395874,-0.719347417355,0.107698917389,-0.278704762459,0.627107679844
1555296562108530606,6882,1555296562108530606,world,-2.89538002014,-0.8208527565,0.797903060913,-0.71674400568,0.105298794806,-0.265981733799,0.635958969593
1555296562108568032,6883,1555296562108568032,world,-2.89530277252,-0.821014881134,0.797848701477,-0.715952813625,0.104523546994,-0.261432409286,0.638857960701
1555296562118823272,6884,1555296562118823272,world,-2.89570903778,-0.820473909378,0.798140287399,-0.718473255634,0.1068476215,-0.273839086294,0.630390286446
1555296562128015278,6885,1555296562128015278,world,-2.89587116241,-0.820266723633,0.798293828964,-0.719354331493,0.107585437596,-0.27837857604,0.627263903618
1555296562138409810,6886,1555296562138409810,world,-2.89540100098,-0.8207924366,0.798026800156,-0.717111706734,0.105814054608,-0.267958641052,0.634627819061
1555296562148762273,6887,1555296562148762273,world,-2.89527225494,-0.821006536484,0.797848463058,-0.716441869736,0.105647079647,-0.264180600643,0.636991679668
