%time,field.header.seq,field.header.stamp,field.header.frame_id,field.pose.position.x,field.pose.position.y,field.pose.position.z,field.pose.orientation.x,field.pose.orientation.y,field.pose.orientation.z,field.pose.orientation.w
1555296771028694606,7760,1555296771028694606,world,-2.88980388641,-0.819168329239,0.798025608063,-0.709174156189,0.148985385895,-0.31016933918,0.61536192894
1555296771028746149,7761,1555296771028746149,world,-2.88980865479,-0.819145202637,0.798067569733,-0.709232926369,0.148976489902,-0.310017675161,0.61537283659
1555296771038985637,7762,1555296771038985637,world,-2.8898229599,-0.819139003754,0.798077106476,-0.709177494049,0.148913085461,-0.310033917427,0.615443944931
1555296771048312555,7763,1555296771048312555,world,-2.88980293274,-0.819156646729,0.798024177551,-0.709188640118,0.149082645774,-0.310090273619,0.615361630917
1555296771058779388,7764,1555296771058779388,world,-2.88980388641,-0.819148540497,0.797995090485,-0.709150254726,0.148885890841,-0.309951990843,0.615523278713
1555296771068055891,7765,1555296771068055891,world,-2.88980007172,-0.819169282913,0.798024654388,-0.70916301012,0.14905115962,-0.310100257397,0.61539375782
1555296771078336694,7766,1555296771078336694,world,-2.88982200623,-0.81915473938,0.798091173172,-0.709245383739,0.148832902312,-0.309914559126,0.615445315838
1555296771078378964,7767,1555296771078378964,world,-2.88978004456,-0.819214582443,0.798079967499,-0.70927375555,0.148995921016,-0.310309141874,0.615174233913
1555296771088706694,7768,1555296771088706694,world,-2.88978481293,-0.819213867188,0.79802274704,-0.709207832813,0.149111658335,-0.310209333897,0.615272402763
1555296771099063565,7769,1555296771099063565,world,-2.88976573944,-0.81921505928,0.798006772995,-0.709212779999,0.149023890495,-0.310196638107,0.615294456482
1555296771108423138,7770,1555296771108423138,world,-2.88974952698,-0.819255590439,0.798006296158,-0.709211945534,0.149260088801,-0.310324162245,0.615173757076
1555296771118782007,7771,1555296771118782007,world,-2.88976669312,-0.819225788116,0.798067092896,-0.709201693535,0.149156615138,-0.310073465109,0.615337073803
1555296771128114482,7772,1555296771128114482,world,-2.88979148865,-0.819200992584,0.798105478287,-0.709162116051,0.148942217231,-0.309905737638,0.615518987179
1555296771128167006,7773,1555296771128167006,world,-2.8897600174,-0.819237232208,0.79806470871,-0.70918995142,0.149098470807,-0.31015637517,0.615322887897
1555296771138595725,7774,1555296771138595725,world,-2.88973999023,-0.819242238998,0.797997713089,-0.709230899811,0.149334788322,-0.310307264328,0.615142345428
1555296771149074513,7775,1555296771149074513,world,-2.88975429535,-0.819209337234,0.797993659973,-0.709210693836,0.149079829454,-0.310237705708,0.615262627602
1555296771158418279,7776,1555296771158418279,world,-2.88978290558,-0.819197654724,0.798032999039,-0.709227383137,0.148989409208,-0.310129463673,0.615319848061
1555296771168855501,7777,1555296771168855501,world,-2.88982200623,-0.819171667099,0.798089981079,-0.709250986576,0.1488750875,-0.30995374918,0.615408778191
1555296771178133663,7778,1555296771178133663,world,-2.88980293274,-0.819167852402,0.798067569733,-0.70921677351,0.148807987571,-0.309947222471,0.615467727184
1555296771178209042,7779,1555296771178209042,world,-2.88979625702,-0.819161176682,0.79803609848,-0.709230661392,0.148817241192,-0.310058712959,0.615393400192
1555296771188501155,7780,1555296771188501155,world,-2.88979148865,-0.819170475006,0.798005342484,-0.709212183952,0.148979052901,-0.31007322669,0.615368068218
1555296771198821580,7781,1555296771198821580,world,-2.88982963562,-0.819144010544,0.798047304153,-0.709236860275,0.148814737797,-0.309861898422,0.615485906601
1555296771208103167,7782,1555296771208103167,world,-2.88982868195,-0.819137811661,0.798087120056,-0.709230899811,0.148639559746,-0.309859156609,0.61553645134
1555296771218398828,7783,1555296771218398828,world,-2.88981246948,-0.819165229797,0.79808807373,-0.70927631855,0.148697420955,-0.310063451529,0.615367352962
1555296771228744522,7784,1555296771228744522,world,-2.88979911804,-0.819141626358,0.798046827316,-0.709260046482,0.148955911398,-0.309960544109,0.61537539959
1555296771238010036,7785,1555296771238010036,world,-2.88975048065,-0.819159030914,0.797963857651,-0.709285795689,0.14912173152,-0.310140073299,0.615215182304
1555296771248348317,7786,1555296771248348317,world,-2.88976192474,-0.819205999374,0.798006296158,-0.709209740162,0.149260252714,-0.310408771038,0.61513364315
1555296771248401659,7787,1555296771248401659,world,-2.88975334167,-0.819189548492,0.798074245453,-0.709130764008,0.149005055428,-0.310212850571,0.615385293961
1555296771258723596,7788,1555296771258723596,world,-2.88975811005,-0.819174528122,0.798102617264,-0.709172189236,0.14891962707,-0.310100287199,0.615415036678
1555296771269126945,7789,1555296771269126945,world,-2.8897190094,-0.81917142868,0.798074007034,-0.709144294262,0.14907489717,-0.310146421194,0.615386426449
1555296771278590862,7790,1555296771278590862,world,-2.88971328735,-0.819211959839,0.798035144806,-0.709140777588,0.149238884449,-0.310287117958,0.61527967453
1555296771289069070,7791,1555296771289069070,world,-2.88973236084,-0.819196939468,0.798057317734,-0.709174573421,0.149104461074,-0.310145944357,0.615344464779
1555296771289111118,7792,1555296771289111118,world,-2.88977146149,-0.819176673889,0.798106908798,-0.709179401398,0.148974895477,-0.310048937798,0.615419149399
1555296771298496067,7793,1555296771298496067,world,-2.88974189758,-0.819154262543,0.798105716705,-0.709112048149,0.149018630385,-0.310083597898,0.615468680859
1555296771308899981,7794,1555296771308899981,world,-2.8897562027,-0.819154024124,0.798094749451,-0.709132313728,0.1489867419,-0.310148686171,0.615420281887
1555296771318699472,7795,1555296771318699472,world,-2.88978862762,-0.819159507751,0.798069238663,-0.709129214287,0.148992463946,-0.3100733459,0.615460336208
1555296771329087435,7796,1555296771329087435,world,-2.88978672028,-0.819174528122,0.798047542572,-0.709194004536,0.14906296134,-0.310294568539,0.615257143974
1555296771329130132,7797,1555296771329130132,world,-2.88980197906,-0.819188594818,0.798085689545,-0.709193706512,0.148909628391,-0.31022310257,0.615330696106
1555296771348844819,7798,1555296771348844819,world,-2.88981533051,-0.819164037704,0.798106908798,-0.709234058857,0.148941189051,-0.31006270647,0.615357518196
1555296771348886618,7799,1555296771348886618,world,-2.88980197906,-0.819199085236,0.798100709915,-0.709204614162,0.149088129401,-0.310253113508,0.615259826183
1555296771358194358,7800,1555296771358194358,world,-2.88976383209,-0.819201231003,0.798076629639,-0.709188044071,0.149189740419,-0.310270726681,0.615245461464
1555296771368516858,7801,1555296771368516858,world,-2.88978004456,-0.81920838356,0.79805803299,-0.709141552448,0.149366050959,-0.310345828533,0.615218281746
1555296771378823741,7802,1555296771378823741,world,-2.88979434967,-0.819175958633,0.798070430756,-0.709059238434,0.148905336857,-0.310036420822,0.615580797195
1555296771388133505,7803,1555296771388133505,world,-2.88976192474,-0.819191455841,0.79808139801,-0.709130942822,0.148852333426,-0.310110658407,0.615473687649
1555296771388179001,7804,1555296771388179001,world,-2.88974380493,-0.819182872772,0.798139572144,-0.709158241749,0.149067252874,-0.310125410557,0.615382790565
1555296771398581985,7805,1555296771398581985,world,-2.88972187042,-0.819211006165,0.798077821732,-0.709091544151,0.149360522628,-0.310335129499,0.615282714367
1555296771409070344,7806,1555296771409070344,world,-2.88969516754,-0.819197654724,0.798023223877,-0.709156692028,0.149223014712,-0.310334652662,0.615241229534
1555296771418430529,7807,1555296771418430529,world,-2.88967132568,-0.819206476212,0.797999382019,-0.709216177464,0.149431139231,-0.310445606709,0.615066170692
1555296771428869717,7808,1555296771428869717,world,-2.88968372345,-0.819206237793,0.798072814941,-0.709162712097,0.149258434772,-0.310524940491,0.615129709244
1555296771428910679,7809,1555296771428910679,world,-2.88973712921,-0.819167852402,0.798167705536,-0.709170818329,0.148862481117,-0.310191988945,0.615384101868
1555296771438287868,7810,1555296771438287868,world,-2.88973999023,-0.819134473801,0.798137426376,-0.709158182144,0.14882171154,-0.310148477554,0.615430593491
1555296771448602583,7811,1555296771448602583,world,-2.88973236084,-0.819147109985,0.798028707504,-0.709162712097,0.148964881897,-0.310219407082,0.615355014801
1555296771459000363,7812,1555296771459000363,world,-2.88970947266,-0.81916642189,0.79797911644,-0.709158301353,0.149189338088,-0.310303658247,0.615263164043
1555296771468331207,7813,1555296771468331207,world,-2.88977241516,-0.819151639938,0.79803109169,-0.709232747555,0.148840948939,-0.309861630201,0.615484416485
1555296771478685780,7814,1555296771478685780,world,-2.88978672028,-0.819169998169,0.798119068146,-0.709244966507,0.148826658726,-0.310130476952,0.6153383255
1555296771478751854,7815,1555296771478751854,world,-2.88977622986,-0.819199323654,0.798099517822,-0.709264397621,0.14893065393,-0.310305804014,0.615202367306
1555296771489130812,7816,1555296771489130812,world,-2.88979148865,-0.819156169891,0.798014640808,-0.70926129818,0.148785695434,-0.309851020575,0.61547011137
1555296771498567270,7817,1555296771498567270,world,-2.88978385925,-0.819178581238,0.797977209091,-0.709233820438,0.149105101824,-0.310143649578,0.615277171135
1555296771509037729,7818,1555296771509037729,world,-2.88981723785,-0.819169282913,0.798002243042,-0.709237515926,0.14889331162,-0.309878736734,0.615457594395
1555296771518487561,7819,1555296771518487561,world,-2.88979530334,-0.819183588028,0.798056125641,-0.709215819836,0.149004265666,-0.310054153204,0.615367591381
1555296771528949199,7820,1555296771528949199,world,-2.88979721069,-0.819172382355,0.798080682755,-0.70918482542,0.148915216327,-0.310080736876,0.6154114604
1555296771528994714,7821,1555296771528994714,world,-2.88977336884,-0.819176912308,0.798035621643,-0.70917147398,0.149067804217,-0.310178369284,0.615340650082
1555296771538438360,7822,1555296771538438360,world,-2.88978481293,-0.81915807724,0.79802274704,-0.709087491035,0.148847684264,-0.310073941946,0.615543305874
1555296771559053195,7823,1555296771559053195,world,-2.88977050781,-0.819139957428,0.798006296158,-0.709143519402,0.148913189769,-0.310038775206,0.615480601788
1555296771559123457,7824,1555296771559123457,world,-2.88974475861,-0.819158792496,0.798028469086,-0.709214746952,0.148963183165,-0.310065686703,0.615372776985
1555296771568415458,7825,1555296771568415458,world,-2.88972568512,-0.819139242172,0.798077344894,-0.709211349487,0.1488276124,-0.309983730316,0.61545085907
1555296771578804103,7826,1555296771578804103,world,-2.88973999023,-0.819160223007,0.798081159592,-0.70920664072,0.149049311876,-0.310129821301,0.615328907967
1555296771588057625,7827,1555296771588057625,world,-2.88973140717,-0.819141626358,0.798069000244,-0.709162473679,0.148930847645,-0.310024619102,0.615461587906
1555296771588096501,7828,1555296771588096501,world,-2.88970565796,-0.819192409515,0.798027992249,-0.709202587605,0.149263232946,-0.310379207134,0.615156054497
1555296771598506952,7829,1555296771598506952,world,-2.88973808289,-0.819160461426,0.798040151596,-0.709169328213,0.14907322824,-0.310188859701,0.615336596966
1555296771608794010,7830,1555296771608794010,world,-2.8897485733,-0.819160699844,0.798081159592,-0.709151089191,0.149032205343,-0.310164034367,0.615379929543
1555296771618062370,7831,1555296771618062370,world,-2.88975906372,-0.819185495377,0.798101663589,-0.709244012833,0.148979187012,-0.310111761093,0.615312099457
1555296771628366225,7832,1555296771628366225,world,-2.88979816437,-0.819172143936,0.798078298569,-0.709184587002,0.148836061358,-0.310043424368,0.615449607372
1555296771638819887,7833,1555296771638819887,world,-2.88978385925,-0.819182157516,0.798020839691,-0.709126353264,0.149027988315,-0.310160011053,0.6154114604
1555296771638862276,7834,1555296771638862276,world,-2.88975906372,-0.819196462631,0.797992944717,-0.709140479565,0.149116769433,-0.310116320848,0.615395605564
1555296771648158052,7835,1555296771648158052,world,-2.8897819519,-0.819180727005,0.798032283783,-0.709174156189,0.149021804333,-0.310111403465,0.615382432938
1555296771658607249,7836,1555296771658607249,world,-2.88981246948,-0.819151639938,0.798069953918,-0.709224045277,0.148947745562,-0.309856116772,0.615471482277
1555296771669042192,7837,1555296771669042192,world,-2.88983345032,-0.819147348404,0.798072338104,-0.709285736084,0.148788511753,-0.309832334518,0.61545085907
1555296771678457867,7838,1555296771678457867,world,-2.88977432251,-0.819186449051,0.798023462296,-0.709169507027,0.149231895804,-0.310435026884,0.615173518658
1555296771688861032,7839,1555296771688861032,world,-2.8897600174,-0.819171905518,0.797991037369,-0.709196209908,0.149113759398,-0.310406416655,0.615185916424
1555296771688899674,7840,1555296771688899674,world,-2.88976287842,-0.819170951843,0.798014640808,-0.709217071533,0.149169921875,-0.310177564621,0.615263700485
1555296771698229162,7841,1555296771698229162,world,-2.88976573944,-0.8191614151,0.798065185547,-0.70916467905,0.149041682482,-0.310122668743,0.615382790565
1555296771708626352,7842,1555296771708626352,world,-2.88976287842,-0.819163799286,0.79808807373,-0.709192097187,0.148914188147,-0.310099542141,0.61539375782
1555296771718945537,7843,1555296771718945537,world,-2.88975143433,-0.819137334824,0.798075914383,-0.709259569645,0.148816436529,-0.30986303091,0.615458846092
1555296771728339244,7844,1555296771728339244,world,-2.8897562027,-0.81916642189,0.798064947128,-0.709237039089,0.149032369256,-0.310120135546,0.615302860737
1555296771728413163,7845,1555296771728413163,world,-2.8897562027,-0.819139957428,0.798085212708,-0.709196925163,0.148680076003,-0.309823483229,0.615583837032
1555296771738801911,7846,1555296771738801911,world,-2.88973999023,-0.819185018539,0.798060417175,-0.709220647812,0.148987650871,-0.310045599937,0.61537027359
1555296771748154885,7847,1555296771748154885,world,-2.88973712921,-0.819206476212,0.798066139221,-0.709201931953,0.149002715945,-0.310196012259,0.615312278271
1555296771758599784,7848,1555296771758599784,world,-2.88974285126,-0.819227457047,0.798054695129,-0.709272861481,0.14904987812,-0.310244441032,0.615194797516
1555296771769012442,7849,1555296771769012442,world,-2.88977622986,-0.819195270538,0.798081159592,-0.70917993784,0.149059981108,-0.310053050518,0.615395903587
1555296771778452300,7850,1555296771778452300,world,-2.88980293274,-0.819180250168,0.7980697155,-0.709134221077,0.148940429091,-0.309972494841,0.615518033504
1555296771778494892,7851,1555296771778494892,world,-2.889793396,-0.819183588028,0.798046588898,-0.709130525589,0.149034380913,-0.310109972954,0.615430355072
1555296771788920551,7852,1555296771788920551,world,-2.88981533051,-0.819141626358,0.798047065735,-0.709160685539,0.148952886462,-0.309869378805,0.615536391735
1555296771798377006,7853,1555296771798377006,world,-2.88981151581,-0.819138526917,0.798043012619,-0.709204673767,0.148878633976,-0.309902429581,0.615487098694
1555296771808828503,7854,1555296771808828503,world,-2.88979148865,-0.819166660309,0.798029184341,-0.709171175957,0.149219796062,-0.310349196196,0.615217864513
1555296771818105596,7855,1555296771818105596,world,-2.88982582092,-0.819100618362,0.798045396805,-0.709169209003,0.14885891974,-0.309950858355,0.615508377552
1555296771828517108,7856,1555296771828517108,world,-2.8897895813,-0.819131851196,0.79802942276,-0.709182500839,0.149060726166,-0.310198426247,0.615319490433
1555296771828578207,7857,1555296771828578207,world,-2.88977336884,-0.819124221802,0.79798913002,-0.709230005741,0.149153441191,-0.310214340687,0.615234255791
1555296771838904281,7858,1555296771838904281,world,-2.889793396,-0.819135189056,0.798017978668,-0.709197580814,0.149043411016,-0.310172379017,0.615319371223
1555296771848359546,7859,1555296771848359546,world,-2.8897857666,-0.81911945343,0.798048973083,-0.70921254158,0.148817896843,-0.309959173203,0.61546421051
1555296771858820510,7860,1555296771858820510,world,-2.88977336884,-0.819153308868,0.798065423965,-0.709210038185,0.148972317576,-0.310137361288,0.615339934826
1555296771868048720,7861,1555296771868048720,world,-2.88975334167,-0.819154262543,0.798071146011,-0.709206581116,0.148968815804,-0.309934735298,0.615446805954
1555296771878438192,7862,1555296771878438192,world,-2.88973045349,-0.819191455841,0.798059940338,-0.709143936634,0.149079591036,-0.310069739819,0.615424275398
1555296771888933536,7863,1555296771888933536,world,-2.88973808289,-0.819194793701,0.79802942276,-0.709217071533,0.149070262909,-0.310121893883,0.615315914154
1555296771888978645,7864,1555296771888978645,world,-2.88973236084,-0.819211006165,0.798058748245,-0.709110379219,0.149197772145,-0.310151845217,0.61539298296
1555296771898351682,7865,1555296771898351682,world,-2.88975334167,-0.819230079651,0.798076629639,-0.7092192173,0.14921605587,-0.310153126717,0.615262269974
1555296771908807537,7866,1555296771908807537,world,-2.88976764679,-0.819226503372,0.798125505447,-0.70912706852,0.14897595346,-0.310063332319,0.615472018719
1555296771918092072,7867,1555296771918092072,world,-2.88978099823,-0.819220304489,0.798070430756,-0.70916223526,0.14899790287,-0.309918642044,0.615499019623
1555296771928447938,7868,1555296771928447938,world,-2.88982486725,-0.819177150726,0.798018932343,-0.709167838097,0.148767828941,-0.309699982405,0.615658223629
1555296771928491834,7869,1555296771928491834,world,-2.88981056213,-0.819192647934,0.798015594482,-0.709226131439,0.148821294308,-0.309971928596,0.615441322327
1555296771938843175,7870,1555296771938843175,world,-2.889793396,-0.819241046906,0.798024654388,-0.709243297577,0.149233281612,-0.310328602791,0.615141868591
1555296771958371385,7871,1555296771958371385,world,-2.88982009888,-0.819185495377,0.798055887222,-0.70923191309,0.148856550455,-0.310106813908,0.615358233452
1555296771958412573,7872,1555296771958412573,world,-2.88982772827,-0.819148540497,0.798035860062,-0.709263563156,0.148851633072,-0.309983253479,0.615385055542
1555296771968801932,7873,1555296771968801932,world,-2.88981056213,-0.819152355194,0.79798913002,-0.7092897892,0.148910522461,-0.309957623482,0.61535358429
1555296771978111851,7874,1555296771978111851,world,-2.88979244232,-0.819123983383,0.79798579216,-0.709164083004,0.148952230811,-0.309973686934,0.615480363369
1555296771988549110,7875,1555296771988549110,world,-2.88978672028,-0.819116592407,0.798047542572,-0.709183931351,0.149058997631,-0.309998989105,0.615418672562
1555296771998990121,7876,1555296771998990121,world,-2.88975334167,-0.819138526917,0.798060178757,-0.709179401398,0.149058520794,-0.310328364372,0.615257978439
1555296771999033677,7877,1555296771999033677,world,-2.88973903656,-0.819132328033,0.798049688339,-0.709219634533,0.148918434978,-0.310181587934,0.615319669247
1555296772008463533,7878,1555296772008463533,world,-2.88976860046,-0.819090843201,0.79806804657,-0.709224224091,0.148671150208,-0.309749722481,0.615591526031
1555296772018971552,7879,1555296772018971552,world,-2.88974285126,-0.819121599197,0.798059463501,-0.709324419498,0.148672655225,-0.309894829988,0.615402758121
1555296772028411576,7880,1555296772028411576,world,-2.88971328735,-0.819185972214,0.798068523407,-0.709192216396,0.149092242122,-0.310216993093,0.615291297436
1555296772038865307,7881,1555296772038865307,world,-2.88970947266,-0.819182634354,0.79806137085,-0.709149062634,0.149173244834,-0.310186594725,0.615336835384
1555296772048273582,7882,1555296772048273582,world,-2.88970565796,-0.819197416306,0.798059463501,-0.709258615971,0.149069577456,-0.310193955898,0.615231871605
1555296772048314838,7883,1555296772048314838,world,-2.88970756531,-0.819211483002,0.798087835312,-0.709167420864,0.149071261287,-0.310197204351,0.615334928036
1555296772058787567,7884,1555296772058787567,world,-2.8897190094,-0.819172143936,0.798104286194,-0.709134876728,0.149108141661,-0.310287892818,0.615317702293
1555296772069112284,7885,1555296772069112284,world,-2.88972473145,-0.819144487381,0.798049449921,-0.709195792675,0.149135574698,-0.310114830732,0.615328252316
1555296772078489485,7886,1555296772078489485,world,-2.88973712921,-0.819133758545,0.798037052155,-0.709177553654,0.148857563734,-0.310094535351,0.615426659584
1555296772078530290,7887,1555296772078530290,world,-2.8897562027,-0.819120168686,0.798054933548,-0.709177911282,0.148804411292,-0.309952825308,0.615510642529
1555296772088941346,7888,1555296772088941346,world,-2.8897895813,-0.819123506546,0.798070907593,-0.709143698215,0.148869663477,-0.310052216053,0.615484118462
1555296772098391629,7889,1555296772098391629,world,-2.88980102539,-0.819135665894,0.798071861267,-0.709193468094,0.148911774158,-0.309979557991,0.615453243256
1555296772108841030,7890,1555296772108841030,world,-2.8897857666,-0.819162130356,0.798043251038,-0.709192037582,0.149109363556,-0.310256361961,0.615267515182
1555296772118196611,7891,1555296772118196611,world,-2.88981056213,-0.81914305687,0.798024892807,-0.709204256535,0.14893463254,-0.30999392271,0.615428090096
1555296772128650850,7892,1555296772128650850,world,-2.88982582092,-0.819124937057,0.798016548157,-0.709250986576,0.148823529482,-0.309926331043,0.615435004234
1555296772139008903,7893,1555296772139008903,world,-2.88984870911,-0.819129943848,0.798048019409,-0.709209799767,0.148925960064,-0.309869259596,0.615486323833
1555296772139049924,7894,1555296772139049924,world,-2.88981628418,-0.819128751755,0.798056602478,-0.709219098091,0.148968979716,-0.310014694929,0.615392148495
1555296772148392476,7895,1555296772148392476,world,-2.88978767395,-0.819167852402,0.798043251038,-0.709172964096,0.149184882641,-0.310257315636,0.615270614624
1555296772158790253,7896,1555296772158790253,world,-2.88975143433,-0.819120645523,0.798026800156,-0.709154188633,0.148963004351,-0.310078561306,0.615436196327
1555296772168062162,7897,1555296772168062162,world,-2.88974285126,-0.819116353989,0.798014640808,-0.709265887737,0.149142190814,-0.310046643019,0.615280091763
1555296772178391616,7898,1555296772178391616,world,-2.88973045349,-0.819089651108,0.798051357269,-0.709140896797,0.14900277555,-0.309914797544,0.615524232388
1555296772188838333,7899,1555296772188838333,world,-2.88971233368,-0.819122552872,0.79805970192,-0.70915132761,0.1490496099,-0.310095727444,0.615409970284
1555296772188879176,7900,1555296772188879176,world,-2.88972377777,-0.819131374359,0.798065185547,-0.70920586586,0.149094700813,-0.310172080994,0.615297555923
1555296772198286922,7901,1555296772198286922,world,-2.88975143433,-0.819090604782,0.798094749451,-0.709151625633,0.148693785071,-0.30988201499,0.615603148937
1555296772208674479,7902,1555296772208674479,world,-2.88973140717,-0.819143772125,0.798068761826,-0.70909845829,0.149182543159,-0.310159176588,0.615406453609
1555296772219077961,7903,1555296772219077961,world,-2.88973236084,-0.819137334824,0.798054695129,-0.709060370922,0.149015858769,-0.310128599405,0.615506231785
1555296772228405185,7904,1555296772228405185,world,-2.88974761963,-0.819172382355,0.798050165176,-0.709189295769,0.14907245338,-0.310087531805,0.615364730358
1555296772238811716,7905,1555296772238811716,world,-2.88976573944,-0.819166660309,0.798080205917,-0.709154844284,0.148767530918,-0.310042023659,0.61550116539
1555296772238852265,7906,1555296772238852265,world,-2.88978099823,-0.819199323654,0.798103570938,-0.709273457527,0.148833632469,-0.309938520193,0.615400493145
1555296772248260965,7907,1555296772248260965,world,-2.88978290558,-0.819199562073,0.798053026199,-0.709254145622,0.149020895362,-0.310119003057,0.615286529064
1555296772258712061,7908,1555296772258712061,world,-2.88977909088,-0.819214820862,0.797978639603,-0.709204137325,0.149264082313,-0.310307711363,0.615190207958
1555296772269178808,7909,1555296772269178808,world,-2.88978290558,-0.81920671463,0.797980070114,-0.709224224091,0.149088144302,-0.310118079185,0.615305185318
1555296772278448986,7910,1555296772278448986,world,-2.88978862762,-0.819217681885,0.798018932343,-0.709238350391,0.149249106646,-0.310398757458,0.615108370781
1555296772278524690,7911,1555296772278524690,world,-2.88980484009,-0.819166183472,0.798075675964,-0.709250032902,0.149035289884,-0.31017151475,0.615261375904
1555296772288834910,7912,1555296772288834910,world,-2.8897819519,-0.819164037704,0.79803276062,-0.709192097187,0.149165064096,-0.310261189938,0.615251421928
1555296772298101735,7913,1555296772298101735,world,-2.889793396,-0.81910610199,0.797991752625,-0.709165155888,0.148982197046,-0.309958040714,0.615479588509
1555296772308549671,7914,1555296772308549671,world,-2.88978862762,-0.819067001343,0.797997713089,-0.709120154381,0.148950204253,-0.309974879026,0.615530669689
1555296772318092237,7915,1555296772318092237,world,-2.88979625702,-0.819053411484,0.798044919968,-0.7091755867,0.148731052876,-0.309844732285,0.615585327148
1555296772328480485,7916,1555296772328480485,world,-2.88976669312,-0.819067716599,0.798087596893,-0.709204256535,0.148706406355,-0.309881389141,0.615539908409
1555296772328521923,7917,1555296772328521923,world,-2.88974761963,-0.819108724594,0.798073530197,-0.709193587303,0.148979470134,-0.310128062963,0.615361869335
1555296772338989780,7918,1555296772338989780,world,-2.88973045349,-0.819133281708,0.798020124435,-0.709225773811,0.148973807693,-0.310167521238,0.615306317806
1555296772348328844,7919,1555296772348328844,world,-2.88973617554,-0.819141626358,0.797999858856,-0.709182024002,0.148811280727,-0.30998146534,0.615489721298
1555296772358613625,7920,1555296772358613625,world,-2.88973426819,-0.819162130356,0.79806303978,-0.709246814251,0.148812636733,-0.309979528189,0.615415751934
1555296772368910056,7921,1555296772368910056,world,-2.88975429535,-0.819198131561,0.798108816147,-0.709274291992,0.148888766766,-0.310219049454,0.615244865417
1555296772378240589,7922,1555296772378240589,world,-2.88976383209,-0.819222450256,0.798122406006,-0.709181845188,0.148949533701,-0.31017178297,0.615360617638
1555296772378278652,7923,1555296772378278652,world,-2.88974666595,-0.819228410721,0.79807806015,-0.709205031395,0.149092003703,-0.310139507055,0.615315616131
1555296772388716114,7924,1555296772388716114,world,-2.88973808289,-0.819266319275,0.798018932343,-0.709220230579,0.14933821559,-0.310301482677,0.615156769753
1555296772398047963,7925,1555296772398047963,world,-2.88975811005,-0.819251298904,0.798035860062,-0.709161758423,0.149217665195,-0.31007707119,0.615366458893
1555296772408303942,7926,1555296772408303942,world,-2.88978099823,-0.81923532486,0.798074483871,-0.709102153778,0.149140715599,-0.310046553612,0.6154692173
1555296772418572110,7927,1555296772418572110,world,-2.88979816437,-0.819179534912,0.7980864048,-0.709188103676,0.148672148585,-0.309896200895,0.615559279919
1555296772428903833,7928,1555296772428903833,world,-2.88979911804,-0.81919670105,0.798090219498,-0.709188520908,0.149013131857,-0.310088574886,0.615379452705
1555296772428922919,7929,1555296772428922919,world,-2.88979625702,-0.819149971008,0.798054933548,-0.7092217803,0.148964568973,-0.309923499823,0.615436017513
1555296772438193876,7930,1555296772438193876,world,-2.88977718353,-0.819196224213,0.798019170761,-0.709211349487,0.149257063866,-0.310255289078,0.615210056305
1555296772448614778,7931,1555296772448614778,world,-2.88979911804,-0.819144248962,0.798061847687,-0.709263861179,0.149026244879,-0.309994161129,0.615337014198
1555296772458911977,7932,1555296772458911977,world,-2.88979148865,-0.819163799286,0.798070192337,-0.709184348583,0.149204999208,-0.310113728046,0.615325093269
1555296772468200538,7933,1555296772468200538,world,-2.88978290558,-0.819134712219,0.798091411591,-0.709220409393,0.148921370506,-0.31005525589,0.615381717682
1555296772478512741,7934,1555296772478512741,world,-2.88979053497,-0.81914305687,0.798024892807,-0.709194481373,0.149047225714,-0.309939205647,0.615439534187
1555296772478572660,7935,1555296772478572660,world,-2.88979911804,-0.819113492966,0.798009395599,-0.709204018116,0.148916870356,-0.30982285738,0.615518689156
1555296772488813667,7936,1555296772488813667,world,-2.88975429535,-0.819160938263,0.798022031784,-0.709165394306,0.149068921804,-0.310082018375,0.615395903587
1555296772498074974,7937,1555296772498074974,world,-2.88976192474,-0.819182395935,0.798036575317,-0.709148943424,0.149134486914,-0.310234129429,0.615322232246
1555296772508472172,7938,1555296772508472172,world,-2.88977050781,-0.819163799286,0.798078536987,-0.709066212177,0.149035185575,-0.310179412365,0.61546933651
1555296772518884979,7939,1555296772518884979,world,-2.88975048065,-0.819187164307,0.79806137085,-0.709140300751,0.149141907692,-0.310195684433,0.615349769592
1555296772528203734,7940,1555296772528203734,world,-2.88973999023,-0.819154262543,0.79803276062,-0.709128141403,0.149052381516,-0.31005179882,0.615458011627
1555296772528282897,7941,1555296772528282897,world,-2.88975143433,-0.819152832031,0.798026561737,-0.709151506424,0.149178981781,-0.310110926628,0.615370750427
1555296772538569096,7942,1555296772538569096,world,-2.88973617554,-0.819147586823,0.798042535782,-0.709229052067,0.148883193731,-0.310078084469,0.615369439125
1555296772549033782,7943,1555296772549033782,world,-2.88970565796,-0.819178342819,0.798063516617,-0.709193646908,0.149067744613,-0.310380548239,0.615213096142
1555296772558486863,7944,1555296772558486863,world,-2.88973712921,-0.81915640831,0.798089265823,-0.709146559238,0.148911491036,-0.310115724802,0.615438759327
1555296772568947274,7945,1555296772568947274,world,-2.88969707489,-0.81919503212,0.79806137085,-0.70921766758,0.149310335517,-0.310452789068,0.615090072155
1555296772578253782,7946,1555296772578253782,world,-2.8896894455,-0.819180727005,0.798023462296,-0.709133386612,0.149293899536,-0.310365080833,0.615235567093
1555296772578293253,7947,1555296772578293253,world,-2.88973522186,-0.819138526917,0.798033714294,-0.709222316742,0.148878574371,-0.309913039207,0.615461587906
1555296772588652457,7948,1555296772588652457,world,-2.8897562027,-0.819124937057,0.798069477081,-0.709185659885,0.148706525564,-0.309915721416,0.615543961525
1555296772598957090,7949,1555296772598957090,world,-2.88976764679,-0.819123268127,0.798077106476,-0.709190309048,0.14876408875,-0.309886962175,0.615539133549
1555296772608299283,7950,1555296772608299283,world,-2.88977527618,-0.819123983383,0.798087835312,-0.709212839603,0.148819595575,-0.309908807278,0.615488886833
1555296772618678331,7951,1555296772618678331,world,-2.88977622986,-0.819135665894,0.798014640808,-0.709253311157,0.148990631104,-0.310049533844,0.61532998085
1555296772629018250,7952,1555296772629018250,world,-2.88977909088,-0.819135427475,0.797993421555,-0.709196865559,0.149229794741,-0.310184538364,0.615269064903
1555296772629073898,7953,1555296772629073898,world,-2.88979721069,-0.81912946701,0.798013210297,-0.709183931351,0.149023830891,-0.310008764267,0.61542224884
1555296772638401707,7954,1555296772638401707,world,-2.88981151581,-0.819173574448,0.798033475876,-0.709178745747,0.14901407063,-0.310195714235,0.615336477757
1555296772648776382,7955,1555296772648776382,world,-2.88982105255,-0.819143533707,0.79807138443,-0.70919829607,0.148997992277,-0.309959828854,0.615436673164
1555296772658102411,7956,1555296772658102411,world,-2.88981819153,-0.819170236588,0.798048496246,-0.709202766418,0.148990511894,-0.310116291046,0.615354537964
1555296772668526080,7957,1555296772668526080,world,-2.88980293274,-0.819164037704,0.798007965088,-0.709167838097,0.149080917239,-0.310026735067,0.615417897701
1555296772678856097,7958,1555296772678856097,world,-2.88978672028,-0.819187402725,0.798023223877,-0.709174335003,0.149024263024,-0.310159116983,0.615357458591
1555296772678898289,7959,1555296772678898289,world,-2.88978385925,-0.819209337234,0.798060655594,-0.709210753441,0.149089083076,-0.310215085745,0.615271508694
1555296772688237847,7960,1555296772688237847,world,-2.8897600174,-0.819209814072,0.79806804657,-0.709176421165,0.149223133922,-0.310261458158,0.61525529623
1555296772698591483,7961,1555296772698591483,world,-2.88975811005,-0.819170713425,0.798076629639,-0.709227800369,0.149036943913,-0.310027718544,0.615359067917
1555296772709069489,7962,1555296772709069489,world,-2.88973331451,-0.819150447845,0.798032999039,-0.709199011326,0.149096816778,-0.309924185276,0.615429997444
1555296772718519636,7963,1555296772718519636,world,-2.88969612122,-0.819144964218,0.798006057739,-0.709164381027,0.149111807346,-0.310212492943,0.615320920944
1555296772728914507,7964,1555296772728914507,world,-2.88969230652,-0.819142580032,0.798016548157,-0.709188520908,0.149148792028,-0.310316622257,0.615231633186
1555296772728968742,7965,1555296772728968742,world,-2.88974475861,-0.819080114365,0.798097610474,-0.709150731564,0.148677513003,-0.309901207685,0.615598618984
1555296772738400794,7966,1555296772738400794,world,-2.88970756531,-0.819115877151,0.798109292984,-0.709099829197,0.148958832026,-0.310284554958,0.615396142006
1555296772748825019,7967,1555296772748825019,world,-2.88972568512,-0.819092035294,0.79805803299,-0.709161579609,0.148995250463,-0.309986531734,0.615466237068
1555296772758340782,7968,1555296772758340782,world,-2.88970851898,-0.819110870361,0.798008680344,-0.709124207497,0.149253353477,-0.310230582952,0.615323722363
1555296772768669171,7969,1555296772768669171,world,-2.88972759247,-0.819102525711,0.798027276993,-0.709238946438,0.14886175096,-0.309958428144,0.615423619747
1555296772778943869,7970,1555296772778943869,world,-2.88973808289,-0.819125413895,0.798059940338,-0.709223628044,0.148913010955,-0.310078710318,0.615368068218
1555296772788263832,7971,1555296772788263832,world,-2.88977336884,-0.819123029709,0.798088312149,-0.709171950817,0.148797616363,-0.309842675924,0.615574538708
1555296772788318338,7972,1555296772788318338,world,-2.88977432251,-0.819155454636,0.798104763031,-0.709229052067,0.148759573698,-0.310073196888,0.615401864052
1555296772798698322,7973,1555296772798698322,world,-2.8897562027,-0.819193840027,0.79803609848,-0.709199845791,0.149082824588,-0.31009671092,0.615345418453
1555296772809153431,7974,1555296772809153431,world,-2.88975048065,-0.819221973419,0.798018455505,-0.70918995142,0.149231284857,-0.310314714909,0.61521089077
1555296772818641367,7975,1555296772818641367,world,-2.88977622986,-0.819216012955,0.798054933548,-0.709179878235,0.149083018303,-0.31018102169,0.615325927734
1555296772829102478,7976,1555296772829102478,world,-2.88977909088,-0.8192050457,0.798092126846,-0.709210634232,0.149014174938,-0.31008040905,0.615357875824
1555296772838557958,7977,1555296772838557958,world,-2.88976955414,-0.81919169426,0.798088312149,-0.709240376949,0.148878023028,-0.310004800558,0.615394532681
1555296772838599767,7978,1555296772838599767,world,-2.88976573944,-0.819167137146,0.79806804657,-0.709200084209,0.148889049888,-0.309936851263,0.615472495556
1555296772849039609,7979,1555296772849039609,world,-2.88973426819,-0.819145917892,0.798045396805,-0.709190666676,0.148884505033,-0.310003340244,0.615450978279
1555296772858506595,7980,1555296772858506595,world,-2.88972568512,-0.819143533707,0.798040866852,-0.709213078022,0.148987129331,-0.310311704874,0.615244925022
1555296772868839963,7981,1555296772868839963,world,-2.88971996307,-0.819088697433,0.798071861267,-0.70917314291,0.148843809962,-0.309982389212,0.615491569042
1555296772878088735,7982,1555296772878088735,world,-2.88970375061,-0.819075107574,0.798051595688,-0.709089815617,0.148893266916,-0.31007784605,0.615527510643
1555296772878131909,7983,1555296772878131909,world,-2.88969612122,-0.819051980972,0.798053979874,-0.709168732166,0.14877602458,-0.310080230236,0.615463852882
1555296772888391891,7984,1555296772888391891,world,-2.88969707489,-0.819032430649,0.79806804657,-0.709136962891,0.148694336414,-0.309931516647,0.61559510231
1555296772898786432,7985,1555296772898786432,world,-2.88968372345,-0.81906247139,0.79808139801,-0.709216296673,0.148805305362,-0.310018390417,0.61543315649
1555296772908072760,7986,1555296772908072760,world,-2.88971328735,-0.819044351578,0.798088550568,-0.709167659283,0.14867632091,-0.309882134199,0.615588843822
1555296772918533909,7987,1555296772918533909,world,-2.88972854614,-0.819076776505,0.798078536987,-0.709145724773,0.148867413402,-0.310012191534,0.615502536297
1555296772928896263,7988,1555296772928896263,world,-2.88974380493,-0.819081306458,0.798089742661,-0.70919919014,0.148694813251,-0.309807062149,0.615585803986
1555296772928949380,7989,1555296772928949380,world,-2.88973903656,-0.819147109985,0.798083305359,-0.709123134613,0.14898532629,-0.310039043427,0.615486383438
1555296772938352614,7990,1555296772938352614,world,-2.88976669312,-0.819125413895,0.798085689545,-0.709187328815,0.148655861616,-0.309744298458,0.615640521049
1555296772948705921,7991,1555296772948705921,world,-2.88973712921,-0.819196939468,0.798052787781,-0.709218800068,0.148931950331,-0.310029327869,0.615393996239
1555296772959061026,7992,1555296772959061026,world,-2.8897600174,-0.819167137146,0.798074483871,-0.709200978279,0.148834094405,-0.309968084097,0.615469157696
1555296772968421356,7993,1555296772968421356,world,-2.88975429535,-0.819198131561,0.798070430756,-0.709136724472,0.149036824703,-0.31018435955,0.615385055542
1555296772978827210,7994,1555296772978827210,world,-2.88974094391,-0.819179773331,0.79805803299,-0.709155023098,0.149002954364,-0.310155957937,0.615386664867
1555296772988146630,7995,1555296772988146630,world,-2.88973236084,-0.819150209427,0.798047780991,-0.709158420563,0.149183750153,-0.310215592384,0.615308761597
1555296772988203810,7996,1555296772988203810,world,-2.8897228241,-0.819142341614,0.798011302948,-0.70915043354,0.149166986346,-0.310269802809,0.615294635296
1555296772998526144,7997,1555296772998526144,world,-2.88971138,-0.819117069244,0.798022985458,-0.709117352962,0.1489726156,-0.310220211744,0.615405023098
1555296773008914603,7998,1555296773008914603,world,-2.88971710205,-0.819078683853,0.798071146011,-0.709169983864,0.148956224322,-0.310092061758,0.615412652493
1555296773018241162,7999,1555296773018241162,world,-2.88972949982,-0.819073915482,0.798056364059,-0.70927888155,0.148686796427,-0.309868276119,0.615465283394
1555296773028513202,8000,1555296773028513202,world,-2.88971138,-0.81908249855,0.798060417175,-0.709217309952,0.148767530918,-0.310037851334,0.615431308746
1555296773028569992,8001,1555296773028569992,world,-2.88968753815,-0.819076299667,0.798046827316,-0.709175646305,0.148848325014,-0.310123980045,0.615416407585
1555296773039005087,8002,1555296773039005087,world,-2.88967990875,-0.819132089615,0.798031568527,-0.709224581718,0.149008616805,-0.310151547194,0.615307271481
1555296773048399698,8003,1555296773048399698,world,-2.8896818161,-0.819105625153,0.798074483871,-0.709223330021,0.14887830615,-0.310097754002,0.615367293358
1555296773058859646,8004,1555296773058859646,world,-2.88968467712,-0.819146156311,0.79807639122,-0.709245204926,0.148900806904,-0.310099720955,0.615335702896
1555296773078498850,8005,1555296773078498850,world,-2.88969230652,-0.819109678268,0.798102855682,-0.709222197533,0.148589894176,-0.309965103865,0.615505158901
1555296773078540220,8006,1555296773078540220,world,-2.88970661163,-0.81912946701,0.798104286194,-0.709205687046,0.148818284273,-0.309895575047,0.615504145622
1555296773098087540,8007,1555296773098087540,world,-2.88972949982,-0.819130182266,0.798095226288,-0.70909589529,0.148835912347,-0.309984713793,0.615581333637
1555296773098163009,8009,1555296773098163009,world,-2.88972377777,-0.819155931473,0.79806470871,-0.709139883518,0.148960262537,-0.310293614864,0.615344882011
1555296773108548351,8010,1555296773108548351,world,-2.8897485733,-0.819154977798,0.798075914383,-0.709184467793,0.148951783776,-0.310209423304,0.615338146687
1555296773118953727,8011,1555296773118953727,world,-2.88976383209,-0.819152355194,0.798075675964,-0.709209144115,0.148926898837,-0.310155123472,0.615343034267
1555296773128381440,8012,1555296773128381440,world,-2.88975524902,-0.819166183472,0.798041582108,-0.709236204624,0.149121135473,-0.310160815716,0.615261912346
1555296773128425940,8013,1555296773128425940,world,-2.88976383209,-0.819140672684,0.798011779785,-0.709210813046,0.149008885026,-0.310011178255,0.615393698215
1555296773138859424,8014,1555296773138859424,world,-2.88976192474,-0.819161891937,0.798046112061,-0.709178805351,0.148947820067,-0.310154885054,0.615373075008
1555296773148237726,8015,1555296773148237726,world,-2.8897600174,-0.819150447845,0.79812502861,-0.709216892719,0.148875147104,-0.310023367405,0.615413069725
1555296773158693922,8016,1555296773158693922,world,-2.889752388,-0.81916475296,0.798102855682,-0.709176242352,0.149093016982,-0.310254186392,0.615290820599
1555296773169031796,8017,1555296773169031796,world,-2.88971710205,-0.819158554077,0.798029184341,-0.70924949646,0.149041354656,-0.310188055038,0.615252256393
1555296773178370158,8018,1555296773178370158,world,-2.88972854614,-0.819125413895,0.798028469086,-0.709205448627,0.14885404706,-0.309926450253,0.615480065346
1555296773178407930,8019,1555296773178407930,world,-2.88973903656,-0.819095611572,0.798045873642,-0.709094762802,0.148702800274,-0.30982863903,0.615693330765
1555296773188204234,8020,1555296773188204234,world,-2.88970851898,-0.819106817245,0.798092126846,-0.709194839001,0.148633763194,-0.310105055571,0.615455567837
1555296773198643645,8021,1555296773198643645,world,-2.88969802856,-0.819087505341,0.798105239868,-0.709224283695,0.148780062795,-0.310027986765,0.615425169468
1555296773208974441,8022,1555296773208974441,world,-2.88967895508,-0.819081544876,0.7980697155,-0.709230422974,0.14887547493,-0.310003519058,0.61540722847
1555296773218297375,8023,1555296773218297375,world,-2.88965415955,-0.819123029709,0.797994852066,-0.709197103977,0.14915497601,-0.310314446688,0.615221321583
1555296773228642168,8024,1555296773228642168,world,-2.88969039917,-0.819120645523,0.798004388809,-0.709178984165,0.149108916521,-0.310167372227,0.615327477455
1555296773239040214,8025,1555296773239040214,world,-2.88970470428,-0.819124221802,0.798088788986,-0.709138393402,0.149047136307,-0.310199737549,0.615372896194
1555296773239082308,8026,1555296773239082308,world,-2.88974285126,-0.819119215012,0.798145532608,-0.709206402302,0.14889267087,-0.310078918934,0.615392804146
1555296773248441857,8027,1555296773248441857,world,-2.88975429535,-0.819116592407,0.798105716705,-0.709198534489,0.14870223403,-0.309821665287,0.615577578545
1555296773258894734,8028,1555296773258894734,world,-2.88973522186,-0.819176912308,0.798030853271,-0.709088861942,0.149111121893,-0.310206592083,0.615411162376
1555296773268357812,8029,1555296773268357812,world,-2.88975906372,-0.81920337677,0.7980260849,-0.709128081799,0.149188265204,-0.310241907835,0.615329444408
1555296773278724292,8030,1555296773278724292,world,-2.88977432251,-0.819210290909,0.798053741455,-0.709178268909,0.149059087038,-0.310025036335,0.615412116051
1555296773289103768,8031,1555296773289103768,world,-2.88977146149,-0.819204092026,0.798104524612,-0.709216117859,0.149164319038,-0.310245156288,0.615231990814
1555296773289145543,8032,1555296773289145543,world,-2.88977622986,-0.819184541702,0.798094272614,-0.709223031998,0.149071514606,-0.310100197792,0.615319728851
1555296773298515086,8033,1555296773298515086,world,-2.88976192474,-0.819175243378,0.798026323318,-0.709203064442,0.149138957262,-0.310239136219,0.615256428719
1555296773308853224,8034,1555296773308853224,world,-2.88976478577,-0.819164276123,0.797978401184,-0.709104835987,0.149267882109,-0.310344874859,0.615285038948
1555296773318555399,8035,1555296773318555399,world,-2.88976764679,-0.819170475006,0.798023700714,-0.709147274494,0.149222880602,-0.310269773006,0.615284800529
1555296773328915922,8036,1555296773328915922,world,-2.88979148865,-0.819108009338,0.798084259033,-0.709173977375,0.148723751307,-0.310040295124,0.615490555763
1555296773328967560,8037,1555296773328967560,world,-2.88979244232,-0.819068908691,0.798079252243,-0.709262192249,0.148608654737,-0.309701263905,0.615587353706
1555296773338347853,8038,1555296773338347853,world,-2.88974571228,-0.819097280502,0.798048257828,-0.709214687347,0.148883759975,-0.310074925423,0.615387439728
1555296773348771866,8039,1555296773348771866,world,-2.8897485733,-0.819134950638,0.797998428345,-0.709219753742,0.148905426264,-0.310111939907,0.615357756615
1555296773359102410,8040,1555296773359102410,world,-2.88973331451,-0.819123744965,0.798008203506,-0.709202229977,0.148886963725,-0.309973806143,0.615451991558
1555296773368483171,8041,1555296773368483171,world,-2.88974094391,-0.819141864777,0.798087358475,-0.709130764008,0.148757517338,-0.310037732124,0.615533351898
1555296773378852459,8042,1555296773378852459,world,-2.88974952698,-0.819145679474,0.798145771027,-0.709137439728,0.148733615875,-0.309956431389,0.615572452545
1555296773378893771,8043,1555296773378893771,world,-2.88972663879,-0.819168806076,0.798105239868,-0.709132730961,0.148867338896,-0.309989273548,0.615528941154
1555296773388272711,8044,1555296773388272711,world,-2.88972949982,-0.819204092026,0.7980427742,-0.709146916866,0.149154350162,-0.31016227603,0.615356147289
1555296773398690425,8045,1555296773398690425,world,-2.88973140717,-0.819185972214,0.798010826111,-0.709183990955,0.149076014757,-0.309914886951,0.615456938744
1555296773409097161,8046,1555296773409097161,world,-2.88971996307,-0.819211244583,0.798038959503,-0.709142923355,0.149205744267,-0.310202240944,0.615328073502
1555296773418490133,8047,1555296773418490133,world,-2.88975048065,-0.819173574448,0.798092603683,-0.709133386612,0.149003624916,-0.310203790665,0.615387201309
1555296773428838615,8048,1555296773428838615,world,-2.88976860046,-0.819175243378,0.798074245453,-0.709216415882,0.149024814367,-0.310231864452,0.615272164345
1555296773438092111,8049,1555296773438092111,world,-2.88978385925,-0.819118022919,0.798053026199,-0.709154546261,0.14878539741,-0.309990257025,0.615523278713
1555296773438132958,8050,1555296773438132958,world,-2.88975143433,-0.819158554077,0.797984838486,-0.709203481674,0.14930588007,-0.310271382332,0.61519908905
1555296773448457332,8051,1555296773448457332,world,-2.88978385925,-0.819104194641,0.798030376434,-0.709181666374,0.148862764239,-0.310032457113,0.615451991558
1555296773458838753,8052,1555296773458838753,world,-2.88975906372,-0.81914639473,0.798054695129,-0.709152460098,0.14909183979,-0.31031692028,0.615286827087
1555296773468109755,8053,1555296773468109755,world,-2.88978099823,-0.81911945343,0.798089504242,-0.709140956402,0.148936972022,-0.310137838125,0.615427911282
1555296773478445267,8054,1555296773478445267,world,-2.88978862762,-0.819115400314,0.798038482666,-0.709147036076,0.148820370436,-0.310078799725,0.615478873253
1555296773478509674,8055,1555296773478509674,world,-2.88978385925,-0.819092273712,0.797996520996,-0.709217846394,0.148915439844,-0.309759676456,0.615534901619
1555296773498381038,8056,1555296773498381038,world,-2.88977718353,-0.81912779808,0.798037528992,-0.709231615067,0.14889895916,-0.309896230698,0.615454435349
1555296773498425456,8057,1555296773498425456,world,-2.88974761963,-0.819161891937,0.798052072525,-0.709163248539,0.149071067572,-0.310111224651,0.615383028984
1555296773508868988,8058,1555296773508868988,world,-2.88974285126,-0.819160223007,0.798099756241,-0.709141850471,0.14910183847,-0.310177177191,0.615367114544
1555296773518263880,8059,1555296773518263880,world,-2.88973236084,-0.819184780121,0.798087835312,-0.709164857864,0.149167060852,-0.310179829597,0.61532330513
1555296773528625230,8060,1555296773528625230,world,-2.88971042633,-0.819200992584,0.798049449921,-0.709188699722,0.149337053299,-0.310401558876,0.615142822266
1555296773539032079,8061,1555296773539032079,world,-2.88972187042,-0.819180727005,0.798047780991,-0.709172308445,0.149331703782,-0.310164958239,0.615282356739
1555296773539074506,8062,1555296773539074506,world,-2.88973808289,-0.819144964218,0.798100948334,-0.709209024906,0.148839965463,-0.31000199914,0.615441381931
1555296773548439528,8063,1555296773548439528,world,-2.88971996307,-0.819162607193,0.798098087311,-0.709187984467,0.148849666119,-0.310076355934,0.615425825119
1555296773558850383,8064,1555296773558850383,world,-2.88973426819,-0.819159030914,0.798069953918,-0.709144532681,0.148901149631,-0.310053437948,0.615474879742
1555296773568125657,8065,1555296773568125657,world,-2.88976573944,-0.819162368774,0.798069238663,-0.709171354771,0.148825779557,-0.309915214777,0.615531980991
1555296773578514430,8066,1555296773578514430,world,-2.88974475861,-0.819157123566,0.798019647598,-0.709203064442,0.148837059736,-0.309986889362,0.615456461906
1555296773588903914,8067,1555296773588903914,world,-2.88975715637,-0.819160223007,0.798003673553,-0.709199428558,0.149107813835,-0.31016600132,0.615304946899
1555296773588955214,8068,1555296773588955214,world,-2.8897600174,-0.819159984589,0.798048973083,-0.709147691727,0.149037063122,-0.310137987137,0.615395784378
1555296773598326295,8069,1555296773598326295,world,-2.88977527618,-0.819167852402,0.798045396805,-0.709213852882,0.149039492011,-0.310166686773,0.615304410458
1555296773608707448,8070,1555296773608707448,world,-2.88981628418,-0.819117307663,0.79806804657,-0.709234774113,0.148701757193,-0.309795320034,0.615549206734
1555296773619094413,8071,1555296773619094413,world,-2.88977050781,-0.819132804871,0.798062801361,-0.709106981754,0.149200648069,-0.310246407986,0.61534845829
1555296773628429186,8072,1555296773628429186,world,-2.88974666595,-0.819120645523,0.798035621643,-0.709169387817,0.149030566216,-0.3100887537,0.61539721489
1555296773628467793,8073,1555296773628467793,world,-2.88975048065,-0.819100141525,0.798045635223,-0.709128201008,0.148865789175,-0.309943139553,0.615557789803
1555296773648099386,8074,1555296773648099386,world,-2.88974475861,-0.819121599197,0.798077821732,-0.709122300148,0.148934781551,-0.310159653425,0.615438878536
1555296773648138097,8075,1555296773648138097,world,-2.88974952698,-0.819113492966,0.798117637634,-0.70917236805,0.148790046573,-0.310016363859,0.615488469601
1555296773658665715,8076,1555296773658665715,world,-2.88975524902,-0.819135665894,0.79808139801,-0.709173560143,0.14891384542,-0.310015648603,0.615457475185
1555296773669071859,8077,1555296773669071859,world,-2.88974094391,-0.819144010544,0.798052310944,-0.709178090096,0.148919507861,-0.310047715902,0.615434587002
1555296773678403569,8078,1555296773678403569,world,-2.88969421387,-0.819182872772,0.798007011414,-0.709238469601,0.149146720767,-0.310360401869,0.615152537823
1555296773678445064,8079,1555296773678445064,world,-2.88971138,-0.819169521332,0.798064231873,-0.709157526493,0.149048104882,-0.310122877359,0.615389406681
1555296773688807752,8080,1555296773688807752,world,-2.88970184326,-0.819205522537,0.798076152802,-0.709237873554,0.149240165949,-0.310291111469,0.615165352821
1555296773698066907,8081,1555296773698066907,world,-2.88970565796,-0.819189071655,0.798085689545,-0.709208726883,0.149033308029,-0.310249328613,0.615270137787
1555296773708505912,8082,1555296773708505912,world,-2.88972187042,-0.819168806076,0.798036575317,-0.709234118462,0.148850485682,-0.310093849897,0.615363538265
1555296773718944413,8083,1555296773718944413,world,-2.88972568512,-0.819188117981,0.798023700714,-0.709202349186,0.148967117071,-0.310259878635,0.615288376808
1555296773728408584,8084,1555296773728408584,world,-2.88973999023,-0.81914973259,0.798038005829,-0.709179401398,0.148914933205,-0.310139298439,0.615388154984
1555296773738734710,8085,1555296773738734710,world,-2.88974571228,-0.819149255753,0.798046588898,-0.70916312933,0.149069234729,-0.310104221106,0.615387380123
1555296773738772888,8086,1555296773738772888,world,-2.88975811005,-0.819110631943,0.798075199127,-0.709187328815,0.148788884282,-0.309747368097,0.615606844425
1555296773748085979,8087,1555296773748085979,world,-2.88975715637,-0.81911444664,0.798073291779,-0.70907831192,0.148999869823,-0.310098767281,0.61550450325
1555296773758480542,8088,1555296773758480542,world,-2.88974571228,-0.81911444664,0.798041343689,-0.709163606167,0.149101898074,-0.310166329145,0.61534756422
1555296773768920263,8089,1555296773768920263,world,-2.88974666595,-0.819110155106,0.798022508621,-0.709212839603,0.148957639933,-0.310122668743,0.615347743034
1555296773778306697,8090,1555296773778306697,world,-2.88973903656,-0.819100618362,0.79803609848,-0.70918482542,0.148936852813,-0.309992402792,0.615450561047
1555296773788765384,8091,1555296773788765384,world,-2.88975429535,-0.819086551666,0.798059463501,-0.709118843079,0.148872792721,-0.309869289398,0.615604162216
1555296773788807207,8092,1555296773788807207,world,-2.88973236084,-0.81912946701,0.798102140427,-0.709234058857,0.1488532722,-0.31028932333,0.61526453495
1555296773798118378,8093,1555296773798118378,world,-2.88973140717,-0.819140195847,0.798090934753,-0.709140777588,0.148968279362,-0.310243606567,0.615367174149
1555296773808568424,8094,1555296773808568424,world,-2.8897228241,-0.819135189056,0.798026800156,-0.7090690732,0.149130135775,-0.310025751591,0.615520358086
1555296773819021073,8095,1555296773819021073,world,-2.88972759247,-0.819123268127,0.798020362854,-0.709132194519,0.148917853832,-0.309891104698,0.615566730499
1555296773828423204,8096,1555296773828423204,world,-2.88972663879,-0.819150924683,0.798042535782,-0.709165811539,0.149082362652,-0.309978723526,0.61544418335
1555296773828465259,8097,1555296773828465259,world,-2.88972377777,-0.819148778915,0.798108100891,-0.70923614502,0.148841202259,-0.31008887291,0.615365982056
1555296773838894583,8098,1555296773838894583,world,-2.88972663879,-0.819162845612,0.798094511032,-0.709167480469,0.149117767811,-0.310118794441,0.615363121033
1555296773848352594,8099,1555296773848352594,world,-2.88974952698,-0.819137334824,0.798034906387,-0.709132671356,0.148855268955,-0.310024499893,0.615514278412
1555296773858804170,8100,1555296773858804170,world,-2.88975334167,-0.819149017334,0.798002719879,-0.709129452705,0.148960635066,-0.310064166784,0.615472495556
1555296773868118784,8101,1555296773868118784,world,-2.8897562027,-0.819178104401,0.798054933548,-0.709109842777,0.149205356836,-0.31043702364,0.61524784565
1555296773878473489,8102,1555296773878473489,world,-2.88979244232,-0.819161891937,0.798103570938,-0.709088087082,0.149086475372,-0.310164690018,0.615439176559
1555296773878549986,8103,1555296773878549986,world,-2.88981437683,-0.81916809082,0.798092365265,-0.709129750729,0.148961052299,-0.31000944972,0.615499675274
1555296773888937799,8104,1555296773888937799,world,-2.88980960846,-0.819159269333,0.798027276993,-0.709097027779,0.149154171348,-0.310168474913,0.615410268307
1555296773898385824,8105,1555296773898385824,world,-2.88982963562,-0.819155931473,0.797988891602,-0.709092438221,0.149139076471,-0.310143649578,0.615431904793
1555296773908833169,8106,1555296773908833169,world,-2.88982963562,-0.819184303284,0.798037290573,-0.709146022797,0.149204969406,-0.310246825218,0.615302085876
1555296773918169639,8107,1555296773918169639,world,-2.8898525238,-0.819167375565,0.798128843307,-0.709181368351,0.149086803198,-0.310238778591,0.615294098854
1555296773928567209,8108,1555296773928567209,world,-2.88981246948,-0.819171190262,0.798098802567,-0.709070622921,0.149230524898,-0.310326427221,0.615342795849
1555296773928607631,8109,1555296773928607631,world,-2.88980674744,-0.819158792496,0.798058271408,-0.708995878696,0.149093344808,-0.310069471598,0.615591585636
1555296773938931847,8110,1555296773938931847,world,-2.88980293274,-0.819123744965,0.798032283783,-0.709062516689,0.148802921176,-0.309870570898,0.615685403347
1555296773948272404,8111,1555296773948272404,world,-2.88976573944,-0.819197893143,0.798023700714,-0.709101617336,0.149106606841,-0.310383170843,0.615308463573
1555296773958614858,8112,1555296773958614858,world,-2.8897600174,-0.819156646729,0.79811501503,-0.709111988544,0.148928314447,-0.310179173946,0.615442633629
1555296773968965189,8113,1555296773968965189,world,-2.88976097107,-0.819171667099,0.798086881638,-0.709143221378,0.149124234915,-0.310229599476,0.615333676338
1555296773978366913,8114,1555296773978366913,world,-2.88975429535,-0.819148778915,0.798077821732,-0.709198415279,0.148822709918,-0.310113281012,0.615401685238
1555296773978403603,8115,1555296773978403603,world,-2.88975906372,-0.81916975975,0.797989845276,-0.709187805653,0.149212449789,-0.310172617435,0.615289568901
1555296773988848884,8116,1555296773988848884,world,-2.88973522186,-0.819160938263,0.797977685928,-0.709180891514,0.149295002222,-0.310295641422,0.615215420723
1555296773998128435,8117,1555296773998128435,world,-2.88973808289,-0.819205760956,0.798022985458,-0.709147572517,0.149187907577,-0.310547560453,0.615152776241
1555296774008544862,8118,1555296774008544862,world,-2.8897562027,-0.819164037704,0.798093557358,-0.709190130234,0.148821294308,-0.31031870842,0.615308046341
1555296774019010741,8119,1555296774019010741,world,-2.8897819519,-0.819149017334,0.798108100891,-0.709144234657,0.148875698447,-0.310235708952,0.61538952589
1555296774028295988,8120,1555296774028295988,world,-2.88977050781,-0.819152593613,0.798023462296,-0.709108829498,0.149001061916,-0.310022115707,0.615507602692
1555296774028363157,8121,1555296774028363157,world,-2.88979530334,-0.819142818451,0.797979831696,-0.709133267403,0.148924335837,-0.30991217494,0.615553319454
1555296774038822195,8122,1555296774038822195,world,-2.88978290558,-0.819157838821,0.797990083694,-0.709079027176,0.149168908596,-0.310157299042,0.615433216095
1555296774048143288,8123,1555296774048143288,world,-2.88978767395,-0.819176197052,0.798073530197,-0.709152936935,0.149120628834,-0.310206890106,0.615334749222
1555296774058616346,8124,1555296774058616346,world,-2.88982582092,-0.819154262543,0.798140048981,-0.709202408791,0.148689195514,-0.309935063124,0.615518987179
1555296774069057387,8125,1555296774069057387,world,-2.88981533051,-0.819158315659,0.798078298569,-0.709150016308,0.148899778724,-0.310017794371,0.615487039089
1555296774078324787,8126,1555296774078324787,world,-2.88978290558,-0.819160223007,0.79797744751,-0.709167778492,0.149138063192,-0.310097277164,0.615368723869
1555296774078391406,8127,1555296774078391406,world,-2.88978672028,-0.81916642189,0.798002481461,-0.709119081497,0.149098038673,-0.309996366501,0.615485191345
1555296774088720639,8128,1555296774088720639,world,-2.88978481293,-0.819154977798,0.798076629639,-0.709183931351,0.148924767971,-0.310028195381,0.615436553955
1555296774099065673,8129,1555296774099065673,world,-2.88978290558,-0.819152355194,0.798128128052,-0.70923024416,0.148949831724,-0.310110509396,0.615335583687
1555296774108402872,8130,1555296774108402872,world,-2.88975715637,-0.819168329239,0.798089027405,-0.709140360355,0.149112433195,-0.310266673565,0.615321278572
1555296774118764133,8131,1555296774118764133,world,-2.88973522186,-0.819157123566,0.798012256622,-0.70919907093,0.149095878005,-0.310089200735,0.615346848965
1555296774128098984,8132,1555296774128098984,world,-2.88971424103,-0.819196224213,0.797965526581,-0.709187448025,0.149388030171,-0.310408741236,0.615128338337
1555296774128149671,8133,1555296774128149671,world,-2.88972568512,-0.81916475296,0.798029661179,-0.709221541882,0.149178221822,-0.310240656137,0.615224659443
1555296774148999379,8134,1555296774148999379,world,-2.88976192474,-0.819159269333,0.798096418381,-0.709193468094,0.148968398571,-0.310068488121,0.615394592285
1555296774149038210,8135,1555296774149038210,world,-2.88974094391,-0.819183588028,0.79811501503,-0.709124982357,0.149058923125,-0.310319155455,0.615325391293
1555296774158389500,8136,1555296774158389500,world,-2.88976860046,-0.819166183472,0.79806804657,-0.70911937952,0.149085834622,-0.310239940882,0.615365087986
1555296774168679862,8137,1555296774168679862,world,-2.88977718353,-0.819163322449,0.798003911972,-0.709111630917,0.14929382503,-0.310141175985,0.615373551846
