%time,field.header.seq,field.header.stamp,field.header.frame_id,field.pose.position.x,field.pose.position.y,field.pose.position.z,field.pose.orientation.x,field.pose.orientation.y,field.pose.orientation.z,field.pose.orientation.w
1555298017058664489,20142,1555298017058664489,world,-2.89858722687,-0.823029994965,0.797851324081,-0.722759068012,0.0659355670214,-0.231425702572,0.647853434086
1555298017058705770,20143,1555298017058705770,world,-2.89863491058,-0.823001384735,0.797843933105,-0.722667455673,0.0656453147531,-0.230951935053,0.648154020309
1555298017069103701,20144,1555298017069103701,world,-2.89870166779,-0.822921991348,0.797911643982,-0.722821116447,0.065381295979,-0.230636045337,0.648121774197
1555298017078490608,20145,1555298017078490608,world,-2.89852333069,-0.823051214218,0.797902107239,-0.72273927927,0.0664850026369,-0.231943905354,0.647633850574
1555298017088929420,20146,1555298017088929420,world,-2.89862060547,-0.822952985764,0.797946453094,-0.722685337067,0.0656073763967,-0.230925112963,0.648147583008
1555298017088974198,20147,1555298017088974198,world,-2.89862060547,-0.822959184647,0.797894477844,-0.722587823868,0.0655632093549,-0.230553179979,0.648393154144
1555298017098389767,20148,1555298017098389767,world,-2.89863395691,-0.822979450226,0.797849655151,-0.722509086132,0.0656823068857,-0.230714514852,0.648411273956
1555298017108768224,20149,1555298017108768224,world,-2.8986492157,-0.822966575623,0.797884225845,-0.722609102726,0.0657181665301,-0.231066808105,0.648170828819
1555298017118033600,20150,1555298017118033600,world,-2.89863872528,-0.823003053665,0.797945261002,-0.722655177116,0.0657669603825,-0.2309807688,0.648145139217
1555298017128428357,20151,1555298017128428357,world,-2.89845657349,-0.823156356812,0.797894954681,-0.722763299942,0.0669401809573,-0.232525721192,0.647351622581
1555298017138781261,20152,1555298017138781261,world,-2.89857578278,-0.823056936264,0.797888755798,-0.722685515881,0.065957210958,-0.231134623289,0.648037135601
1555298017138820346,20153,1555298017138820346,world,-2.89862251282,-0.823060512543,0.797852039337,-0.722640216351,0.0654727369547,-0.230615332723,0.648321628571
1555298017147996929,20154,1555298017147996929,world,-2.89862823486,-0.823046445847,0.797894716263,-0.722702860832,0.0656464099884,-0.230924740434,0.648124158382
1555298017158268098,20155,1555298017158268098,world,-2.89864253998,-0.82302069664,0.79793381691,-0.722764849663,0.0655922889709,-0.230992332101,0.648036420345
1555298017168604411,20156,1555298017168604411,world,-2.89864826202,-0.823002815247,0.797940731049,-0.722711622715,0.0655224770308,-0.230824887753,0.648162424564
1555298017178944073,20157,1555298017178944073,world,-2.89861869812,-0.823031425476,0.797907352448,-0.722703933716,0.0657342076302,-0.231033563614,0.648075342178
1555298017179011133,20158,1555298017179011133,world,-2.89863967896,-0.823000669479,0.79788684845,-0.722716331482,0.06562820822,-0.230949908495,0.648102045059
1555298017188452001,20159,1555298017188452001,world,-2.89862728119,-0.823008537292,0.797873258591,-0.722730994225,0.0657718777657,-0.230911508203,0.648084819317
1555298017209074438,20160,1555298017209074438,world,-2.89863872528,-0.822923660278,0.797901391983,-0.722799241543,0.0656940490007,-0.23069794476,0.648092508316
1555298017209142947,20161,1555298017209142947,world,-2.89865398407,-0.822941541672,0.797910690308,-0.722796738148,0.065772280097,-0.231069028378,0.647955238819
1555298017218471632,20162,1555298017218471632,world,-2.89864826202,-0.822919130325,0.797926187515,-0.722704231739,0.0654855519533,-0.230853974819,0.648164093494
1555298017228847057,20163,1555298017228847057,world,-2.89860916138,-0.822979211807,0.797875642776,-0.722616136074,0.0655729323626,-0.231033399701,0.648189544678
1555298017238070396,20164,1555298017238070396,world,-2.89860630035,-0.822982311249,0.797846317291,-0.722621560097,0.0657894685864,-0.231137558818,0.648124396801
1555298017248476966,20165,1555298017248476966,world,-2.89861679077,-0.822999477386,0.797884941101,-0.722637236118,0.0656184405088,-0.230889976025,0.648212492466
1555298017248519279,20166,1555298017248519279,world,-2.89846324921,-0.823119878769,0.797869205475,-0.722706973553,0.0668413490057,-0.232308223844,0.647502660751
1555298017258900864,20167,1555298017258900864,world,-2.8985748291,-0.823028087616,0.797918319702,-0.722828805447,0.0662845596671,-0.231588214636,0.647681891918
1555298017278666781,20168,1555298017278666781,world,-2.89860343933,-0.823058843613,0.797891616821,-0.722670674324,0.0657805204391,-0.231229439378,0.648037850857
1555298017278733684,20169,1555298017278733684,world,-2.89862918854,-0.823054075241,0.797847986221,-0.722642481327,0.0655490607023,-0.230896174908,0.648211538792
1555298017289030688,20170,1555298017289030688,world,-2.89865589142,-0.823021888733,0.797897577286,-0.722732365131,0.065485522151,-0.231049716473,0.648063004017
1555298017289062727,20171,1555298017289062727,world,-2.89865112305,-0.823039770126,0.79792881012,-0.722803235054,0.0658121407032,-0.231150522828,0.64791482687
1555298017298520020,20172,1555298017298520020,world,-2.89865112305,-0.823048830032,0.797941207886,-0.722802400589,0.0657200291753,-0.230821996927,0.648042201996
1555298017308971900,20173,1555298017308971900,world,-2.89848995209,-0.823182344437,0.79784488678,-0.722795248032,0.067043364048,-0.232670605183,0.647253155708
1555298017318798903,20174,1555298017318798903,world,-2.89859867096,-0.823099136353,0.79783987999,-0.722659051418,0.0660963580012,-0.231558769941,0.647900998592
1555298017328082569,20175,1555298017328082569,world,-2.89849758148,-0.823167085648,0.797807693481,-0.722678542137,0.0667433813214,-0.232476755977,0.647484004498
1555298017338386739,20176,1555298017338386739,world,-2.89863872528,-0.823034524918,0.797889947891,-0.72273927927,0.065705254674,-0.231270134449,0.647954285145
1555298017338472382,20177,1555298017338472382,world,-2.89867019653,-0.822976827621,0.797939300537,-0.722732901573,0.0656622722745,-0.230757161975,0.648148715496
1555298017358145160,20178,1555298017358145160,world,-2.89867115021,-0.822984933853,0.797908782959,-0.722751617432,0.0656204000115,-0.230800300837,0.648116827011
1555298017358188306,20179,1555298017358188306,world,-2.89868927002,-0.822964191437,0.797892808914,-0.722702801228,0.0653385967016,-0.230486094952,0.648311436176
1555298017368577686,20180,1555298017368577686,world,-2.89848423004,-0.823138952255,0.797826766968,-0.72264367342,0.0666397958994,-0.232163012028,0.647646248341
1555298017378885778,20181,1555298017378885778,world,-2.89859771729,-0.823036193848,0.797871351242,-0.722616970539,0.0660143345594,-0.231386363506,0.648017942905
1555298017388283141,20182,1555298017388283141,world,-2.89863777161,-0.822995662689,0.797909498215,-0.722678720951,0.0656044334173,-0.230755984783,0.648215353489
1555298017388326717,20183,1555298017388326717,world,-2.89847278595,-0.823118686676,0.797857046127,-0.722833871841,0.0668264403939,-0.232291251421,0.64736866951
1555298017408039110,20184,1555298017408039110,world,-2.89845275879,-0.823163986206,0.797871112823,-0.72277545929,0.0667974874377,-0.232253447175,0.647450566292
1555298017408118218,20185,1555298017408118218,world,-2.89862155914,-0.823052406311,0.797911882401,-0.722579836845,0.0655438303947,-0.230748549104,0.648334443569
1555298017418509161,20186,1555298017418509161,world,-2.89863872528,-0.823025941849,0.797885894775,-0.722588181496,0.0654415935278,-0.230519860983,0.648416936398
1555298017428902582,20187,1555298017428902582,world,-2.89867115021,-0.823006153107,0.797933101654,-0.722693741322,0.0654485151172,-0.230595454574,0.648271679878
1555298017428972948,20188,1555298017428972948,world,-2.8985080719,-0.823108434677,0.79792547226,-0.722840070724,0.0665472522378,-0.232211381197,0.647419214249
1555298017438358245,20189,1555298017438358245,world,-2.89858341217,-0.82307934761,0.797912120819,-0.722772836685,0.0658914744854,-0.23125731945,0.647902727127
1555298017448660110,20190,1555298017448660110,world,-2.89864635468,-0.822998285294,0.797893762589,-0.722731232643,0.0656208097935,-0.23095549643,0.648084104061
1555298017458952542,20191,1555298017458952542,world,-2.89863395691,-0.822997570038,0.797855377197,-0.722695291042,0.0656765848398,-0.230840757489,0.648159503937
1555298017468291291,20192,1555298017468291291,world,-2.89863395691,-0.822999238968,0.797900676727,-0.722652792931,0.0654426589608,-0.230677172542,0.648288667202
1555298017478722640,20193,1555298017478722640,world,-2.89849567413,-0.823107481003,0.797903299332,-0.722704231739,0.0665538236499,-0.231886491179,0.647686600685
1555298017489093302,20194,1555298017489093302,world,-2.89860916138,-0.822995662689,0.797913551331,-0.722737491131,0.06578656286,-0.231139272451,0.647994935513
1555298017489135699,20195,1555298017489135699,world,-2.89845943451,-0.823158502579,0.797778606415,-0.722759962082,0.0668294504285,-0.23258164525,0.647346735001
1555298017498527606,20196,1555298017498527606,world,-2.89845657349,-0.823177337646,0.797790288925,-0.722733974457,0.0667636916041,-0.232691302896,0.647343039513
1555298017508801901,20197,1555298017508801901,world,-2.89846229553,-0.823172807693,0.797847747803,-0.722725868225,0.0669856145978,-0.232827156782,0.647280335426
1555298017518125625,20198,1555298017518125625,world,-2.89845466614,-0.823202848434,0.797894001007,-0.72281306982,0.0671422630548,-0.232881546021,0.647147059441
1555298017528579402,20199,1555298017528579402,world,-2.89865970612,-0.822981357574,0.797960758209,-0.722848773003,0.0655760765076,-0.230731025338,0.648037612438
1555298017538981326,20200,1555298017538981326,world,-2.89868068695,-0.822999715805,0.797880411148,-0.722696959972,0.0652453526855,-0.23053739965,0.648308992386
1555298017548345840,20201,1555298017548345840,world,-2.89868927002,-0.822998762131,0.797866106033,-0.722639918327,0.0650490522385,-0.230029761791,0.648572742939
1555298017548384902,20202,1555298017548384902,world,-2.89867210388,-0.823056459427,0.797920465469,-0.722710728645,0.0653642788529,-0.230405136943,0.648328721523
1555298017558761368,20203,1555298017558761368,world,-2.89868164062,-0.822983026505,0.797989606857,-0.722764253616,0.065533734858,-0.230657249689,0.64816236496
1555298017569145121,20204,1555298017569145121,world,-2.89865016937,-0.823041200638,0.797950029373,-0.722665786743,0.0654954686761,-0.230681210756,0.648267507553
1555298017579423053,20205,1555298017579423053,world,-2.89850330353,-0.823115825653,0.797829151154,-0.722708046436,0.0665453597903,-0.232135996222,0.647593855858
1555298017588759731,20206,1555298017588759731,world,-2.89859771729,-0.823068141937,0.797831773758,-0.722687065601,0.0659165754914,-0.231357842684,0.647959768772
1555298017588790824,20207,1555298017588790824,world,-2.8985080719,-0.823145151138,0.797844171524,-0.722720146179,0.0665820762515,-0.232373967767,0.64749109745
1555298017599034372,20208,1555298017599034372,world,-2.89844512939,-0.823176622391,0.79786491394,-0.722812592983,0.0671127066016,-0.232947736979,0.647126913071
1555298017618516550,20209,1555298017618516550,world,-2.89860725403,-0.823007583618,0.797940969467,-0.722705304623,0.0659324973822,-0.231237113476,0.647981107235
1555298017618541321,20210,1555298017618541321,world,-2.89866733551,-0.822995901108,0.797906398773,-0.722684562206,0.065494582057,-0.230593517423,0.648277759552
1555298017628763664,20211,1555298017628763664,world,-2.89869976044,-0.822980880737,0.797874689102,-0.722642540932,0.065481454134,-0.230769529939,0.648263394833
1555298017639021035,20212,1555298017639021035,world,-2.89849090576,-0.823158025742,0.79781126976,-0.72272580862,0.0669351145625,-0.232556074858,0.647383153439
1555298017639048543,20213,1555298017639048543,world,-2.89864063263,-0.823028326035,0.797892332077,-0.722834825516,0.0659605562687,-0.231286883354,0.647815942764
1555298017648356476,20214,1555298017648356476,world,-2.89851665497,-0.823121786118,0.797896623611,-0.722797691822,0.0667624920607,-0.23221963644,0.647441446781
1555298017658739798,20215,1555298017658739798,world,-2.89863395691,-0.8230240345,0.797916650772,-0.722776353359,0.0657703205943,-0.231130331755,0.647956311703
1555298017668067723,20216,1555298017668067723,world,-2.89866161346,-0.823016643524,0.797880887985,-0.722676992416,0.0655095949769,-0.230773121119,0.648220777512
1555298017678455695,20217,1555298017678455695,world,-2.89865493774,-0.82298874855,0.797843933105,-0.722668588161,0.0654403120279,-0.230577424169,0.648306846619
1555298017688845409,20218,1555298017688845409,world,-2.89869689941,-0.82293343544,0.79789018631,-0.722686469555,0.0652102380991,-0.230450227857,0.64835524559
1555298017688892756,20219,1555298017688892756,world,-2.89867305756,-0.822953939438,0.7979388237,-0.722698807716,0.0652662366629,-0.230408042669,0.648350894451
1555298017698321405,20220,1555298017698321405,world,-2.89863204956,-0.822989702225,0.79795217514,-0.722739577293,0.0655350163579,-0.230720087886,0.648167312145
1555298017708761678,20221,1555298017708761678,world,-2.89862823486,-0.823050498962,0.797897815704,-0.722713291645,0.0657171458006,-0.231056153774,0.648058474064
1555298017719097678,20222,1555298017719097678,world,-2.89861011505,-0.823043584824,0.797851800919,-0.722732245922,0.0657327026129,-0.231121599674,0.648012578487
1555298017728726316,20223,1555298017728726316,world,-2.89860248566,-0.823049783707,0.797839641571,-0.722598731518,0.0655547901988,-0.231037586927,0.648209273815
1555298017739171702,20224,1555298017739171702,world,-2.89864444733,-0.823039531708,0.797910690308,-0.722708106041,0.0655936896801,-0.230981484056,0.648103415966
1555298017739243303,20225,1555298017739243303,world,-2.8986749649,-0.823003292084,0.797955751419,-0.722800254822,0.0658093169332,-0.231031090021,0.647961139679
1555298017749001752,20226,1555298017749001752,world,-2.89864444733,-0.82307100296,0.797915697098,-0.722773849964,0.0657017156482,-0.231079801917,0.647984147072
1555298017758379516,20227,1555298017758379516,world,-2.89865398407,-0.823056936264,0.797888755798,-0.722659647465,0.0655674859881,-0.230919584632,0.648182272911
1555298017768828812,20228,1555298017768828812,world,-2.8986492157,-0.823108196259,0.797834873199,-0.722643852234,0.065698005259,-0.23136344552,0.648028373718
1555298017778155798,20229,1555298017778155798,world,-2.89866161346,-0.823051452637,0.797868251801,-0.722645521164,0.0654752925038,-0.230918198824,0.64820766449
1555298017788492476,20230,1555298017788492476,world,-2.89864063263,-0.82307100296,0.79790520668,-0.722754597664,0.0658573210239,-0.231233969331,0.647934854031
1555298017788533907,20231,1555298017788533907,world,-2.89863777161,-0.823026895523,0.797927379608,-0.7227678895,0.0659004896879,-0.23120290041,0.64792662859
1555298017809088731,20232,1555298017809088731,world,-2.89864444733,-0.823003053665,0.797902345657,-0.722666442394,0.0658995434642,-0.231085628271,0.648081719875
1555298017809130282,20233,1555298017809130282,world,-2.89847755432,-0.823115110397,0.797811746597,-0.722698688507,0.0671371817589,-0.232783019543,0.647310853004
1555298017818455046,20234,1555298017818455046,world,-2.89857673645,-0.823043346405,0.797855615616,-0.722620427608,0.0661028549075,-0.231580227613,0.647935807705
1555298017828781066,20235,1555298017828781066,world,-2.89860534668,-0.822972536087,0.797922372818,-0.72269487381,0.0657663121819,-0.230814367533,0.648160219193
1555298017839131240,20236,1555298017839131240,world,-2.89861679077,-0.82297039032,0.797944545746,-0.722712218761,0.0655619651079,-0.230787232518,0.648171186447
1555298017839175063,20237,1555298017839175063,world,-2.89859294891,-0.822953462601,0.797937393188,-0.722748994827,0.065596498549,-0.23062697053,0.648183822632
1555298017848549995,20238,1555298017848549995,world,-2.89857578278,-0.82300901413,0.797893762589,-0.722620606422,0.065469481051,-0.230718538165,0.648307263851
1555298017858953481,20239,1555298017858953481,world,-2.89857292175,-0.822999477386,0.797903299332,-0.722716212273,0.0655890405178,-0.230827704072,0.64814966917
1555298017868357912,20240,1555298017868357912,world,-2.89859199524,-0.823003292084,0.797921895981,-0.72282320261,0.0657130107284,-0.231037959456,0.647942900658
1555298017878805376,20241,1555298017878805376,world,-2.89856147766,-0.823045730591,0.797898769379,-0.722708702087,0.0656284764409,-0.231021076441,0.64808511734
1555298017888045590,20242,1555298017888045590,world,-2.89842510223,-0.823147773743,0.797870635986,-0.722847223282,0.0669072270393,-0.232665479183,0.64721095562
1555298017888082990,20243,1555298017888082990,world,-2.89855575562,-0.823071479797,0.797914505005,-0.722781360149,0.0659326165915,-0.231208264828,0.64790648222
1555298017898494119,20244,1555298017898494119,world,-2.8986158371,-0.823038101196,0.797896623611,-0.722653627396,0.0657284036279,-0.230987340212,0.648148536682
1555298017908799469,20245,1555298017908799469,world,-2.89863395691,-0.822992086411,0.797874927521,-0.722591757774,0.0655262172222,-0.230664864182,0.6483528018
1555298017918050321,20246,1555298017918050321,world,-2.89862537384,-0.823030233383,0.797888040543,-0.722648203373,0.0657284781337,-0.230989560485,0.648153662682
1555298017928404219,20247,1555298017928404219,world,-2.8986492157,-0.822993755341,0.797925710678,-0.722732543945,0.0657536759973,-0.231077581644,0.648025751114
1555298017938741551,20248,1555298017938741551,world,-2.89852619171,-0.82311964035,0.797869682312,-0.722734391689,0.0667088478804,-0.23263309896,0.647369146347
1555298017938807013,20249,1555298017938807013,world,-2.89862537384,-0.823049068451,0.797842502594,-0.722723245621,0.065986841917,-0.231572985649,0.647835493088
1555298017948034765,20250,1555298017948034765,world,-2.89865779877,-0.822998285294,0.797858953476,-0.722601115704,0.0657043978572,-0.230905979872,0.648238360882
1555298017958398764,20251,1555298017958398764,world,-2.8986530304,-0.823016405106,0.79789185524,-0.722661793232,0.0656045526266,-0.230949938297,0.648165285587
1555298017968739979,20252,1555298017968739979,world,-2.89866638184,-0.822961807251,0.797956705093,-0.722802639008,0.0656582787633,-0.230728656054,0.648081541061
1555298017978063003,20253,1555298017978063003,world,-2.89846992493,-0.823138237,0.797872304916,-0.722818791866,0.066878721118,-0.232670769095,0.647243738174
1555298017988506113,20254,1555298017988506113,world,-2.89856052399,-0.823100328445,0.797877788544,-0.722690343857,0.0659374892712,-0.231297969818,0.647975444794
1555298017988575641,20255,1555298017988575641,world,-2.89860439301,-0.823020935059,0.797888040543,-0.722686707973,0.0655892044306,-0.230909779668,0.648153305054
1555298017998907294,20256,1555298017998907294,world,-2.89843273163,-0.823151350021,0.797835588455,-0.722749233246,0.066670678556,-0.232451573014,0.647421717644
1555298018008334484,20257,1555298018008334484,world,-2.89855575562,-0.823040246964,0.797914743423,-0.722773909569,0.0659571290016,-0.230986610055,0.647991359234
1555298018018695235,20258,1555298018018695235,world,-2.89861965179,-0.823000669479,0.797945022583,-0.722723424435,0.0654913336039,-0.230537608266,0.64825463295
1555298018029142481,20259,1555298018029142481,world,-2.8986492157,-0.822986841202,0.79793214798,-0.72274518013,0.0652357637882,-0.230395570397,0.648306727409
1555298018029215372,20260,1555298018029215372,world,-2.89845943451,-0.823144435883,0.797860860825,-0.722765743732,0.0664953738451,-0.231967747211,0.647594749928
1555298018038664852,20261,1555298018038664852,world,-2.89857387543,-0.823063611984,0.797896146774,-0.72275531292,0.065926194191,-0.231247201562,0.647922217846
1555298018049113763,20262,1555298018049113763,world,-2.898478508,-0.823140859604,0.797843456268,-0.72270834446,0.0667480304837,-0.232379123569,0.647485435009
1555298018058504986,20263,1555298018058504986,world,-2.89858818054,-0.823035955429,0.797892808914,-0.722657263279,0.0658330395818,-0.231154829264,0.648073971272
1555298018068784685,20264,1555298018068784685,world,-2.89849281311,-0.823123693466,0.797863483429,-0.722746312618,0.0667835026979,-0.232280448079,0.647474765778
1555298018079053473,20265,1555298018079053473,world,-2.89863681793,-0.823004007339,0.797905683517,-0.722678780556,0.0657100081444,-0.230946436524,0.648136794567
1555298018079123983,20266,1555298018079123983,world,-2.89865016937,-0.823023319244,0.797903060913,-0.722655177116,0.0655628293753,-0.230882376432,0.648200929165
1555298018088503076,20267,1555298018088503076,world,-2.8986749649,-0.822971820831,0.797910690308,-0.722674846649,0.0653709769249,-0.230616703629,0.648292899132
1555298018098904865,20268,1555298018098904865,world,-2.89867687225,-0.822953224182,0.797895669937,-0.722704946995,0.0656100437045,-0.230769380927,0.6481808424
1555298018108307951,20269,1555298018108307951,world,-2.89865779877,-0.822944402695,0.797903060913,-0.722763299942,0.0656938627362,-0.231031447649,0.648013830185
1555298018118662852,20270,1555298018118662852,world,-2.89863967896,-0.822954177856,0.797911167145,-0.722727179527,0.0656144097447,-0.230824157596,0.648136079311
1555298018128961400,20271,1555298018128961400,world,-2.89845561981,-0.823134660721,0.797852993011,-0.722681939602,0.0666299015284,-0.232109978795,0.647623538971
1555298018129002087,20272,1555298018129002087,world,-2.89841365814,-0.823171377182,0.797859430313,-0.722674489021,0.0668025687337,-0.232404068112,0.647508561611
1555298018138350935,20273,1555298018138350935,world,-2.89841270447,-0.823189496994,0.797847032547,-0.722683250904,0.0669290870428,-0.232637166977,0.647401988506
1555298018148653381,20274,1555298018148653381,world,-2.89856052399,-0.82303071022,0.79790353775,-0.722713470459,0.0656654909253,-0.230900079012,0.648119211197
1555298018159041010,20275,1555298018159041010,world,-2.89844226837,-0.823124408722,0.797865390778,-0.722793161869,0.0668385177851,-0.232358396053,0.647388756275
1555298018168478898,20276,1555298018168478898,world,-2.8985824585,-0.822990179062,0.797909736633,-0.722789347172,0.0657903328538,-0.23085346818,0.648038446903
1555298018178840801,20277,1555298018178840801,world,-2.89863681793,-0.822973012924,0.797930002213,-0.722728788853,0.0653240308166,-0.230400905013,0.648314356804
1555298018188107239,20278,1555298018188107239,world,-2.89865493774,-0.822934865952,0.797942399979,-0.722795724869,0.0652288198471,-0.230266943574,0.648296713829
1555298018188151360,20279,1555298018188151360,world,-2.89867591858,-0.822915554047,0.797958850861,-0.722719311714,0.0651684477925,-0.23026303947,0.648389518261
1555298018198494720,20280,1555298018198494720,world,-2.89866638184,-0.822942018509,0.797898054123,-0.722780048847,0.0652849003673,-0.230691418052,0.648157715797
1555298018208829573,20281,1555298018208829573,world,-2.89851093292,-0.823084592819,0.797848701477,-0.722757637501,0.0667230412364,-0.232264265418,0.647474169731
1555298018218152225,20282,1555298018218152225,world,-2.89848709106,-0.823088407516,0.797846794128,-0.722787737846,0.0668918266892,-0.232618734241,0.647295892239
1555298018228576360,20283,1555298018228576360,world,-2.89860534668,-0.823053121567,0.797886610031,-0.722623050213,0.0659235864878,-0.231255829334,0.648066937923
1555298018239030686,20284,1555298018239030686,world,-2.89851093292,-0.823099851608,0.797860622406,-0.722676694393,0.0665632411838,-0.232296794653,0.647569358349
1555298018239084699,20285,1555298018239084699,world,-2.89864730835,-0.823018550873,0.79790520668,-0.722728967667,0.06564193964,-0.231229901314,0.647986650467
1555298018248394108,20286,1555298018248394108,world,-2.89866542816,-0.823014736176,0.797928571701,-0.722804963589,0.0655449479818,-0.230821326375,0.648057460785
1555298018258767464,20287,1555298018258767464,world,-2.89864730835,-0.823019504547,0.797904729843,-0.722674369812,0.0653229951859,-0.230562582612,0.648317456245
1555298018269110018,20288,1555298018269110018,world,-2.89864063263,-0.823012828827,0.797885656357,-0.722670614719,0.065314553678,-0.230639562011,0.648295283318
1555298018278382571,20289,1555298018278382571,world,-2.89850234985,-0.823108434677,0.797863483429,-0.7227216959,0.0665596723557,-0.23219551146,0.64755576849
1555298018288716912,20290,1555298018288716912,world,-2.89842700958,-0.823177099228,0.797847509384,-0.72279882431,0.0671638920903,-0.232911914587,0.647149920464
1555298018288762562,20291,1555298018288762562,world,-2.89856815338,-0.82301902771,0.797942399979,-0.722779035568,0.0660911872983,-0.231241732836,0.647881031036
1555298018298020061,20292,1555298018298020061,world,-2.89860916138,-0.823027133942,0.797913551331,-0.722688734531,0.0655962154269,-0.230586394668,0.648265480995
1555298018308465352,20293,1555298018308465352,world,-2.89863014221,-0.823007106781,0.797878742218,-0.72270321846,0.0653556585312,-0.230541959405,0.648289322853
1555298018319086430,20294,1555298018319086430,world,-2.89845561981,-0.823120594025,0.797819137573,-0.72278547287,0.0668563619256,-0.232350498438,0.647398471832
1555298018328492592,20295,1555298018328492592,world,-2.89842605591,-0.82318520546,0.797859191895,-0.722751796246,0.0671859309077,-0.232899099588,0.647204637527
1555298018338951658,20296,1555298018338951658,world,-2.89843559265,-0.823113203049,0.797892570496,-0.722741127014,0.0669059157372,-0.232669532299,0.647328257561
1555298018338989295,20297,1555298018338989295,world,-2.89857959747,-0.823016643524,0.797900438309,-0.722668111324,0.0657595843077,-0.231244519353,0.648037433624
1555298018348371156,20298,1555298018348371156,world,-2.8985042572,-0.823084831238,0.797834157944,-0.722665667534,0.0662226751447,-0.231816098094,0.647788703442
1555298018358778931,20299,1555298018358778931,world,-2.898645401,-0.823009967804,0.797884464264,-0.722690522671,0.0654351562262,-0.230460599065,0.648324489594
1555298018368032727,20300,1555298018368032727,world,-2.89867210388,-0.822973489761,0.797948360443,-0.722740590572,0.0653980597854,-0.230404481292,0.648292303085
1555298018378356243,20301,1555298018378356243,world,-2.89850997925,-0.823102712631,0.797914981842,-0.722757577896,0.0664953067899,-0.231927186251,0.647618532181
1555298018388692216,20302,1555298018388692216,world,-2.89861297607,-0.82300567627,0.797876119614,-0.72267729044,0.0655832737684,-0.230927765369,0.648157894611
1555298018388730004,20303,1555298018388730004,world,-2.89848995209,-0.823110342026,0.797801733017,-0.72268050909,0.0666522830725,-0.232511237264,0.647478818893
1555298018399046726,20304,1555298018399046726,world,-2.89844799042,-0.823155879974,0.797823667526,-0.722631156445,0.0670018047094,-0.23259614408,0.647467374802
1555298018408439901,20305,1555298018408439901,world,-2.89860916138,-0.823038339615,0.797899246216,-0.722734928131,0.0658690929413,-0.231319308281,0.647925138474
1555298018418829089,20306,1555298018418829089,world,-2.89853286743,-0.823084115982,0.797898769379,-0.722696900368,0.0662851631641,-0.231730237603,0.647778213024
1555298018428098297,20307,1555298018428098297,world,-2.89863681793,-0.822984457016,0.797944545746,-0.722719967365,0.065717510879,-0.230900272727,0.648106694221
1555298018438494679,20308,1555298018438494679,world,-2.89864826202,-0.823004245758,0.797918796539,-0.722640037537,0.0651890411973,-0.230367481709,0.648438572884
1555298018438536366,20309,1555298018438536366,world,-2.89852333069,-0.823051691055,0.79785823822,-0.722653627396,0.0661495700479,-0.231587678194,0.647891283035
1555298018448845275,20310,1555298018448845275,world,-2.89861297607,-0.823014497757,0.797900915146,-0.722853839397,0.0656646937132,-0.230876043439,0.647971153259
1555298018458102313,20311,1555298018458102313,world,-2.89865684509,-0.822944641113,0.797944784164,-0.722804307938,0.0652923285961,-0.230531349778,0.648186802864
1555298018468434258,20312,1555298018468434258,world,-2.89864444733,-0.822973966599,0.797946929932,-0.722769618034,0.0653487443924,-0.230453267694,0.648247659206
1555298018478841591,20313,1555298018478841591,world,-2.89862346649,-0.822959184647,0.797927379608,-0.722821652889,0.0656185597181,-0.230745270848,0.648058414459
1555298018488040985,20314,1555298018488040985,world,-2.89863967896,-0.82305765152,0.797862768173,-0.722588121891,0.0654838904738,-0.230779871345,0.64832007885
1555298018488076427,20315,1555298018488076427,world,-2.898478508,-0.823114395142,0.797827005386,-0.722619354725,0.0667655318975,-0.232393085957,0.647577822208
1555298018498537088,20316,1555298018498537088,world,-2.89858627319,-0.823063850403,0.797894716263,-0.722637832165,0.065806016326,-0.231090128422,0.648121535778
1555298018508947330,20317,1555298018508947330,world,-2.89846897125,-0.82315993309,0.79788184166,-0.722730875015,0.0667634531856,-0.232538953424,0.647401213646
1555298018518358517,20318,1555298018518358517,world,-2.89859485626,-0.823056697845,0.797901391983,-0.722753107548,0.0659924000502,-0.231395661831,0.647864878178
1555298018528780308,20319,1555298018528780308,world,-2.89866256714,-0.823022127151,0.797876358032,-0.722711384296,0.0655031129718,-0.230865582824,0.648150324821
1555298018538112779,20320,1555298018538112779,world,-2.89869499207,-0.822974920273,0.797878980637,-0.722647309303,0.0651414394379,-0.230475440621,0.648396909237
1555298018538165283,20321,1555298018538165283,world,-2.89866924286,-0.82300567627,0.797902107239,-0.722732961178,0.0654734522104,-0.230720117688,0.648180961609
1555298018548545515,20322,1555298018548545515,world,-2.89865970612,-0.82297039032,0.797955989838,-0.722750842571,0.065671429038,-0.230667427182,0.648159742355
1555298018558946451,20323,1555298018558946451,world,-2.89864730835,-0.823014259338,0.797939300537,-0.72269910574,0.0657221227884,-0.230734422803,0.648188352585
1555298018568355131,20324,1555298018568355131,world,-2.89865112305,-0.82298541069,0.797922134399,-0.722655653954,0.0655809342861,-0.230866923928,0.648204028606
1555298018578713089,20325,1555298018578713089,world,-2.89863014221,-0.823020458221,0.79789686203,-0.722683310509,0.0655754581094,-0.231042072177,0.648111283779
1555298018589017540,20326,1555298018589017540,world,-2.89859008789,-0.823028326035,0.797880411148,-0.722645819187,0.0659151226282,-0.23122626543,0.648052990437
1555298018598347122,20327,1555298018598347122,world,-2.89846897125,-0.823099136353,0.797878026962,-0.722910106182,0.0667979568243,-0.232137069106,0.64734172821
1555298018598387343,20328,1555298018598387343,world,-2.89859390259,-0.822997808456,0.797926187515,-0.722821295261,0.0659518092871,-0.231121361256,0.647890865803
1555298018608651309,20329,1555298018608651309,world,-2.89859867096,-0.822996139526,0.797921657562,-0.722772777081,0.0659046396613,-0.231229752302,0.647911250591
1555298018618978552,20330,1555298018618978552,world,-2.89860725403,-0.823000907898,0.797897100449,-0.722665071487,0.0656199529767,-0.23077455163,0.648222446442
1555298018628306427,20331,1555298018628306427,world,-2.89861106873,-0.822998523712,0.797890424728,-0.722611248493,0.0655266270041,-0.230797871947,0.648283600807
1555298018638704953,20332,1555298018638704953,world,-2.89845466614,-0.823135614395,0.797835350037,-0.722760438919,0.0669329985976,-0.232715383172,0.647287249565
1555298018638744091,20333,1555298018638744091,world,-2.89858150482,-0.823020219803,0.797914028168,-0.722756385803,0.0658068060875,-0.231288433075,0.647918462753
1555298018649110077,20334,1555298018649110077,world,-2.89865398407,-0.822980880737,0.797915697098,-0.722793221474,0.0654036402702,-0.230670586228,0.648138463497
1555298018658539177,20335,1555298018658539177,world,-2.89867115021,-0.822967290878,0.797917842865,-0.722704052925,0.0653410851955,-0.230468407273,0.648316085339
1555298018668934861,20336,1555298018668934861,world,-2.89865684509,-0.823021173477,0.797876119614,-0.722578823566,0.065292917192,-0.230733856559,0.648366093636
1555298018678379471,20337,1555298018678379471,world,-2.89849472046,-0.823126316071,0.797823905945,-0.722708463669,0.0666692778468,-0.23249591887,0.647451519966
1555298018688837768,20338,1555298018688837768,world,-2.89859867096,-0.823063611984,0.7978951931,-0.722710669041,0.0659894794226,-0.231519162655,0.647868454456
1555298018698103961,20339,1555298018698103961,world,-2.89867305756,-0.823013544083,0.797909498215,-0.722706377506,0.0653921291232,-0.230729565024,0.648215413094
1555298018698147193,20340,1555298018698147193,world,-2.89866924286,-0.822977781296,0.797889709473,-0.722702145576,0.0653280392289,-0.230621740222,0.648265063763
1555298018708579434,20341,1555298018708579434,world,-2.89847660065,-0.823171138763,0.797809123993,-0.722771048546,0.0668107867241,-0.232474341989,0.647374808788
1555298018719039197,20342,1555298018719039197,world,-2.89860630035,-0.82307934761,0.797888994217,-0.722678184509,0.0659616291523,-0.23120033741,0.648021459579
1555298018728319212,20343,1555298018728319212,world,-2.8985042572,-0.823135614395,0.797867298126,-0.722782731056,0.0666688755155,-0.232395455241,0.647404611111
1555298018738665418,20344,1555298018738665418,world,-2.89862155914,-0.823061466217,0.797918558121,-0.722901701927,0.0661071538925,-0.231557384133,0.647629678249
1555298018738709616,20345,1555298018738709616,world,-2.89865493774,-0.82303404808,0.797913312912,-0.722785174847,0.0656491965055,-0.230903223157,0.64803981781
1555298018749087362,20346,1555298018749087362,world,-2.8986530304,-0.822992563248,0.797905921936,-0.722763776779,0.0655880272388,-0.230860725045,0.648084998131
1555298018758483369,20347,1555298018758483369,world,-2.89848995209,-0.823142528534,0.797847747803,-0.722712337971,0.0666038915515,-0.232254847884,0.647540450096
1555298018768953267,20348,1555298018768953267,world,-2.89862346649,-0.823021888733,0.797906160355,-0.722701728344,0.0656950697303,-0.230947226286,0.648112475872
1555298018778396728,20349,1555298018778396728,world,-2.89865493774,-0.822999715805,0.797907114029,-0.722739577293,0.0654503405094,-0.230705633759,0.648181140423
1555298018788740943,20350,1555298018788740943,world,-2.89864730835,-0.822983980179,0.797912120819,-0.722737073898,0.0654503405094,-0.230666533113,0.648197770119
1555298018799138707,20351,1555298018799138707,world,-2.898645401,-0.82298707962,0.797890901566,-0.722672522068,0.0655640885234,-0.230921372771,0.648167490959
1555298018799180164,20352,1555298018799180164,world,-2.89863014221,-0.823002576828,0.79789352417,-0.722669184208,0.0655600354075,-0.23092161119,0.648171544075
1555298018808644436,20353,1555298018808644436,world,-2.89848327637,-0.823130369186,0.797838687897,-0.722701311111,0.0668091699481,-0.232394471765,0.647481322289
1555298018819097233,20354,1555298018819097233,world,-2.89844036102,-0.823150873184,0.797842741013,-0.722760498524,0.0672881528735,-0.23312535882,0.647103011608
1555298018828500421,20355,1555298018828500421,world,-2.89861965179,-0.823013544083,0.797900676727,-0.722699701786,0.0657318979502,-0.231270253658,0.647995769978
1555298018838950668,20356,1555298018838950668,world,-2.89865779877,-0.823006868362,0.797898054123,-0.722712099552,0.0653962120414,-0.230759724975,0.648198008537
1555298018838992122,20357,1555298018838992122,world,-2.89868354797,-0.822977542877,0.797896623611,-0.722650289536,0.0652367174625,-0.230679288507,0.648311495781
1555298018848430380,20358,1555298018848430380,world,-2.89868164062,-0.823003292084,0.79788684845,-0.722624778748,0.0654098987579,-0.230675235391,0.648323893547
1555298018858846544,20359,1555298018858846544,world,-2.89867973328,-0.822962760925,0.797907114029,-0.722701728344,0.0655124336481,-0.230680778623,0.648225784302
1555298018868118273,20360,1555298018868118273,world,-2.89868545532,-0.822948455811,0.79792547226,-0.72279047966,0.0653829276562,-0.230729356408,0.648122668266
1555298018878451071,20361,1555298018878451071,world,-2.89867019653,-0.823007106781,0.797899246216,-0.722773909569,0.0654035583138,-0.230820342898,0.648106753826
1555298018888802065,20362,1555298018888802065,world,-2.89849758148,-0.823121547699,0.797817468643,-0.722758412361,0.0666180327535,-0.232296869159,0.647472321987
1555298018888876824,20363,1555298018888876824,world,-2.89861774445,-0.823056459427,0.797877788544,-0.722768723965,0.0659501478076,-0.231302827597,0.647885024548
1555298018898231656,20364,1555298018898231656,world,-2.89849376678,-0.823138237,0.797859668732,-0.722774863243,0.0668837204576,-0.232474014163,0.647363126278
1555298018908571473,20365,1555298018908571473,world,-2.89863204956,-0.822991132736,0.797918081284,-0.722695887089,0.0656732991338,-0.231070309877,0.648077309132
1555298018918914851,20366,1555298018918914851,world,-2.89868450165,-0.822932720184,0.797923088074,-0.722711920738,0.0652821436524,-0.230440065265,0.648323237896
1555298018928253754,20367,1555298018928253754,world,-2.8986530304,-0.82297706604,0.797888755798,-0.722685277462,0.0654224604368,-0.23074670136,0.648229837418
1555298018938592143,20368,1555298018938592143,world,-2.898645401,-0.822959423065,0.79790353775,-0.722769141197,0.0656851306558,-0.2309499681,0.64803737402
1555298018948913055,20369,1555298018948913055,world,-2.89864253998,-0.822947978973,0.797904491425,-0.722806692123,0.0655903220177,-0.23097230494,0.647997021675
1555298018948954125,20370,1555298018948954125,world,-2.89864349365,-0.822950601578,0.797892570496,-0.722692430019,0.0656866654754,-0.231239065528,0.648019552231
1555298018958256687,20371,1555298018958256687,world,-2.89862632751,-0.822958707809,0.797901630402,-0.722653329372,0.0655976384878,-0.231075361371,0.648130655289
1555298018968574047,20372,1555298018968574047,world,-2.89861679077,-0.822957038879,0.797909975052,-0.722708284855,0.0657132193446,-0.231027588248,0.648074746132
1555298018978873968,20373,1555298018978873968,world,-2.89863014221,-0.822970151901,0.797900676727,-0.722729325294,0.0657229721546,-0.231120482087,0.64801710844
1555298018988166566,20374,1555298018988166566,world,-2.8984708786,-0.823063135147,0.797823429108,-0.722774922848,0.0667547136545,-0.2324937433,0.647369146347
1555298018988211172,20375,1555298018988211172,world,-2.89859199524,-0.822970628738,0.797901630402,-0.722729623318,0.0659798234701,-0.231438696384,0.647877156734
1555298018998571611,20376,1555298018998571611,world,-2.89862537384,-0.822969913483,0.79794883728,-0.722690880299,0.0657496005297,-0.230780780315,0.648178398609
1555298019008981923,20377,1555298019008981923,world,-2.89865875244,-0.822978973389,0.797950029373,-0.722762405872,0.0656075626612,-0.230757534504,0.64812117815
1555298019018325591,20378,1555298019018325591,world,-2.89863777161,-0.823061704636,0.797895908356,-0.722640633583,0.0655094981194,-0.230718627572,0.648280799389
1555298019028668189,20379,1555298019028668189,world,-2.89862728119,-0.823114156723,0.797871828079,-0.722666800022,0.0653888434172,-0.230756103992,0.64825040102
1555298019039011455,20380,1555298019039011455,world,-2.89862632751,-0.823124885559,0.797911167145,-0.722751915455,0.0657283514738,-0.231135547161,0.647985994816
1555298019048366389,20381,1555298019048366389,world,-2.89864253998,-0.823161125183,0.797947645187,-0.722724378109,0.0659154579043,-0.231244772673,0.647958695889
1555298019048412007,20382,1555298019048412007,world,-2.89865875244,-0.823169469833,0.797951459885,-0.722687244415,0.065748937428,-0.231072574854,0.64807844162
1555298019058683124,20383,1555298019058683124,world,-2.89866352081,-0.823170185089,0.797886371613,-0.722641050816,0.0655976906419,-0.231055289507,0.64815145731
1555298019069023387,20384,1555298019069023387,world,-2.89867401123,-0.823139190674,0.797864675522,-0.72266960144,0.0656074658036,-0.231074362993,0.648111820221
1555298019078397974,20385,1555298019078397974,world,-2.89867019653,-0.823085308075,0.797894716263,-0.722728729248,0.0656306520104,-0.231053382158,0.648051023483
1555298019088730217,20386,1555298019088730217,world,-2.89864730835,-0.823030471802,0.797938585281,-0.722708404064,0.0656627044082,-0.231077879667,0.648061692715
1555298019098004531,20387,1555298019098004531,world,-2.89863204956,-0.822979688644,0.797933340073,-0.722721397877,0.0658239275217,-0.231206476688,0.647985041142
1555298019098044841,20388,1555298019098044841,world,-2.89861679077,-0.822932958603,0.79790353775,-0.722705125809,0.0657472684979,-0.231109529734,0.648045539856
1555298019108477211,20389,1555298019108477211,world,-2.89860057831,-0.822907447815,0.797864198685,-0.722726047039,0.0659161731601,-0.231271713972,0.647947251797
1555298019118886637,20390,1555298019118886637,world,-2.89857006073,-0.822922945023,0.797849416733,-0.722677648067,0.0657513961196,-0.231190174818,0.648047149181
1555298019128332392,20391,1555298019128332392,world,-2.89843559265,-0.822988510132,0.797870397568,-0.722833514214,0.0667112767696,-0.232212081552,0.647409379482
1555298019138658553,20392,1555298019138658553,world,-2.89852142334,-0.822933197021,0.797967433929,-0.722797870636,0.065902672708,-0.231142967939,0.647914409637
1555298019138699209,20393,1555298019138699209,world,-2.89853572845,-0.822940587997,0.797960281372,-0.722799539566,0.0656516626477,-0.23076274991,0.64807343483
1555298019148972653,20394,1555298019148972653,world,-2.89854812622,-0.822977781296,0.797929763794,-0.722706258297,0.0656785815954,-0.230718567967,0.648190498352
1555298019158315947,20395,1555298019158315947,world,-2.89855194092,-0.823004007339,0.797884464264,-0.722629845142,0.0654048472643,-0.230397999287,0.648417294025
1555298019168658302,20396,1555298019168658302,world,-2.8985414505,-0.823039293289,0.79788517952,-0.722645699978,0.0653396099806,-0.23034222424,0.648426055908
1555298019178993734,20397,1555298019178993734,world,-2.89857769012,-0.822987794876,0.797971725464,-0.722796499729,0.0654784590006,-0.230650603771,0.648134291172
1555298019188328530,20398,1555298019188328530,world,-2.89841175079,-0.823156356812,0.797935962677,-0.722735285759,0.0668192878366,-0.232304617763,0.647474706173
1555298019198785232,20399,1555298019198785232,world,-2.89851570129,-0.823091745377,0.797922849655,-0.722728669643,0.0663474351168,-0.231675580144,0.647755861282
1555298019198825459,20400,1555298019198825459,world,-2.89840602875,-0.823187828064,0.797791719437,-0.72268819809,0.0670882835984,-0.232578128576,0.647401213646
1555298019208084983,20401,1555298019208084983,world,-2.89857673645,-0.823066949844,0.797840118408,-0.722650110722,0.0659233480692,-0.231343209743,0.648005545139
1555298019218532642,20402,1555298019218532642,world,-2.89863300323,-0.823002338409,0.797917604446,-0.722727358341,0.0654905065894,-0.230752810836,0.648173928261
1555298019228873560,20403,1555298019228873560,world,-2.89867591858,-0.822962999344,0.797984361649,-0.722797989845,0.0654580369592,-0.23054496944,0.648172318935
1555298019238338123,20404,1555298019238338123,world,-2.89870166779,-0.822963237762,0.797967910767,-0.722783446312,0.0654143467546,-0.230625197291,0.648164451122
1555298019238375415,20405,1555298019238375415,world,-2.89868831635,-0.822987318039,0.797877550125,-0.722707629204,0.0653374269605,-0.230544731021,0.648285329342
1555298019248705258,20406,1555298019248705258,world,-2.89866161346,-0.823058605194,0.797835111618,-0.722594857216,0.0656683221459,-0.231008812785,0.648212373257
1555298019259068961,20407,1555298019259068961,world,-2.89864253998,-0.823055267334,0.79789018631,-0.722653627396,0.0657629072666,-0.231285095215,0.648038864136
1555298019268422193,20408,1555298019268422193,world,-2.89867115021,-0.823056459427,0.79794049263,-0.722804009914,0.0657491609454,-0.231134265661,0.647926270962
1555298019278753807,20409,1555298019278753807,world,-2.89867210388,-0.823007106781,0.79795050621,-0.722786188126,0.0656609609723,-0.231056839228,0.647982597351
1555298019288024279,20410,1555298019288024279,world,-2.89848804474,-0.823193073273,0.797813653946,-0.722727239132,0.0668552666903,-0.232579663396,0.647381305695
1555298019288089809,20411,1555298019288089809,world,-2.89860248566,-0.82311797142,0.797826051712,-0.722637891769,0.0658977329731,-0.231357574463,0.648016691208
1555298019298525747,20412,1555298019298525747,world,-2.89865875244,-0.823073148727,0.797902107239,-0.722690820694,0.0656637921929,-0.230917364359,0.648138523102
1555298019308971922,20413,1555298019308971922,world,-2.89865684509,-0.823035955429,0.797944068909,-0.72269320488,0.0655633583665,-0.230753332376,0.64820432663
1555298019318688011,20414,1555298019318688011,world,-2.89863967896,-0.823039770126,0.797956466675,-0.722692668438,0.0654161125422,-0.230596497655,0.648275613785
1555298019329037881,20415,1555298019329037881,world,-2.89863014221,-0.823067903519,0.797914743423,-0.722699224949,0.0655070468783,-0.230766639113,0.648198723793
1555298019338493811,20416,1555298019338493811,world,-2.89861774445,-0.823057174683,0.797888994217,-0.722693264484,0.0656941384077,-0.230934083462,0.648126661777
1555298019338535472,20417,1555298019338535472,world,-2.89862251282,-0.823053121567,0.797872781754,-0.722634792328,0.0658024325967,-0.231162697077,0.648099422455
1555298019358398116,20418,1555298019358398116,world,-2.89862632751,-0.82302236557,0.797897815704,-0.722704768181,0.0655734539032,-0.230837240815,0.648160636425
1555298019358439180,20419,1555298019358439180,world,-2.89866256714,-0.822978019714,0.797935724258,-0.722686290741,0.0655876472592,-0.230828791857,0.648182868958
1555298019368881395,20420,1555298019368881395,world,-2.89849472046,-0.823093175888,0.797862291336,-0.722767829895,0.0667555257678,-0.232238307595,0.647468686104
1555298019378263397,20421,1555298019378263397,world,-2.89841270447,-0.823189496994,0.797788619995,-0.722804784775,0.0671498253942,-0.233042687178,0.647097706795
1555298019388731826,20422,1555298019388731826,world,-2.89858818054,-0.822997331619,0.797849416733,-0.722751200199,0.0660598054528,-0.231544047594,0.647807180882
1555298019388780430,20423,1555298019388780430,world,-2.89862728119,-0.822997570038,0.797894716263,-0.722698569298,0.0657028257847,-0.231124177575,0.648052155972
1555298019399138416,20424,1555298019399138416,world,-2.89865875244,-0.822943687439,0.797955751419,-0.722720146179,0.0654801204801,-0.230815917253,0.648160457611
1555298019418785064,20425,1555298019418785064,world,-2.89847564697,-0.823096513748,0.797891139984,-0.72277879715,0.0667222216725,-0.232428580523,0.647391557693
1555298019418827929,20426,1555298019418827929,world,-2.89842033386,-0.823160171509,0.797794103622,-0.722754895687,0.0668760687113,-0.232426956296,0.647403001785
1555298019428029395,20427,1555298019428029395,world,-2.8984413147,-0.823160886765,0.79779624939,-0.722702085972,0.0667852684855,-0.232227310538,0.647543072701
1555298019438313810,20428,1555298019438313810,world,-2.8986082077,-0.823012828827,0.797919750214,-0.722745060921,0.0658022463322,-0.230960264802,0.648048579693
1555298019438337711,20429,1555298019438337711,world,-2.89852142334,-0.823082447052,0.797917366028,-0.722775757313,0.0664435476065,-0.232162058353,0.647519409657
1555298019448767966,20430,1555298019448767966,world,-2.89865016937,-0.823014497757,0.797944784164,-0.722780942917,0.0655197873712,-0.230905562639,0.648056745529
1555298019458038986,20431,1555298019458038986,world,-2.89869117737,-0.822965860367,0.797939777374,-0.722732901573,0.0652978420258,-0.23055113852,0.64825886488
1555298019468400470,20432,1555298019468400470,world,-2.89851665497,-0.823170661926,0.797827720642,-0.722627699375,0.0665601342916,-0.231986820698,0.647735416889
1555298019478831349,20433,1555298019478831349,world,-2.89848613739,-0.82314825058,0.797827482224,-0.722661852837,0.0666436329484,-0.232389137149,0.647544562817
1555298019488154769,20434,1555298019488154769,world,-2.89846992493,-0.823180198669,0.797860622406,-0.72269910574,0.0667582899332,-0.232197597623,0.647559642792
1555298019488196242,20435,1555298019488196242,world,-2.89861965179,-0.823039531708,0.797925710678,-0.722730636597,0.0657936409116,-0.231083661318,0.648021697998
1555298019498701697,20436,1555298019498701697,world,-2.89867973328,-0.822986364365,0.797925710678,-0.722707748413,0.0654025375843,-0.230591788888,0.648261904716
1555298019509087163,20437,1555298019509087163,world,-2.89852333069,-0.823131084442,0.797805547714,-0.722762584686,0.0666133165359,-0.232285499573,0.647472381592
1555298019518488358,20438,1555298019518488358,world,-2.898645401,-0.822992086411,0.797883987427,-0.722687900066,0.065752312541,-0.230981767178,0.648109853268
1555298019528924495,20439,1555298019528924495,world,-2.89867591858,-0.822963953018,0.79790520668,-0.722695410252,0.0655590817332,-0.230672582984,0.64823114872
1555298019528963264,20440,1555298019528963264,world,-2.89868736267,-0.822972536087,0.797946929932,-0.722729623318,0.065494671464,-0.230704143643,0.648188114166
1555298019538347544,20441,1555298019538347544,world,-2.89850997925,-0.823111057281,0.797850847244,-0.722760856152,0.0665512904525,-0.232143372297,0.647531688213
1555298019548841442,20442,1555298019548841442,world,-2.89863395691,-0.823018789291,0.797892570496,-0.722681820393,0.0657588765025,-0.231338486075,0.647988677025
1555298019558096087,20443,1555298019558096087,world,-2.89864635468,-0.823011159897,0.797880172729,-0.722727119923,0.0652851983905,-0.230598792434,0.648249745369
1555298019568531481,20444,1555298019568531481,world,-2.8986492157,-0.823009729385,0.797899246216,-0.722643315792,0.0652523487806,-0.230524972081,0.648372650146
1555298019578818735,20445,1555298019578818735,world,-2.89865684509,-0.822999715805,0.797945261002,-0.722650945187,0.0653946623206,-0.230639323592,0.648308992386
1555298019588041882,20446,1555298019588041882,world,-2.89849185944,-0.823136329651,0.797863483429,-0.722717344761,0.0663563460112,-0.231842458248,0.647707998753
1555298019588086702,20447,1555298019588086702,world,-2.89858436584,-0.823072195053,0.797893762589,-0.722709953785,0.0659967511892,-0.231267869473,0.647958338261
1555298019608807059,20448,1555298019608807059,world,-2.89863491058,-0.823048353195,0.797891139984,-0.722562432289,0.0653947293758,-0.23051418364,0.648452222347
1555298019608845919,20449,1555298019608845919,world,-2.89865589142,-0.822996377945,0.797913074493,-0.722730219364,0.0654025748372,-0.230581790209,0.64824038744
1555298019618056020,20450,1555298019618056020,world,-2.89847755432,-0.823174953461,0.797832489014,-0.72279137373,0.0669518858194,-0.232734397054,0.647243976593
1555298019628326448,20451,1555298019628326448,world,-2.89862823486,-0.823062181473,0.797900915146,-0.722824037075,0.0657841414213,-0.231477797031,0.647777736187
1555298019638583312,20452,1555298019638583312,world,-2.89851474762,-0.82315826416,0.797847509384,-0.722764015198,0.0666937157512,-0.232548967004,0.647367835045
1555298019649055125,20453,1555298019649055125,world,-2.89867019653,-0.823048353195,0.797897815704,-0.722717046738,0.0656047537923,-0.230908066034,0.648118495941
1555298019649096387,20454,1555298019649096387,world,-2.89853000641,-0.823148488998,0.797822952271,-0.722714185715,0.066577680409,-0.231965094805,0.647644758224
1555298019658558147,20455,1555298019658558147,world,-2.898645401,-0.823064565659,0.797868490219,-0.722670197487,0.0655738413334,-0.230855479836,0.648192584515
1555298019668955009,20456,1555298019668955009,world,-2.89868545532,-0.82301902771,0.797932386398,-0.722713530064,0.0653370842338,-0.230678185821,0.648231387138
1555298019678292930,20457,1555298019678292930,world,-2.89852523804,-0.823154211044,0.797861814499,-0.722741186619,0.0666379258037,-0.232479318976,0.64742410183
1555298019688681174,20458,1555298019688681174,world,-2.8985080719,-0.823121070862,0.797835350037,-0.722745120525,0.0667874962091,-0.232669219375,0.647336006165
1555298019688719404,20459,1555298019688719404,world,-2.898645401,-0.822988271713,0.79784989357,-0.722673594952,0.0657667443156,-0.231154173613,0.648062884808
1555298019699092568,20460,1555298019699092568,world,-2.89867591858,-0.823004007339,0.797864198685,-0.722595572472,0.0653578415513,-0.230754896998,0.648333489895
1555298019708489161,20461,1555298019708489161,world,-2.89853668213,-0.82307767868,0.79790019989,-0.722704231739,0.0664224773645,-0.232020914555,0.647651970387
1555298019718893768,20462,1555298019718893768,world,-2.89866447449,-0.822993278503,0.797951221466,-0.722708404064,0.0657396242023,-0.231170862913,0.648020923138
1555298019728235646,20463,1555298019728235646,world,-2.89869785309,-0.822907924652,0.797946214676,-0.722750127316,0.0652936026454,-0.230858176947,0.648130834103
1555298019738596203,20464,1555298019738596203,world,-2.89852714539,-0.823086738586,0.797804117203,-0.722708165646,0.066359333694,-0.232091397047,0.647628724575
1555298019738671803,20465,1555298019738671803,world,-2.89861774445,-0.82301568985,0.797844171524,-0.722694396973,0.0658022761345,-0.231352686882,0.647965192795
1555298019748948399,20466,1555298019748948399,world,-2.8986530304,-0.823000192642,0.797915458679,-0.72282230854,0.0655513703823,-0.230895891786,0.648010909557
1555298019758395623,20467,1555298019758395623,world,-2.89852142334,-0.823138237,0.797918558121,-0.72283244133,0.0666941776872,-0.232174187899,0.647425889969
1555298019768773913,20468,1555298019768773913,world,-2.898645401,-0.823007583618,0.797949552536,-0.722739160061,0.0656899139285,-0.230909436941,0.648084819317
1555298019778086319,20469,1555298019778086319,world,-2.89866447449,-0.823041677475,0.797895908356,-0.722568809986,0.0654387995601,-0.230610713363,0.648406386375
1555298019788439865,20470,1555298019788439865,world,-2.8985042572,-0.823157310486,0.797827243805,-0.722640812397,0.0665246173739,-0.232215389609,0.647642493248
1555298019788481488,20471,1555298019788481488,world,-2.89862918854,-0.823063611984,0.797901153564,-0.722653210163,0.0655872151256,-0.230994805694,0.64816057682
1555298019798803479,20472,1555298019798803479,world,-2.89868450165,-0.823001384735,0.797971487045,-0.722733616829,0.0654503852129,-0.230762809515,0.648167312145
1555298019808083830,20473,1555298019808083830,world,-2.898686409,-0.822992324829,0.797962188721,-0.722747504711,0.0654180496931,-0.230711653829,0.648173332214
1555298019818489700,20474,1555298019818489700,world,-2.89867782593,-0.823035240173,0.797890424728,-0.722652196884,0.0653876960278,-0.230730190873,0.648275971413
1555298019828949961,20475,1555298019828949961,world,-2.89849376678,-0.823176145554,0.797786235809,-0.72273516655,0.0667118355632,-0.232284799218,0.647493004799
1555298019838393242,20476,1555298019838393242,world,-2.898645401,-0.823047637939,0.797868013382,-0.722765028477,0.0658145695925,-0.231165230274,0.647951900959
1555298019838434055,20477,1555298019838434055,world,-2.89867687225,-0.823023557663,0.797910690308,-0.722701966763,0.0653981715441,-0.230653479695,0.648246765137
1555298019848862749,20478,1555298019848862749,world,-2.89869213104,-0.822978973389,0.797924518585,-0.722672581673,0.0654130280018,-0.230706468225,0.648259341717
1555298019858195019,20479,1555298019858195019,world,-2.89868354797,-0.823029279709,0.797908782959,-0.722673594952,0.065421923995,-0.230917289853,0.648182153702
1555298019868520669,20480,1555298019868520669,world,-2.89867210388,-0.823028087616,0.797877550125,-0.722603797913,0.0653212442994,-0.230759292841,0.648326396942
1555298019878821019,20481,1555298019878821019,world,-2.89863204956,-0.823041915894,0.797837018967,-0.722578287125,0.0656869485974,-0.231076151133,0.648205041885
1555298019888133953,20482,1555298019888133953,world,-2.8986530304,-0.822998285294,0.797890424728,-0.722735524178,0.0656728744507,-0.231172695756,0.647996604443
1555298019888202296,20483,1555298019888202296,world,-2.89865970612,-0.822964429855,0.797938108444,-0.722720563412,0.0655250102282,-0.230929076672,0.648115336895
1555298019898685971,20484,1555298019898685971,world,-2.89850330353,-0.82312297821,0.79788184166,-0.72271168232,0.0666224434972,-0.232506200671,0.647448956966
1555298019909122308,20485,1555298019909122308,world,-2.89859390259,-0.823050022125,0.797903776169,-0.722658813,0.0657876953483,-0.231229156256,0.648050487041
1555298019918444385,20486,1555298019918444385,world,-2.89865779877,-0.823019504547,0.797834157944,-0.722645998001,0.0655812099576,-0.230731517076,0.6482629776
1555298019928830423,20487,1555298019928830423,world,-2.89865779877,-0.823007583618,0.797823190689,-0.722646951675,0.0654259100556,-0.230647236109,0.648307561874
1555298019928868926,20488,1555298019928868926,world,-2.89866352081,-0.823001146317,0.797922611237,-0.722721159458,0.0654169544578,-0.230803951621,0.648170113564
1555298019938253079,20489,1555298019938253079,world,-2.89867973328,-0.822989463806,0.797953605652,-0.722773551941,0.0654033496976,-0.23073425889,0.648137807846
1555298019948633086,20490,1555298019948633086,world,-2.89866924286,-0.82302069664,0.797892570496,-0.722640812397,0.0653512701392,-0.23077224195,0.648277401924
1555298019959022206,20491,1555298019959022206,world,-2.89865589142,-0.82301568985,0.797822952271,-0.722578346729,0.0654278621078,-0.230764254928,0.648342251778
1555298019968347375,20492,1555298019968347375,world,-2.89865207672,-0.823016405106,0.797852754593,-0.722560465336,0.0655738934875,-0.230962142348,0.648276925087
1555298019978651074,20493,1555298019978651074,world,-2.89852046967,-0.823076486588,0.797869205475,-0.722737431526,0.0665994361043,-0.232553884387,0.647405564785
1555298019989036452,20494,1555298019989036452,world,-2.89861679077,-0.82301902771,0.797919988632,-0.722771584988,0.0659795850515,-0.231449067593,0.647826611996
1555298019989077284,20495,1555298019989077284,world,-2.89865970612,-0.822975158691,0.797912120819,-0.722748875618,0.0654981732368,-0.230800643563,0.648132026196
1555298019998544128,20496,1555298019998544128,world,-2.89864635468,-0.822996854782,0.797849655151,-0.722688019276,0.0655989199877,-0.230657279491,0.648240625858
1555298020008945934,20497,1555298020008945934,world,-2.898645401,-0.82300901413,0.797850370407,-0.722611069679,0.0655134320259,-0.230732932687,0.648308217525
1555298020018394059,20498,1555298020018394059,world,-2.89867019653,-0.823008775711,0.797906160355,-0.722701787949,0.0655699372292,-0.230797052383,0.648178577423
1555298020028804737,20499,1555298020028804737,world,-2.89848804474,-0.823154211044,0.79786157608,-0.722728967667,0.0667615607381,-0.232213646173,0.647520303726
1555298020038118164,20500,1555298020038118164,world,-2.89860343933,-0.823040485382,0.797914028168,-0.722711145878,0.0658964291215,-0.231189876795,0.647995054722
1555298020038158815,20501,1555298020038158815,world,-2.89866161346,-0.82302236557,0.797882556915,-0.722674608231,0.0653908252716,-0.230696797371,0.648262739182
1555298020048692074,20502,1555298020048692074,world,-2.89866542816,-0.823033809662,0.797867536545,-0.722608804703,0.0652984157205,-0.230415731668,0.648445367813
1555298020059142421,20503,1555298020059142421,world,-2.8986492157,-0.823086261749,0.79788184166,-0.722664296627,0.0656128153205,-0.23072835803,0.648240506649
1555298020068589844,20504,1555298020068589844,world,-2.89866828918,-0.823021888733,0.797916889191,-0.722787618637,0.065572924912,-0.230938464403,0.648032188416
1555298020078973665,20505,1555298020078973665,world,-2.89866065979,-0.823045253754,0.797910451889,-0.722755968571,0.0656971260905,-0.230842098594,0.648089289665
1555298020088421422,20506,1555298020088421422,world,-2.89865875244,-0.823047876358,0.797875642776,-0.722630143166,0.0656183362007,-0.231008902192,0.648178040981
1555298020088462758,20507,1555298020088462758,world,-2.89849185944,-0.823195695877,0.797785997391,-0.722603499889,0.0667691081762,-0.232504114509,0.647555351257
1555298020098912582,20508,1555298020098912582,world,-2.89860153198,-0.823085069656,0.797850131989,-0.72261929512,0.0660007596016,-0.231364607811,0.648024559021
1555298020108239747,20509,1555298020108239747,world,-2.89854240417,-0.823085069656,0.797866344452,-0.722791612148,0.0666808634996,-0.232303097844,0.647426605225
1555298020118579678,20510,1555298020118579678,world,-2.89862442017,-0.823024272919,0.797896385193,-0.722778081894,0.0659499540925,-0.231406003237,0.647837877274
1555298020128987426,20511,1555298020128987426,world,-2.89865875244,-0.822967529297,0.797876358032,-0.722702562809,0.06544174999,-0.230644211173,0.648245215416
1555298020129071271,20512,1555298020129071271,world,-2.8986749649,-0.823000669479,0.797860622406,-0.722650229931,0.0653941482306,-0.2304764539,0.648367881775
1555298020138487710,20513,1555298020138487710,world,-2.89869785309,-0.8229804039,0.797882080078,-0.722683787346,0.0652396455407,-0.230454847217,0.648353755474
1555298020148852151,20514,1555298020148852151,world,-2.89865970612,-0.8230240345,0.797905683517,-0.722735285759,0.065407961607,-0.230678334832,0.648199975491
