%time,field.header.seq,field.header.stamp,field.header.frame_id,field.pose.position.x,field.pose.position.y,field.pose.position.z,field.pose.orientation.x,field.pose.orientation.y,field.pose.orientation.z,field.pose.orientation.w
1555298973928658033,33958,1555298973928658033,world,-2.8941450119,-0.820413351059,0.79808139801,0.717245638371,-0.114840440452,0.284299433231,-0.62573492527
1555298973928715191,33959,1555298973928715191,world,-2.89419841766,-0.820378780365,0.798089742661,0.717130482197,-0.114520400763,0.283919155598,-0.62609821558
1555298973928738691,33960,1555298973928738691,world,-2.89413452148,-0.820409297943,0.798057794571,0.71736818552,-0.114849679172,0.283719956875,-0.62585580349
1555298973939019851,33961,1555298973939019851,world,-2.89418888092,-0.820402383804,0.798143863678,0.717203676701,-0.114675313234,0.28384333849,-0.626020252705
1555298973948378132,33962,1555298973948378132,world,-2.89419841766,-0.820401191711,0.79816699028,0.717208683491,-0.114385694265,0.283947527409,-0.626020252705
1555298973958853686,33963,1555298973958853686,world,-2.89420032501,-0.820394277573,0.798104047775,0.717175602913,-0.114423401654,0.283943265676,-0.626053273678
1555298973968163342,33964,1555298973968163342,world,-2.89418697357,-0.820381641388,0.798082590103,0.71722304821,-0.114591784775,0.284033745527,-0.625927150249
1555298973968206850,33965,1555298973968206850,world,-2.89416122437,-0.820335388184,0.798073530197,0.717405200005,-0.114550121129,0.283326119184,-0.626046597958
1555298973978608854,33966,1555298973978608854,world,-2.89420127869,-0.820322036743,0.798130750656,0.717209041119,-0.114430531859,0.283765643835,-0.626094281673
1555298973998482424,33967,1555298973998482424,world,-2.89412498474,-0.820295333862,0.798119783401,0.717418730259,-0.114367060363,0.283544719219,-0.625965714455
1555298973998530491,33968,1555298973998530491,world,-2.89416790009,-0.820317268372,0.798085689545,0.717167317867,-0.114535667002,0.283947378397,-0.626040220261
1555298974008911932,33969,1555298974008911932,world,-2.89419269562,-0.820301294327,0.798068523407,0.717116236687,-0.114511914551,0.283951491117,-0.626101434231
1555298974008980923,33970,1555298974008980923,world,-2.8941450119,-0.820323944092,0.798058271408,0.717428028584,-0.114685982466,0.283764302731,-0.625797092915
1555298974028647579,33971,1555298974028647579,world,-2.89418506622,-0.820344686508,0.7981133461,0.717219352722,-0.114502213895,0.284009605646,-0.625958681107
1555298974028714494,33972,1555298974028714494,world,-2.89421749115,-0.82034444809,0.798139810562,0.717104434967,-0.114266298711,0.284001499414,-0.626137018204
1555298974039027641,33973,1555298974039027641,world,-2.89420223236,-0.820370912552,0.798120737076,0.717131078243,-0.114531084895,0.284047693014,-0.626037299633
1555298974048434201,33974,1555298974048434201,world,-2.89420032501,-0.820369243622,0.798087596893,0.71721470356,-0.114519126713,0.283947199583,-0.62598913908
1555298974058784614,33975,1555298974058784614,world,-2.89415168762,-0.820389270782,0.798088312149,0.71739846468,-0.114607602358,0.283532202244,-0.625950396061
1555298974068104002,33976,1555298974068104002,world,-2.89418697357,-0.820398330688,0.798139810562,0.717212855816,-0.114582523704,0.283809632063,-0.626042068005
1555298974068153029,33977,1555298974068153029,world,-2.89418983459,-0.820413351059,0.798128843307,0.717231094837,-0.114614419639,0.283948600292,-0.625952363014
1555298974078546922,33978,1555298974078546922,world,-2.89418125153,-0.820375919342,0.798087120056,0.717219591141,-0.114509724081,0.284078985453,-0.625925540924
1555298974098284834,33979,1555298974098284834,world,-2.8942117691,-0.820370435715,0.79808807373,0.717135071754,-0.114443428814,0.284076064825,-0.626035869122
1555298974098355429,33980,1555298974098355429,world,-2.89422607422,-0.820337772369,0.798099040985,0.717132091522,-0.114266060293,0.283803135157,-0.626195430756
1555298974108790643,33981,1555298974108790643,world,-2.89424800873,-0.820333719254,0.79810667038,0.717139065266,-0.114385098219,0.283716619015,-0.626204788685
1555298974118000721,33982,1555298974118000721,world,-2.89422035217,-0.820314884186,0.798102378845,0.717179238796,-0.114341244102,0.283653825521,-0.626195371151
1555298974128279062,33983,1555298974128279062,world,-2.89419078827,-0.820329666138,0.798083782196,0.717173576355,-0.114591315389,0.284049779177,-0.6259765625
1555298974128354022,33984,1555298974128354022,world,-2.8941860199,-0.820347547531,0.798110485077,0.717220664024,-0.114607401192,0.284113973379,-0.625890433788
1555298974138707999,33985,1555298974138707999,world,-2.89415645599,-0.820307731628,0.798094987869,0.71748906374,-0.114538148046,0.283349305391,-0.625942289829
1555298974158348340,33986,1555298974158348340,world,-2.89419269562,-0.820327758789,0.798096418381,0.717277944088,-0.114496439695,0.283713161945,-0.626027047634
1555298974158386795,33987,1555298974158386795,world,-2.89420700073,-0.820343971252,0.798110723495,0.717237114906,-0.11436612159,0.283732622862,-0.626088798046
1555298974168807653,33988,1555298974168807653,world,-2.89419555664,-0.820366859436,0.798104524612,0.717214584351,-0.114478252828,0.283858448267,-0.626037120819
1555298974168847547,33989,1555298974168847547,world,-2.89414596558,-0.820385694504,0.798094749451,0.71743875742,-0.114580109715,0.283553391695,-0.625899851322
1555298974178321487,33990,1555298974178321487,world,-2.89419651031,-0.820385456085,0.798120737076,0.717198610306,-0.114387951791,0.28389659524,-0.626054525375
1555298974188720781,33991,1555298974188720781,world,-2.89416503906,-0.820392608643,0.798072338104,0.717389762402,-0.114258751273,0.283448189497,-0.626062333584
1555298974199164283,33992,1555298974199164283,world,-2.89417934418,-0.820409536362,0.798085212708,0.717264533043,-0.114365287125,0.283966034651,-0.625951707363
1555298974208625256,33993,1555298974208625256,world,-2.89415550232,-0.82038974762,0.798092842102,0.717376112938,-0.114591009915,0.283652156591,-0.625924766064
1555298974219080028,33994,1555298974219080028,world,-2.89423656464,-0.820378303528,0.798137903214,0.717223703861,-0.114438205957,0.283777058125,-0.626070797443
1555298974219121948,33995,1555298974219121948,world,-2.89422035217,-0.820408821106,0.798111915588,0.717205166817,-0.114596970379,0.284133404493,-0.625901401043
1555298974228584964,33996,1555298974228584964,world,-2.89420318604,-0.820390462875,0.798080682755,0.71719121933,-0.114660695195,0.284251362085,-0.625852108002
1555298974239038189,33997,1555298974239038189,world,-2.89422512054,-0.820372581482,0.798086643219,0.717113494873,-0.114486776292,0.28414490819,-0.626021385193
1555298974248493036,33998,1555298974248493036,world,-2.89424133301,-0.820330858231,0.798117637634,0.717165291309,-0.114338368177,0.283912241459,-0.626094639301
1555298974258945584,33999,1555298974258945584,world,-2.89416408539,-0.82029747963,0.798080205917,0.717445611954,-0.114415727556,0.283479720354,-0.625955343246
1555298974258988137,34000,1555298974258988137,world,-2.89417648315,-0.820291280746,0.798085927963,0.717493593693,-0.11458324641,0.283217608929,-0.62598836422
1555298974278755872,34001,1555298974278755872,world,-2.89417266846,-0.820282459259,0.798076629639,0.717543184757,-0.11425267905,0.283080518246,-0.626053929329
1555298974278823044,34002,1555298974278823044,world,-2.89415740967,-0.820318937302,0.798088312149,0.717480182648,-0.114580415189,0.283360630274,-0.62593960762
1555298974288078713,34003,1555298974288078713,world,-2.89419651031,-0.820363521576,0.798118591309,0.717213749886,-0.114566154778,0.283881396055,-0.626011550426
1555298974298531541,34004,1555298974298531541,world,-2.89415836334,-0.82035946846,0.798114299774,0.717371404171,-0.114425048232,0.283568352461,-0.625998675823
1555298974308870636,34005,1555298974308870636,world,-2.89419746399,-0.820371389389,0.798119068146,0.717116773129,-0.114294923842,0.283808976412,-0.626204967499
1555298974318470828,34006,1555298974318470828,world,-2.89422702789,-0.820368528366,0.798100948334,0.717019617558,-0.114164538682,0.28383859992,-0.626326680183
1555298974318513676,34007,1555298974318513676,world,-2.89414978027,-0.820431470871,0.798089265823,0.717188417912,-0.114781312644,0.284465968609,-0.625735640526
1555298974338146283,34008,1555298974338146283,world,-2.89420127869,-0.820378065109,0.798108816147,0.717163145542,-0.114326767623,0.283822715282,-0.626139760017
1555298974338200129,34009,1555298974338200129,world,-2.89417552948,-0.820420742035,0.798091411591,0.717283189297,-0.114716753364,0.284203261137,-0.625758349895
1555298974348618981,34010,1555298974348618981,world,-2.8942155838,-0.820355892181,0.798101425171,0.71728348732,-0.114327073097,0.283794522285,-0.626014709473
1555298974359059365,34011,1555298974359059365,world,-2.89418888092,-0.820343255997,0.798073291779,0.717432141304,-0.114547021687,0.28346607089,-0.625952899456
1555298974368389231,34012,1555298974368389231,world,-2.89414024353,-0.82031917572,0.798067331314,0.717538654804,-0.114552251995,0.283354699612,-0.625880360603
1555298974368417166,34013,1555298974368417166,world,-2.89419460297,-0.820382118225,0.798079252243,0.717367231846,-0.114628307521,0.283954441547,-0.625791192055
1555298974378846152,34014,1555298974378846152,world,-2.89419460297,-0.820308446884,0.798114299774,0.717448830605,-0.114279948175,0.28322327137,-0.626092612743
1555298974388162030,34015,1555298974388162030,world,-2.89423751831,-0.820319652557,0.798127651215,0.717161178589,-0.114371560514,0.283662587404,-0.626206636429
1555298974398615755,34016,1555298974398615755,world,-2.89419364929,-0.820361375809,0.798081159592,0.717174768448,-0.11482860148,0.284282952547,-0.625825881958
1555298974409091539,34017,1555298974409091539,world,-2.89419746399,-0.820377826691,0.798065423965,0.717162072659,-0.114786431193,0.284267038107,-0.625855386257
1555298974418540299,34018,1555298974418540299,world,-2.89423274994,-0.820347070694,0.798100471497,0.717207789421,-0.1143585518,0.283828109503,-0.626080453396
1555298974418583223,34019,1555298974418583223,world,-2.89425086975,-0.82034778595,0.798125982285,0.717103123665,-0.114062137902,0.2837061584,-0.62630957365
1555298974428914765,34020,1555298974428914765,world,-2.89415931702,-0.820360422134,0.798105239868,0.717438459396,-0.114418230951,0.283583790064,-0.625916004181
1555298974438277953,34021,1555298974438277953,world,-2.89419651031,-0.820363998413,0.798117876053,0.717269599438,-0.114257499576,0.283541172743,-0.626158177853
1555298974448627830,34022,1555298974448627830,world,-2.89418315887,-0.820411682129,0.798103809357,0.717186450958,-0.114425063133,0.283888697624,-0.626065254211
1555298974458954668,34023,1555298974458954668,world,-2.89418029785,-0.82040810585,0.798061847687,0.717205226421,-0.114633247256,0.284001678228,-0.625954568386
1555298974468295207,34024,1555298974468295207,world,-2.89412498474,-0.820405483246,0.79806804657,0.717383623123,-0.114784672856,0.283750087023,-0.625836372375
1555298974468343794,34025,1555298974468343794,world,-2.89420032501,-0.82034277916,0.798157691956,0.717252910137,-0.11416117847,0.283463567495,-0.626229941845
1555298974478731698,34026,1555298974478731698,world,-2.89419841766,-0.820392847061,0.798139095306,0.717154920101,-0.114495106041,0.283832371235,-0.626114249229
1555298974489173599,34027,1555298974489173599,world,-2.89416980743,-0.820303678513,0.798097848892,0.717419624329,-0.11417901516,0.283195376396,-0.626157045364
1555298974498649402,34028,1555298974498649402,world,-2.89413166046,-0.820329666138,0.798045158386,0.717448949814,-0.1144977808,0.2835470438,-0.625905990601
1555298974508931902,34029,1555298974508931902,world,-2.89420413971,-0.820313453674,0.798073291779,0.717231452465,-0.114496991038,0.283677786589,-0.626096189022
1555298974518226574,34030,1555298974518226574,world,-2.89422416687,-0.820325374603,0.798109292984,0.717185556889,-0.114604502916,0.283897459507,-0.626029551029
1555298974518280345,34031,1555298974518280345,world,-2.89425754547,-0.820306062698,0.798141956329,0.717101633549,-0.11425293982,0.283672243357,-0.626292049885
1555298974538992004,34032,1555298974538992004,world,-2.89419841766,-0.820357322693,0.798099517822,0.717129170895,-0.114828273654,0.284049719572,-0.62598413229
1555298974539038097,34033,1555298974539038097,world,-2.89413738251,-0.820363759995,0.798067331314,0.717435359955,-0.114872947335,0.283937841654,-0.625675678253
1555298974548335645,34034,1555298974548335645,world,-2.8941488266,-0.820394992828,0.798033952713,0.717352390289,-0.114889040589,0.284276515245,-0.62561416626
1555298974558590598,34035,1555298974558590598,world,-2.89420318604,-0.820373058319,0.798091888428,0.71722394228,-0.114430636168,0.283834040165,-0.626046001911
1555298974568948633,34036,1555298974568948633,world,-2.8941783905,-0.820370674133,0.79811501503,0.71741604805,-0.114364348352,0.283368974924,-0.626048803329
1555298974568988321,34037,1555298974568988321,world,-2.8941450119,-0.820380449295,0.798129320145,0.717518985271,-0.114328190684,0.283245533705,-0.625993430614
1555298974578241002,34038,1555298974578241002,world,-2.89415550232,-0.820379018784,0.798116445541,0.717478275299,-0.114274404943,0.28318336606,-0.626077890396
1555298974588461033,34039,1555298974588461033,world,-2.89421272278,-0.820392847061,0.798072576523,0.717157065868,-0.114240691066,0.283634752035,-0.626247823238
1555298974598764842,34040,1555298974598764842,world,-2.89420700073,-0.820419788361,0.798043727875,0.717211484909,-0.114425800741,0.284051090479,-0.625962734222
1555298974608051787,34041,1555298974608051787,world,-2.8942489624,-0.820400953293,0.798114538193,0.717225968838,-0.114272162318,0.283847659826,-0.626066625118
1555298974618461128,34042,1555298974618461128,world,-2.89420127869,-0.820359706879,0.798151016235,0.717399895191,-0.114515654743,0.283474266529,-0.625991940498
1555298974618515357,34043,1555298974618515357,world,-2.89423179626,-0.8203561306,0.798117160797,0.717203080654,-0.11443631351,0.283809512854,-0.626080214977
1555298974628946726,34044,1555298974628946726,world,-2.8941783905,-0.82036113739,0.798046112061,0.717418253422,-0.114640921354,0.283720314503,-0.62583643198
1555298974638350239,34045,1555298974638350239,world,-2.89414691925,-0.820347309113,0.798017263412,0.717495918274,-0.114778280258,0.283572435379,-0.625789403915
1555298974648798538,34046,1555298974648798538,world,-2.89411640167,-0.820343255997,0.798012495041,0.717562735081,-0.115015357733,0.283945381641,-0.625500023365
1555298974658171322,34047,1555298974658171322,world,-2.89418792725,-0.820318460464,0.798098087311,0.717223882675,-0.114793732762,0.284193903208,-0.625816345215
1555298974668575940,34048,1555298974668575940,world,-2.89416217804,-0.820290803909,0.798085927963,0.717395365238,-0.114683263004,0.283805668354,-0.625816226006
1555298974668631315,34049,1555298974668631315,world,-2.89420318604,-0.820292949677,0.798065423965,0.717152237892,-0.114281661808,0.284015506506,-0.62607306242
1555298974678962724,34050,1555298974678962724,world,-2.89421367645,-0.820333003998,0.798039674759,0.717166781425,-0.114581130445,0.284078240395,-0.625973165035
1555298974688364323,34051,1555298974688364323,world,-2.89420223236,-0.820284128189,0.798070192337,0.717317402363,-0.114197105169,0.283337891102,-0.626206457615
1555298974698755601,34052,1555298974698755601,world,-2.89420509338,-0.820337057114,0.798124074936,0.717261612415,-0.114343062043,0.283648639917,-0.626102983952
1555298974708024609,34053,1555298974708024609,world,-2.89418983459,-0.820307254791,0.798162221909,0.717455029488,-0.114136762917,0.28302308917,-0.626202046871
1555298974718353866,34054,1555298974718353866,world,-2.8942117691,-0.820330858231,0.798144340515,0.717231214046,-0.11426769197,0.28347954154,-0.626228272915
1555298974718390950,34055,1555298974718390950,world,-2.89416694641,-0.820323228836,0.798103570938,0.717348754406,-0.114327356219,0.28317591548,-0.626219928265
1555298974728779400,34056,1555298974728779400,world,-2.89415073395,-0.820366382599,0.7980427742,0.71724832058,-0.114766724408,0.283943742514,-0.62590688467
1555298974748390494,34057,1555298974748390494,world,-2.89412879944,-0.820344209671,0.798053503036,0.717506408691,-0.114669933915,0.283399015665,-0.625875711441
1555298974748441509,34058,1555298974748441509,world,-2.89421749115,-0.820353507996,0.798153877258,0.717272400856,-0.114348895848,0.283727496862,-0.626053750515
1555298974758819174,34059,1555298974758819174,world,-2.89417934418,-0.820344924927,0.798139095306,0.717415988445,-0.114540316164,0.283575206995,-0.625923156738
1555298974768089108,34060,1555298974768089108,world,-2.89414691925,-0.820331335068,0.798053264618,0.717560350895,-0.11468475312,0.283621609211,-0.625710368156
1555298974768140356,34061,1555298974768140356,world,-2.89417362213,-0.820308923721,0.79802441597,0.717467427254,-0.114386208355,0.283421248198,-0.625962197781
1555298974778518830,34062,1555298974778518830,world,-2.89419269562,-0.820351362228,0.798031330109,0.717279076576,-0.11455155164,0.28411719203,-0.625832259655
1555298974788911730,34063,1555298974788911730,world,-2.89427566528,-0.820320606232,0.79813170433,0.717174768448,-0.114115916193,0.283918887377,-0.626121520996
1555298974798316814,34064,1555298974798316814,world,-2.89424610138,-0.820300340652,0.798152208328,0.717351436615,-0.113973461092,0.283316165209,-0.626218080521
1555298974808711880,34065,1555298974808711880,world,-2.89426422119,-0.820340633392,0.798104763031,0.717169284821,-0.114173613489,0.283806234598,-0.626168251038
1555298974819112397,34066,1555298974819112397,world,-2.89425182343,-0.820334196091,0.798055410385,0.717134058475,-0.114279121161,0.283956468105,-0.626121103764
1555298974819150603,34067,1555298974819150603,world,-2.89425563812,-0.820354223251,0.798060894012,0.717095792294,-0.114384576678,0.283955544233,-0.626146256924
1555298974838877435,34068,1555298974838877435,world,-2.89418792725,-0.82034277916,0.798075675964,0.717415750027,-0.114520162344,0.283388316631,-0.626012027264
1555298974838915895,34069,1555298974838915895,world,-2.89421081543,-0.820363759995,0.798096179962,0.71731621027,-0.114433258772,0.283608257771,-0.626042187214
1555298974848287945,34070,1555298974848287945,world,-2.89414978027,-0.82036948204,0.7980697155,0.717501401901,-0.11463303864,0.283379226923,-0.625897169113
1555298974858706849,34071,1555298974858706849,world,-2.89413166046,-0.820359945297,0.798038244247,0.717585265636,-0.114827558398,0.283384293318,-0.625763118267
1555298974869100650,34072,1555298974869100650,world,-2.89414691925,-0.820359230042,0.798019170761,0.717584908009,-0.114769332111,0.283386647701,-0.625773072243
1555298974869142513,34073,1555298974869142513,world,-2.89418029785,-0.820335626602,0.798035383224,0.717469274998,-0.11452447623,0.283411920071,-0.625939011574
1555298974878522764,34074,1555298974878522764,world,-2.89420986176,-0.820332527161,0.798075914383,0.717390477657,-0.114332959056,0.283261626959,-0.626132428646
1555298974888914892,34075,1555298974888914892,world,-2.89423561096,-0.820286512375,0.798125267029,0.717477142811,-0.114148728549,0.283025801182,-0.626173377037
1555298974898307150,34076,1555298974898307150,world,-2.89424133301,-0.820314884186,0.798110246658,0.717385649681,-0.114290483296,0.283184498549,-0.626180589199
1555298974908702727,34077,1555298974908702727,world,-2.89420795441,-0.820312738419,0.798052787781,0.717432081699,-0.114440530539,0.28338354826,-0.626009762287
1555298974919097131,34078,1555298974919097131,world,-2.89419937134,-0.820304632187,0.798027276993,0.717383384705,-0.114626482129,0.283485680819,-0.625985383987
1555298974919135757,34079,1555298974919135757,world,-2.89417076111,-0.820334196091,0.798023939133,0.717490315437,-0.114614851773,0.283768981695,-0.625736653805
1555298974928515055,34080,1555298974928515055,world,-2.89420604706,-0.820303678513,0.798090457916,0.717436552048,-0.114238165319,0.283486992121,-0.625994920731
1555298974958403846,34081,1555298974958403846,world,-2.89419174194,-0.820343971252,0.79807472229,0.717480957508,-0.11463021487,0.283724486828,-0.625764727592
1555298974968744943,34082,1555298974968744943,world,-2.89420127869,-0.820337533951,0.798069953918,0.717480123043,-0.114547349513,0.283634930849,-0.625821352005
1555298974968829332,34085,1555298974968829332,world,-2.89428520203,-0.820329189301,0.798094272614,0.717110216618,-0.114205986261,0.283676087856,-0.626288950443
1555298974978024795,34086,1555298974978024795,world,-2.89421653748,-0.820320367813,0.798123598099,0.717382133007,-0.114345058799,0.283375710249,-0.62608808279
1555298974988322650,34087,1555298974988322650,world,-2.89417076111,-0.820334434509,0.798104763031,0.717401742935,-0.114512704313,0.283381611109,-0.626032352448
1555298974998716418,34088,1555298974998716418,world,-2.89414310455,-0.820348739624,0.798040151596,0.717523992062,-0.114563092589,0.283495277166,-0.625831544399
1555298975009109822,34089,1555298975009109822,world,-2.89421463013,-0.820348978043,0.798048496246,0.717292129993,-0.114548318088,0.283868610859,-0.625930905342
1555298975018571561,34090,1555298975018571561,world,-2.89426803589,-0.82032752037,0.798082590103,0.717155754566,-0.114375025034,0.283687055111,-0.626200973988
1555298975018613829,34091,1555298975018613829,world,-2.89425373077,-0.820342302322,0.798130512238,0.7170753479,-0.114529751241,0.283998399973,-0.626123666763
1555298975028915857,34092,1555298975028915857,world,-2.89422130585,-0.820318937302,0.798101425171,0.717317402363,-0.114593714476,0.283522069454,-0.626050531864
1555298975038251789,34093,1555298975038251789,world,-2.89422225952,-0.820269346237,0.798060894012,0.71745467186,-0.11429836601,0.282980233431,-0.626192331314
1555298975048610652,34094,1555298975048610652,world,-2.89422512054,-0.820261001587,0.798049688339,0.717558443546,-0.113942474127,0.282937586308,-0.626157581806
1555298975059001659,34095,1555298975059001659,world,-2.89424419403,-0.82030582428,0.798067569733,0.717315495014,-0.114255264401,0.283553034067,-0.626100599766
1555298975068408252,34096,1555298975068408252,world,-2.89427566528,-0.820283174515,0.798100709915,0.717242717743,-0.114023290575,0.283561140299,-0.626222610474
1555298975068454580,34097,1555298975068454580,world,-2.89416885376,-0.820325136185,0.798061847687,0.717422902584,-0.11446056515,0.28370693326,-0.625870227814
1555298975078808173,34098,1555298975078808173,world,-2.89416885376,-0.820291280746,0.798089981079,0.717497587204,-0.114280544221,0.283437162638,-0.625939846039
1555298975088130213,34099,1555298975088130213,world,-2.89423847198,-0.820311307907,0.798111915588,0.717229247093,-0.114277727902,0.283665388823,-0.626144349575
1555298975098529547,34100,1555298975098529547,world,-2.89417457581,-0.820333719254,0.798046112061,0.717427313328,-0.114454656839,0.283542454243,-0.625940859318
1555298975108965836,34101,1555298975108965836,world,-2.89423465729,-0.820334672928,0.798078536987,0.7172524333,-0.114335462451,0.283706396818,-0.626088798046
1555298975118358239,34102,1555298975118358239,world,-2.89423656464,-0.820373296738,0.798106193542,0.717160284519,-0.114521116018,0.283842146397,-0.626098692417
1555298975128754986,34103,1555298975128754986,world,-2.89421653748,-0.820316791534,0.798140525818,0.71747636795,-0.114256583154,0.283154278994,-0.626096487045
1555298975128796628,34104,1555298975128796628,world,-2.89424133301,-0.820358037949,0.7981133461,0.717256486416,-0.114312931895,0.28364238143,-0.626117169857
1555298975138127219,34105,1555298975138127219,world,-2.89416694641,-0.820343971252,0.798036813736,0.717395484447,-0.114500924945,0.283601015806,-0.625942409039
1555298975178504086,34106,1555298975178504086,world,-2.89418411255,-0.82030582428,0.798061609268,0.717402517796,-0.11448648572,0.283056557178,-0.626183331013
1555298975178574123,34107,1555298975178574123,world,-2.89415550232,-0.820310115814,0.798057556152,0.71750497818,-0.114380024374,0.283197551966,-0.626021623611
1555298975178657679,34109,1555298975178657679,world,-2.89423465729,-0.820307254791,0.798108577728,0.717207968235,-0.114277094603,0.283728420734,-0.62614017725
1555298975178709694,34110,1555298975178709694,world,-2.89420318604,-0.820280790329,0.798072576523,0.717390835285,-0.114333957434,0.283444941044,-0.626048862934
1555298975208758175,34111,1555298975208758175,world,-2.89420890808,-0.820299863815,0.798051595688,0.717274844646,-0.114446148276,0.283756226301,-0.626020371914
1555298975228383947,34112,1555298975228383947,world,-2.89413356781,-0.820294141769,0.798039913177,0.717483699322,-0.114764846861,0.283706337214,-0.62574505806
1555298975228461984,34113,1555298975228461984,world,-2.89419174194,-0.820235729218,0.798104524612,0.717437803745,-0.114155083895,0.283275902271,-0.626104176044
1555298975228489834,34114,1555298975228489834,world,-2.89420795441,-0.820211410522,0.798140048981,0.717460930347,-0.113903015852,0.282993257046,-0.626251280308
1555298975238923649,34115,1555298975238923649,world,-2.89417076111,-0.820216655731,0.798099517822,0.717433571815,-0.11433429271,0.283142417669,-0.626136720181
1555298975238994571,34116,1555298975238994571,world,-2.89410018921,-0.820263147354,0.798038721085,0.71750921011,-0.114898011088,0.283546179533,-0.625764071941
1555298975239023210,34117,1555298975239023210,world,-2.89417743683,-0.820248365402,0.79808473587,0.717178881168,-0.114423468709,0.283655434847,-0.626179993153
1555298975248455110,34118,1555298975248455110,world,-2.89413547516,-0.82025718689,0.798096418381,0.717280387878,-0.114408396184,0.283462435007,-0.626153945923
1555298975258904572,34119,1555298975258904572,world,-2.89417934418,-0.820251226425,0.798149347305,0.717138588428,-0.114178925753,0.283543050289,-0.626321613789
1555298975278558139,34120,1555298975278558139,world,-2.89413547516,-0.820257663727,0.798129081726,0.717408955097,-0.1141885221,0.28319054842,-0.626169741154
1555298975278595448,34121,1555298975278595448,world,-2.89409923553,-0.820310115814,0.798125505447,0.717362880707,-0.114448688924,0.28360465169,-0.625987529755
1555298975288865703,34122,1555298975288865703,world,-2.89416503906,-0.820318698883,0.798119544983,0.717161417007,-0.114381037652,0.283842593431,-0.626122951508
1555298975288903795,34123,1555298975288903795,world,-2.8941860199,-0.820339202881,0.798092842102,0.717078924179,-0.114328585565,0.283832341433,-0.62623167038
1555298975298278411,34124,1555298975298278411,world,-2.89411735535,-0.820322990417,0.798101902008,0.717342853546,-0.114341497421,0.283493518829,-0.626080513
1555298975308675564,34125,1555298975308675564,world,-2.89413261414,-0.82034277916,0.798122406006,0.71745377779,-0.114287786186,0.283263385296,-0.626067280769
1555298975318317234,34126,1555298975318317234,world,-2.89421081543,-0.820317029953,0.798171043396,0.717271924019,-0.113887496293,0.283352702856,-0.626308143139
1555298975318363328,34127,1555298975318363328,world,-2.8941783905,-0.820323944092,0.798122644424,0.717430174351,-0.114317052066,0.283388197422,-0.626032471657
1555298975328880860,34128,1555298975328880860,world,-2.89417171478,-0.820387840271,0.798058271408,0.717282176018,-0.114745222032,0.284198522568,-0.625756442547
1555298975338339848,34129,1555298975338339848,world,-2.89418888092,-0.82036280632,0.798051834106,0.717247307301,-0.114570528269,0.283981144428,-0.62592703104
1555298975348793256,34130,1555298975348793256,world,-2.89418983459,-0.820351839066,0.798089981079,0.717390298843,-0.114413402975,0.28353074193,-0.625996112823
1555298975358060561,34131,1555298975358060561,world,-2.89418315887,-0.820315122604,0.798129320145,0.717467367649,-0.11424087733,0.283317506313,-0.626035809517
1555298975368404609,34132,1555298975368404609,world,-2.89426040649,-0.820287942886,0.798148870468,0.717251896858,-0.113945372403,0.28343591094,-0.62628287077
1555298975368443565,34133,1555298975368443565,world,-2.89417934418,-0.820316314697,0.798025846481,0.717454195023,-0.114420890808,0.283574581146,-0.625901699066
1555298975378795287,34134,1555298975378795287,world,-2.89422607422,-0.820297002792,0.798049688339,0.717192590237,-0.114169344306,0.283701747656,-0.626189649105
1555298975388105295,34135,1555298975388105295,world,-2.89422130585,-0.82029747963,0.798086881638,0.717203438282,-0.114232808352,0.283823668957,-0.626110374928
1555298975398562240,34136,1555298975398562240,world,-2.89417457581,-0.820279359818,0.798097848892,0.717467606068,-0.114405743778,0.283340394497,-0.62599503994
1555298975408934073,34137,1555298975408934073,world,-2.89416694641,-0.820302009583,0.798115730286,0.71734893322,-0.11441309005,0.283818691969,-0.625913083553
1555298975418386750,34138,1555298975418386750,world,-2.89412593842,-0.820306777954,0.798045873642,0.717500150204,-0.114614993334,0.283595860004,-0.625803887844
1555298975428802860,34139,1555298975428802860,world,-2.89419269562,-0.820295810699,0.79805970192,0.717275202274,-0.114385679364,0.283684998751,-0.626063168049
1555298975428845597,34140,1555298975428845597,world,-2.89416885376,-0.820297002792,0.798057556152,0.717461287975,-0.114398166537,0.283458560705,-0.625950276852
1555298975438096905,34141,1555298975438096905,world,-2.89414310455,-0.820298433304,0.798096895218,0.717545509338,-0.114349149168,0.283270508051,-0.625947713852
1555298975448550577,34142,1555298975448550577,world,-2.89415454865,-0.820321559906,0.798094749451,0.717526733875,-0.114482372999,0.283334553242,-0.625915825367
1555298975458991032,34143,1555298975458991032,world,-2.89419841766,-0.820341110229,0.798090457916,0.71746635437,-0.114398322999,0.283214956522,-0.626054763794
1555298975468356416,34144,1555298975468356416,world,-2.89431095123,-0.820327758789,0.798107862473,0.717199206352,-0.11409432441,0.28299793601,-0.626514136791
1555298975478691196,34145,1555298975478691196,world,-2.89430904388,-0.820384740829,0.798100709915,0.717089474201,-0.114124827087,0.283349573612,-0.626475214958
1555298975478755186,34146,1555298975478755186,world,-2.89430332184,-0.820377588272,0.798130750656,0.717135548592,-0.114250607789,0.283390969038,-0.626380860806
1555298975489148131,34147,1555298975489148131,world,-2.89454936981,-0.820113182068,0.79817533493,0.716894686222,-0.114467635751,0.278804779053,-0.628670990467
1555298975498495583,34148,1555298975498495583,world,-2.89434432983,-0.82028222084,0.798101902008,0.717133462429,-0.1144791767,0.282350569963,-0.626811146736
1555298975508848346,34149,1555298975508848346,world,-2.894282341,-0.820332527161,0.798064231873,0.717186033726,-0.11428963393,0.283789217472,-0.626135706902
1555298975518140188,34150,1555298975518140188,world,-2.89422416687,-0.820265054703,0.798075437546,0.717503249645,-0.114141002297,0.283499181271,-0.625930607319
1555298975518180098,34151,1555298975518180098,world,-2.8942117691,-0.820313453674,0.798080682755,0.717314839363,-0.114162661135,0.28426143527,-0.625796854496
1555298975528587669,34152,1555298975528587669,world,-2.89414215088,-0.82025384903,0.798075675964,0.717584490776,-0.114243194461,0.283811718225,-0.625677287579
1555298975539030329,34153,1555298975539030329,world,-2.89410972595,-0.820270061493,0.798047065735,0.717604398727,-0.114520639181,0.28372824192,-0.625641465187
1555298975548496122,34154,1555298975548496122,world,-2.89408111572,-0.820315122604,0.798040151596,0.71755117178,-0.114563301206,0.283952534199,-0.625593006611
1555298975558853033,34155,1555298975558853033,world,-2.89411830902,-0.82031917572,0.79808306694,0.717511832714,-0.114314176142,0.283439069986,-0.625916481018
1555298975558916287,34156,1555298975558916287,world,-2.89408969879,-0.820333003998,0.798045873642,0.717444777489,-0.11446262151,0.283458918333,-0.62595719099
1555298975578536072,34157,1555298975578536072,world,-2.89415359497,-0.820296049118,0.798098325729,0.717347025871,-0.11395675689,0.282876461744,-0.626424729824
1555298975578608963,34158,1555298975578608963,world,-2.89419937134,-0.820317983627,0.798147439957,0.717194616795,-0.11405133456,0.28334325552,-0.626371264458
1555298975589079515,34159,1555298975589079515,world,-2.89415836334,-0.820357561111,0.798126935959,0.717364966869,-0.114456273615,0.283474713564,-0.626042604446
1555298975598534644,34160,1555298975598534644,world,-2.89413356781,-0.820327997208,0.798119068146,0.717435240746,-0.114460535347,0.283230394125,-0.626071870327
1555298975608886364,34161,1555298975608886364,world,-2.89416599274,-0.820360898972,0.798110485077,0.717244029045,-0.114501602948,0.283894389868,-0.625982701778
1555298975608953671,34162,1555298975608953671,world,-2.89419460297,-0.82034778595,0.798104286194,0.717170596123,-0.114462576807,0.283920049667,-0.626062333584
1555298975618287084,34163,1555298975618287084,world,-2.89423179626,-0.82030916214,0.798128604889,0.717141270638,-0.114168293774,0.283725112677,-0.626238048077
1555298975628630940,34164,1555298975628630940,world,-2.89412117004,-0.820362091064,0.798063993454,0.717500984669,-0.114788226783,0.283874332905,-0.625644803047
1555298975638973144,34165,1555298975638973144,world,-2.89413166046,-0.82027387619,0.798072576523,0.717538833618,-0.114155136049,0.283426910639,-0.625920057297
1555298975648259227,34166,1555298975648259227,world,-2.89416503906,-0.820302963257,0.79806637764,0.717578649521,-0.114495359361,0.28336635232,-0.625839710236
1555298975658600529,34167,1555298975658600529,world,-2.89418506622,-0.820276260376,0.798090696335,0.71743708849,-0.114339500666,0.283263027668,-0.626077234745
1555298975668959128,34168,1555298975668959128,world,-2.89423561096,-0.820305109024,0.7981133461,0.717174828053,-0.114250510931,0.283657968044,-0.626215040684
1555298975669032004,34169,1555298975669032004,world,-2.89420509338,-0.820298194885,0.7980864048,0.717389643192,-0.114149540663,0.283358037472,-0.626123249531
1555298975678472852,34170,1555298975678472852,world,-2.89424133301,-0.820313930511,0.798105955124,0.717218637466,-0.114172816277,0.283661961555,-0.626177310944
1555298975688851407,34171,1555298975688851407,world,-2.89423656464,-0.820315122604,0.798122406006,0.717126429081,-0.114191681147,0.283846080303,-0.626195967197
1555298975698174322,34172,1555298975698174322,world,-2.89419174194,-0.82036614418,0.798112869263,0.717091023922,-0.114451572299,0.284024685621,-0.626108109951
1555298975708675693,34173,1555298975708675693,world,-2.89415645599,-0.820317745209,0.798097610474,0.717395067215,-0.114366732538,0.283499985933,-0.626013040543
1555298975719078639,34174,1555298975719078639,world,-2.89413738251,-0.82028222084,0.798120975494,0.717483878136,-0.114249773324,0.283078640699,-0.62612336874
1555298975719119044,34175,1555298975719119044,world,-2.89418315887,-0.820302009583,0.798136949539,0.717270672321,-0.114162139595,0.283417522907,-0.626230359077
1555298975738963316,34176,1555298975738963316,world,-2.8941411972,-0.820308923721,0.798115491867,0.717362940311,-0.11438074708,0.283204257488,-0.626181185246
1555298975739003032,34177,1555298975739003032,world,-2.89421844482,-0.820295810699,0.798141241074,0.717230141163,-0.114240974188,0.283306658268,-0.626312315464
1555298975748380890,34178,1555298975748380890,world,-2.89416980743,-0.820303678513,0.798108577728,0.717437326908,-0.114277198911,0.283061891794,-0.626179277897
1555298975758775413,34179,1555298975758775413,world,-2.89423084259,-0.820311784744,0.798136949539,0.717246353626,-0.114198677242,0.283450424671,-0.626236557961
1555298975769106146,34180,1555298975769106146,world,-2.89426517487,-0.82029747963,0.798140525818,0.717155218124,-0.11418940872,0.283660799265,-0.626247406006
1555298975769149291,34181,1555298975769149291,world,-2.89423370361,-0.820335388184,0.798082113266,0.71714168787,-0.114472202957,0.283899128437,-0.626103281975
1555298975778520360,34182,1555298975778520360,world,-2.89422512054,-0.820311784744,0.798085927963,0.717245161533,-0.114319138229,0.283765733242,-0.626073241234
1555298975788901992,34183,1555298975788901992,world,-2.89423465729,-0.820303916931,0.798084497452,0.717227637768,-0.114249274135,0.283876985312,-0.626055657864
1555298975798351831,34184,1555298975798351831,world,-2.89420032501,-0.820273160934,0.798082351685,0.717492640018,-0.114369265735,0.283436834812,-0.625929474831
1555298975808809904,34185,1555298975808809904,world,-2.89417266846,-0.820271253586,0.79805970192,0.717548668385,-0.114394240081,0.283241331577,-0.625949025154
1555298975808852209,34186,1555298975808852209,world,-2.89418792725,-0.82027888298,0.79807639122,0.717561006546,-0.114253304899,0.283210903406,-0.625974416733
1555298975818155972,34187,1555298975818155972,world,-2.89423084259,-0.82029747963,0.798100471497,0.717246651649,-0.114281781018,0.283567041159,-0.626168191433
1555298975828637555,34188,1555298975828637555,world,-2.89422416687,-0.820312261581,0.798108816147,0.717195630074,-0.114471442997,0.283609002829,-0.626172959805
1555298975839061870,34189,1555298975839061870,world,-2.89418983459,-0.820309877396,0.798121452332,0.717412233353,-0.114451132715,0.283228069544,-0.626101016998
1555298975848479432,34190,1555298975848479432,world,-2.8941783905,-0.820291042328,0.798109054565,0.717476129532,-0.114347420633,0.282978326082,-0.626159667969
1555298975858870508,34191,1555298975858870508,world,-2.89416694641,-0.820316076279,0.798118591309,0.717447936535,-0.114388562739,0.283041983843,-0.626155614853
1555298975868247509,34192,1555298975868247509,world,-2.89414691925,-0.820345401764,0.798098802567,0.717414796352,-0.114348098636,0.283380001783,-0.626048266888
1555298975868285089,34193,1555298975868285089,world,-2.89417076111,-0.820335626602,0.798087596893,0.717413544655,-0.114333219826,0.2831774652,-0.626143872738
1555298975889010374,34194,1555298975889010374,world,-2.89416980743,-0.82032418251,0.798108100891,0.717445254326,-0.114394254982,0.283120959997,-0.626121938229
1555298975889061459,34195,1555298975889061459,world,-2.89416599274,-0.820336580276,0.798092126846,0.717407763004,-0.114404112101,0.283407747746,-0.626033365726
1555298975898490564,34196,1555298975898490564,world,-2.89421367645,-0.820362329483,0.798097610474,0.717193126678,-0.114514552057,0.283863097429,-0.626052856445
1555298975908942530,34197,1555298975908942530,world,-2.89418697357,-0.820312738419,0.798092842102,0.717296361923,-0.114365361631,0.283468753099,-0.626140594482
1555298975918359312,34198,1555298975918359312,world,-2.89417648315,-0.820310354233,0.798057317734,0.717382609844,-0.114585027099,0.283580392599,-0.625950992107
1555298975918399100,34199,1555298975918399100,world,-2.8941860199,-0.820279359818,0.798070192337,0.71748393774,-0.114340648055,0.283297508955,-0.626007735729
1555298975938071254,34200,1555298975938071254,world,-2.89418888092,-0.82026386261,0.798092842102,0.717450380325,-0.114261947572,0.283142954111,-0.626130342484
1555298975938143704,34201,1555298975938143704,world,-2.89423942566,-0.820283174515,0.798103809357,0.71716016531,-0.114273414016,0.283440679312,-0.626326024532
1555298975948489171,34202,1555298975948489171,world,-2.89419460297,-0.820307970047,0.79808473587,0.717320144176,-0.114654943347,0.283453792334,-0.626067101955
1555298975958836466,34203,1555298975958836466,world,-2.89419174194,-0.820290088654,0.798076152802,0.717432558537,-0.114320769906,0.283353120089,-0.626045048237
1555298975968094463,34204,1555298975968094463,world,-2.89424228668,-0.820271015167,0.798119068146,0.717254817486,-0.114183709025,0.283423870802,-0.626241624355
1555298975978436375,34205,1555298975978436375,world,-2.8942527771,-0.820260286331,0.798141002655,0.717092931271,-0.114083208144,0.283566862345,-0.626380443573
1555298976038266397,34206,1555298976038266397,world,-2.89415168762,-0.820319414139,0.798109054565,0.717327594757,-0.114619866014,0.283501774073,-0.626043319702
1555298976038335031,34207,1555298976038335031,world,-2.89417934418,-0.8203125,0.798101663589,0.717222511768,-0.114513128996,0.283610522747,-0.626133978367
1555298976038362729,34208,1555298976038362729,world,-2.89412879944,-0.820301532745,0.798077344894,0.717376708984,-0.114587545395,0.283315777779,-0.62607717514
1555298976048645693,34209,1555298976048645693,world,-2.89418125153,-0.820311307907,0.798110961914,0.717273056507,-0.11433044076,0.283418357372,-0.626196444035
1555298976048719103,34210,1555298976048719103,world,-2.89422130585,-0.820305109024,0.798158407211,0.717219114304,-0.1142212376,0.283420473337,-0.626277208328
1555298976048747255,34211,1555298976048747255,world,-2.89416027069,-0.820297241211,0.79813170433,0.717396557331,-0.114454858005,0.283270299435,-0.626099228859
1555298976048794795,34212,1555298976048794795,world,-2.89412117004,-0.820302724838,0.798067331314,0.717515349388,-0.11441475898,0.283188790083,-0.626007258892
1555298976048821660,34213,1555298976048821660,world,-2.89443302155,-0.820117950439,0.798103094101,0.716861784458,-0.114918671548,0.279597252607,-0.628274142742
1555298976048847099,34214,1555298976048847099,world,-2.89425849915,-0.820216655731,0.798106908798,0.717309474945,-0.11437356472,0.282029271126,-0.626773834229
1555298976058115613,34215,1555298976058115613,world,-2.89415836334,-0.820285797119,0.798140048981,0.717517852783,-0.114364884794,0.283178478479,-0.626018285751
1555298976068393521,34216,1555298976068393521,world,-2.89414405823,-0.820303916931,0.798141956329,0.717588603497,-0.114082634449,0.283582389355,-0.625805675983
1555298976068436212,34217,1555298976068436212,world,-2.89415550232,-0.820307731628,0.798081636429,0.717533111572,-0.114130109549,0.283693671227,-0.625810265541
1555298976078721670,34218,1555298976078721670,world,-2.89420986176,-0.820316553116,0.798092365265,0.71725076437,-0.114143073559,0.284020602703,-0.625983297825
1555298976089071831,34219,1555298976089071831,world,-2.89421367645,-0.820349216461,0.798093080521,0.717140674591,-0.114396780729,0.28433355689,-0.625920891762
1555298976098417442,34220,1555298976098417442,world,-2.89421463013,-0.820301294327,0.798131942749,0.717332541943,-0.114111460745,0.283677130938,-0.626050949097
1555298976108871430,34221,1555298976108871430,world,-2.89419460297,-0.820303678513,0.798127174377,0.71750921011,-0.114206172526,0.283252984285,-0.626023292542
1555298976118314605,34222,1555298976118314605,world,-2.89419651031,-0.820303678513,0.798109054565,0.717535853386,-0.114139325917,0.283247560263,-0.626007497311
1555298976128730401,34223,1555298976128730401,world,-2.89424324036,-0.820317983627,0.798089742661,0.717259943485,-0.114070527256,0.283562004566,-0.626193881035
1555298976128799788,34224,1555298976128799788,world,-2.89424991608,-0.820315599442,0.798097610474,0.71718454361,-0.114228092134,0.283561140299,-0.626251935959
1555298976138065479,34225,1555298976138065479,world,-2.89420604706,-0.820302724838,0.798101902008,0.717447578907,-0.114182919264,0.283107221127,-0.626164257526
1555298976148503461,34226,1555298976148503461,world,-2.89418506622,-0.820276021957,0.798125505447,0.717532455921,-0.113948456943,0.282882273197,-0.626211285591
1555298976158847840,34227,1555298976158847840,world,-2.89422702789,-0.820295572281,0.798135042191,0.717266380787,-0.114144772291,0.283489406109,-0.626205742359
1555298976168360697,34228,1555298976168360697,world,-2.89420509338,-0.820272684097,0.798101425171,0.717500925064,-0.114249132574,0.283003598452,-0.626137733459
1555298976178796573,34229,1555298976178796573,world,-2.89416790009,-0.820301532745,0.798056840897,0.717515051365,-0.114326328039,0.283187448978,-0.62602430582
1555298976178859039,34230,1555298976178859039,world,-2.89419651031,-0.820296049118,0.798083305359,0.71746391058,-0.114378258586,0.283131092787,-0.626099050045
1555298976208689283,34231,1555298976208689283,world,-2.89426136017,-0.820272684097,0.798125267029,0.717230856419,-0.114273995161,0.283389985561,-0.626267969608
1555298976208758711,34232,1555298976208758711,world,-2.89420795441,-0.820296764374,0.798084020615,0.717376768589,-0.114395350218,0.283553659916,-0.626004517078
1555298976208786635,34233,1555298976208786635,world,-2.8942193985,-0.820263624191,0.79810833931,0.717406272888,-0.114325284958,0.282999277115,-0.626234292984
1555298976219152947,34234,1555298976219152947,world,-2.8941860199,-0.820285320282,0.798088312149,0.717389047146,-0.114388212562,0.283200711012,-0.626151502132
1555298976219193553,34235,1555298976219193553,world,-2.89421844482,-0.820299863815,0.798102855682,0.717254161835,-0.114412151277,0.283664613962,-0.626091718674
1555298976228595190,34236,1555298976228595190,world,-2.89418506622,-0.820312976837,0.798089265823,0.717338681221,-0.114626593888,0.283569425344,-0.625998675823
1555298976238996093,34237,1555298976238996093,world,-2.89425468445,-0.820276498795,0.798119068146,0.717226326466,-0.114222675562,0.283455908298,-0.626252710819
1555298976248392497,34238,1555298976248392497,world,-2.89416599274,-0.82031583786,0.798079490662,0.717428684235,-0.114660456777,0.283576875925,-0.62588596344
1555298976258734878,34239,1555298976258734878,world,-2.89417171478,-0.820293426514,0.798096179962,0.717433989048,-0.114463478327,0.283064424992,-0.626147806644
1555298976258776633,34240,1555298976258776633,world,-2.89416503906,-0.820298910141,0.79808306694,0.717486202717,-0.114437788725,0.283229649067,-0.626017868519
1555298976268085765,34241,1555298976268085765,world,-2.89415931702,-0.820284605026,0.798087120056,0.7174243927,-0.114356517792,0.283133864403,-0.626147031784
1555298976278539032,34242,1555298976278539032,world,-2.89418983459,-0.820339679718,0.798070669174,0.717223107815,-0.114639736712,0.283739835024,-0.626051425934
1555298976289023724,34243,1555298976289023724,world,-2.89419174194,-0.820319652557,0.798097133636,0.717341542244,-0.114323683083,0.283380120993,-0.626136481762
1555298976298410025,34244,1555298976298410025,world,-2.89418125153,-0.820279836655,0.798120737076,0.717455983162,-0.114332027733,0.283367246389,-0.626009643078
1555298976308850578,34245,1555298976308850578,world,-2.89420509338,-0.820312023163,0.798118114471,0.717186748981,-0.11434751004,0.283758580685,-0.626138091087
1555298976318515329,34246,1555298976318515329,world,-2.89416503906,-0.820293426514,0.798106908798,0.717448472977,-0.114281140268,0.28330257535,-0.626056909561
1555298976318559561,34247,1555298976318559561,world,-2.89420795441,-0.820270299911,0.7981133461,0.717254221439,-0.114059895277,0.28351098299,-0.626225292683
1555298976328931607,34248,1555298976328931607,world,-2.89422798157,-0.820295095444,0.798113584518,0.717218279839,-0.114198334515,0.283683985472,-0.626162946224
1555298976338321067,34249,1555298976338321067,world,-2.89417743683,-0.820318698883,0.798083782196,0.717215538025,-0.114573560655,0.2839435637,-0.62597990036
1555298976348726795,34250,1555298976348726795,world,-2.89416408539,-0.820284605026,0.798069238663,0.71741694212,-0.114472433925,0.283314913511,-0.626052558422
1555298976359066426,34251,1555298976359066426,world,-2.89423751831,-0.820280075073,0.798106193542,0.717270553112,-0.113995179534,0.28332683444,-0.626301944256
1555298976368525834,34252,1555298976368525834,world,-2.89419364929,-0.820279598236,0.798083543777,0.717358291149,-0.114133104682,0.28308865428,-0.626284062862
1555298976378994344,34253,1555298976378994344,world,-2.89419460297,-0.820298910141,0.798098087311,0.717339336872,-0.114231541753,0.283609181643,-0.626052200794
1555298976388415786,34254,1555298976388415786,world,-2.89422225952,-0.82031416893,0.798094987869,0.717243432999,-0.114218652248,0.283553719521,-0.626189470291
1555298976398813045,34255,1555298976398813045,world,-2.89419460297,-0.820363521576,0.798101425171,0.717174470425,-0.11476932466,0.283846944571,-0.626034915447
1555298976398852149,34256,1555298976398852149,world,-2.89419841766,-0.820338010788,0.798114061356,0.717246592045,-0.114535063505,0.283724248409,-0.626050770283
1555298976418611969,34257,1555298976418611969,world,-2.89415359497,-0.820352315903,0.798086643219,0.717482209206,-0.114759154618,0.283446282148,-0.625865638256
1555298976429042199,34258,1555298976429042199,world,-2.8941526413,-0.820281267166,0.798099517822,0.717559337616,-0.114434622228,0.283011227846,-0.62603354454
1555298976438457414,34259,1555298976438457414,world,-2.89414215088,-0.820299386978,0.798097372055,0.717570662498,-0.114643462002,0.283111304045,-0.62593716383
1555298976448857050,34260,1555298976448857050,world,-2.89422702789,-0.820278406143,0.798152208328,0.717264771461,-0.114166982472,0.2834174335,-0.626236140728
1555298976448899349,34261,1555298976448899349,world,-2.89424800873,-0.820281505585,0.798122406006,0.71709382534,-0.114375062287,0.283646911383,-0.626290023327
1555298976448954001,34262,1555298976448954001,world,-2.89444351196,-0.820071935654,0.798120975494,0.716943264008,-0.114797495306,0.27907410264,-0.628435790539
1555298976518049602,34263,1555298976518049602,world,-2.89427566528,-0.820230484009,0.798133611679,0.71704441309,-0.114537321031,0.282379001379,-0.626889705658
1555298976518121901,34264,1555298976518121901,world,-2.89422798157,-0.82030081749,0.798136711121,0.717177510262,-0.1144047454,0.283566564322,-0.626225173473
1555298976518144806,34265,1555298976518144806,world,-2.8941488266,-0.820301294327,0.798126459122,0.717500865459,-0.114099502563,0.28362518549,-0.625883877277
1555298976518197015,34266,1555298976518197015,world,-2.89414596558,-0.820319414139,0.798094749451,0.717525839806,-0.114092327654,0.283661216497,-0.625840246677
1555298976518234348,34267,1555298976518234348,world,-2.89413166046,-0.820303201675,0.798058271408,0.717553913593,-0.114255905151,0.283596426249,-0.625807523727
1555298976518258783,34268,1555298976518258783,world,-2.89417457581,-0.82034778595,0.79808306694,0.717318058014,-0.114241331816,0.284005999565,-0.625894904137
1555298976518304595,34269,1555298976518304595,world,-2.89414978027,-0.82034945488,0.79811501503,0.717506527901,-0.114364825189,0.283712744713,-0.625789344311
1555298976518339925,34270,1555298976518339925,world,-2.89416408539,-0.820381164551,0.798125267029,0.717260599136,-0.114345811307,0.284212619066,-0.625847816467
1555298976518362212,34271,1555298976518362212,world,-2.89417648315,-0.820329427719,0.798096656799,0.717416644096,-0.114254243672,0.28351148963,-0.626003682613
1555298976528622794,34272,1555298976528622794,world,-2.8942155838,-0.820324897766,0.798096418381,0.717212736607,-0.114131242037,0.283594667912,-0.626221954823
1555298976538973563,34273,1555298976538973563,world,-2.89419937134,-0.820376157761,0.79808473587,0.71722650528,-0.114330530167,0.284207940102,-0.625891923904
1555298976548424772,34274,1555298976548424772,world,-2.89421653748,-0.820361852646,0.798101425171,0.717211484909,-0.114413142204,0.283950209618,-0.626010894775
1555298976558744769,34275,1555298976558744769,world,-2.8941860199,-0.820274353027,0.798109769821,0.717407643795,-0.11416348815,0.283142030239,-0.626197755337
1555298976558828716,34276,1555298976558828716,world,-2.89415645599,-0.820325613022,0.798091173172,0.717393755913,-0.11440808326,0.283375114202,-0.626063525677
1555298976578442605,34277,1555298976578442605,world,-2.89421844482,-0.820300340652,0.798106908798,0.717250287533,-0.114326760173,0.283490985632,-0.626190364361
1555298976598015336,34278,1555298976598015336,world,-2.89445114136,-0.82009100914,0.798110485077,0.716946125031,-0.114831350744,0.278989702463,-0.628463923931
1555298976598088047,34280,1555298976598088047,world,-2.89415836334,-0.820285797119,0.79811835289,0.717546522617,-0.114177159965,0.283151090145,-0.62603199482
1555298976608364501,34281,1555298976608364501,world,-2.89412212372,-0.820326566696,0.798104524612,0.717589616776,-0.114551097155,0.283815383911,-0.625613331795
1555298976618702414,34282,1555298976618702414,world,-2.89416122437,-0.820333003998,0.798117399216,0.717375516891,-0.114058896899,0.284054636955,-0.625840067863
1555298976618747747,34283,1555298976618747747,world,-2.89413833618,-0.820313453674,0.79806804657,0.717537045479,-0.114087365568,0.283403873444,-0.625944793224
1555298976629120083,34284,1555298976629120083,world,-2.89416408539,-0.820290565491,0.798099279404,0.717538774014,-0.113948322833,0.283355981112,-0.62598991394
1555298976648994765,34285,1555298976648994765,world,-2.89415550232,-0.820308685303,0.798109769821,0.717465758324,-0.113935537636,0.283525913954,-0.625998914242
1555298976649036279,34286,1555298976649036279,world,-2.89416885376,-0.820319414139,0.798101663589,0.71746134758,-0.114216886461,0.283676058054,-0.625884771347
1555298976658483602,34287,1555298976658483602,world,-2.89413928986,-0.820326089859,0.798093557358,0.717473566532,-0.114798478782,0.283674538136,-0.625764966011
1555298976668802621,34288,1555298976668802621,world,-2.8941450119,-0.820312023163,0.798062801361,0.717425644398,-0.114602401853,0.28364315629,-0.625870049
1555298976668840872,34289,1555298976668840872,world,-2.89415454865,-0.820295572281,0.798060417175,0.717419087887,-0.114597126842,0.283489197493,-0.625948369503
1555298976678222782,34290,1555298976678222782,world,-2.89420127869,-0.820316553116,0.798117160797,0.717167377472,-0.11446877569,0.283865362406,-0.626089811325
1555298976688669045,34291,1555298976688669045,world,-2.89418506622,-0.820291519165,0.79812002182,0.717401504517,-0.114432655275,0.283428221941,-0.626026153564
1555298976699083340,34292,1555298976699083340,world,-2.89417648315,-0.820266246796,0.798091888428,0.717449188232,-0.114315651357,0.283252626657,-0.626072406769
1555298976708500394,34293,1555298976708500394,world,-2.89418411255,-0.820272445679,0.798086166382,0.71742361784,-0.11435893923,0.283147841692,-0.62614107132
1555298976718978383,34294,1555298976718978383,world,-2.89418315887,-0.820253372192,0.798103809357,0.71743363142,-0.114209637046,0.283034175634,-0.626208484173
1555298976719030814,34295,1555298976719030814,world,-2.89421749115,-0.820285081863,0.798116207123,0.717308759689,-0.114243231714,0.283563405275,-0.62610578537
1555298976728385080,34296,1555298976728385080,world,-2.89423370361,-0.820302009583,0.798141717911,0.717217624187,-0.114233531058,0.28369179368,-0.626153707504
1555298976738780515,34297,1555298976738780515,world,-2.89415836334,-0.820317983627,0.798109292984,0.717363476753,-0.114494211972,0.283648222685,-0.625958859921
1555298976748061511,34298,1555298976748061511,world,-2.89420223236,-0.820323705673,0.798114061356,0.717183470726,-0.114255912602,0.283785313368,-0.626146495342
1555298976758463994,34299,1555298976758463994,world,-2.89415836334,-0.820294380188,0.798101663589,0.717418670654,-0.114181302488,0.283376604319,-0.626075744629
1555298976768876045,34300,1555298976768876045,world,-2.89414310455,-0.820297718048,0.798066139221,0.717476665974,-0.114438787103,0.283303409815,-0.625995457172
1555298976768914401,34301,1555298976768914401,world,-2.89415931702,-0.820278644562,0.79808473587,0.7175604105,-0.114270813763,0.283009856939,-0.626062810421
1555298976778290426,34302,1555298976778290426,world,-2.89421272278,-0.82030749321,0.798129558563,0.717275559902,-0.114129170775,0.283691495657,-0.62610667944
1555298976788703164,34303,1555298976788703164,world,-2.89422130585,-0.820305109024,0.798109292984,0.717210888863,-0.114279277623,0.283693522215,-0.626152455807
1555298976799105377,34304,1555298976799105377,world,-2.89418125153,-0.820299625397,0.798058986664,0.71746391058,-0.114106580615,0.283341497183,-0.626053512096
1555298976808632067,34305,1555298976808632067,world,-2.89417457581,-0.82030582428,0.798048019409,0.71751511097,-0.114156730473,0.283125966787,-0.626083076
1555298976808674605,34306,1555298976808674605,world,-2.89418792725,-0.820323705673,0.798091173172,0.717313706875,-0.114474281669,0.283607453108,-0.626038014889
1555298976819117865,34307,1555298976819117865,world,-2.89420318604,-0.820324897766,0.798118114471,0.717230737209,-0.114353701472,0.283831328154,-0.626053750515
1555298976828570168,34308,1555298976828570168,world,-2.89416694641,-0.820308923721,0.79807138443,0.717388689518,-0.114363148808,0.283446103334,-0.626045286655
1555298976839021706,34309,1555298976839021706,world,-2.89416408539,-0.820259571075,0.798058748245,0.717433452606,-0.114383816719,0.283173799515,-0.626113653183
1555298976848525224,34310,1555298976848525224,world,-2.89414024353,-0.820329666138,0.798049688339,0.717543661594,-0.114665776491,0.283605515957,-0.625740110874
1555298976858975230,34311,1555298976858975230,world,-2.8941526413,-0.820298194885,0.798094034195,0.717501521111,-0.11448187381,0.283406347036,-0.625912368298
1555298976868419093,34312,1555298976868419093,world,-2.89418411255,-0.820280790329,0.798104763031,0.717538833618,-0.114417158067,0.283104807138,-0.626018047333
1555298976868461261,34313,1555298976868461261,world,-2.89415931702,-0.820286035538,0.798086166382,0.71743285656,-0.114178128541,0.283259123564,-0.626113116741
1555298976878774317,34314,1555298976878774317,world,-2.8941822052,-0.820328712463,0.798096418381,0.717235386372,-0.114416651428,0.283879339695,-0.626015067101
1555298976908839144,34315,1555298976908839144,world,-2.8942155838,-0.820331811905,0.798101902008,0.717143654823,-0.114525444806,0.283999055624,-0.626045882702
1555298976908935992,34318,1555298976908935992,world,-2.89418411255,-0.820282459259,0.798130512238,0.717362999916,-0.114271648228,0.28333196044,-0.626143157482
1555298976918345168,34319,1555298976918345168,world,-2.89421844482,-0.820296525955,0.798112392426,0.717206716537,-0.1141532287,0.283702880144,-0.626175880432
1555298976928793824,34320,1555298976928793824,world,-2.89420795441,-0.820323228836,0.798091888428,0.717214167118,-0.114297240973,0.283916413784,-0.626044332981
1555298976938055074,34321,1555298976938055074,world,-2.89416694641,-0.820293664932,0.798064231873,0.717448472977,-0.114328406751,0.283460766077,-0.6259765625
1555298976948442057,34322,1555298976948442057,world,-2.89416790009,-0.820334672928,0.798084020615,0.717274188995,-0.114588454366,0.284143716097,-0.625819206238
1555298976958825356,34323,1555298976958825356,world,-2.89415645599,-0.82032084465,0.798121213913,0.717430889606,-0.114586144686,0.283718645573,-0.625832855701
1555298976968091389,34324,1555298976968091389,world,-2.89421749115,-0.820280790329,0.79811167717,0.717196047306,-0.114251405001,0.283763945103,-0.626142561436
1555298976968132865,34325,1555298976968132865,world,-2.89424228668,-0.820302009583,0.798090219498,0.717177093029,-0.114350363612,0.283770769835,-0.626143157482
1555298976978503451,34326,1555298976978503451,world,-2.89424610138,-0.820272684097,0.798099279404,0.717257916927,-0.114031359553,0.283425182104,-0.626265227795
1555298976988890114,34327,1555298976988890114,world,-2.89416408539,-0.820331335068,0.798064470291,0.717486202717,-0.114504426718,0.283495724201,-0.625885307789
1555298976998276468,34328,1555298976998276468,world,-2.89417552948,-0.820260286331,0.798112630844,0.717600107193,-0.114054143429,0.282932758331,-0.626091718674
1555298977008677097,34329,1555298977008677097,world,-2.89418697357,-0.820302963257,0.798099040985,0.71731621027,-0.114397495985,0.283639013767,-0.626034796238
1555298977019192502,34330,1555298977019192502,world,-2.89417934418,-0.820332288742,0.798073530197,0.717126011848,-0.114508159459,0.283998459578,-0.626069486141
1555298977019232661,34331,1555298977019232661,world,-2.89422702789,-0.82030415535,0.798091411591,0.717210829258,-0.114222079515,0.28362518549,-0.62619382143
1555298977028658974,34332,1555298977028658974,world,-2.89419364929,-0.820291996002,0.798082590103,0.717432200909,-0.114252850413,0.283270329237,-0.626095235348
1555298977038991069,34333,1555298977038991069,world,-2.89413642883,-0.820305109024,0.798080205917,0.717550575733,-0.114122122526,0.283283054829,-0.625977575779
1555298977048432744,34334,1555298977048432744,world,-2.89415645599,-0.820291042328,0.798099517822,0.71750330925,-0.114213369787,0.283158808947,-0.626071453094
1555298977058787107,34335,1555298977058787107,world,-2.89418125153,-0.820336580276,0.79811000824,0.717240393162,-0.114581137896,0.283779799938,-0.62602430582
1555298977058824824,34336,1555298977058824824,world,-2.8941411972,-0.820330619812,0.798069238663,0.717446029186,-0.114491268992,0.283699601889,-0.62584155798
1555298977068069116,34337,1555298977068069116,world,-2.89418792725,-0.820333719254,0.798061847687,0.717212677002,-0.114336453378,0.283958822489,-0.626019716263
1555298977078458419,34338,1555298977078458419,world,-2.89420890808,-0.82031083107,0.798104047775,0.717161893845,-0.114279508591,0.283800721169,-0.626159906387
