%time,field.header.seq,field.header.stamp,field.header.frame_id,field.pose.position.x,field.pose.position.y,field.pose.position.z,field.pose.orientation.x,field.pose.orientation.y,field.pose.orientation.z,field.pose.orientation.w
1555298071958914571,21526,1555298071958914571,world,-2.88690471649,-0.818285226822,0.798077106476,-0.702716290951,0.176268681884,-0.333590120077,0.603188931942
1555298071968277834,21527,1555298071968277834,world,-2.88691902161,-0.818266868591,0.798100471497,-0.702667832375,0.176174372435,-0.33353587985,0.603302896023
1555298071978745481,21528,1555298071978745481,world,-2.88691997528,-0.818252563477,0.798099756241,-0.702689409256,0.176046729088,-0.333431839943,0.603372573853
1555298071988077256,21529,1555298071988077256,world,-2.88693714142,-0.818192481995,0.798104524612,-0.702620029449,0.175801873207,-0.333119988441,0.603696882725
1555298071988155673,21530,1555298071988155673,world,-2.88692855835,-0.818211555481,0.798115968704,-0.702619612217,0.175984695554,-0.333210974932,0.603593945503
1555298071998551469,21531,1555298071998551469,world,-2.88693332672,-0.818194389343,0.798119306564,-0.702648043633,0.175832241774,-0.333147972822,0.603640019894
1555298072008995580,21532,1555298072008995580,world,-2.88691806793,-0.818228244781,0.798088550568,-0.702589333057,0.176274433732,-0.333567291498,0.603347659111
1555298072018459257,21533,1555298072018459257,world,-2.88689994812,-0.81825876236,0.798066139221,-0.702626526356,0.176201894879,-0.333455353975,0.603387475014
1555298072028802032,21534,1555298072028802032,world,-2.88691043854,-0.818271398544,0.79808306694,-0.702633976936,0.176248759031,-0.333489745855,0.60334610939
1555298072028846996,21535,1555298072028846996,world,-2.88695240021,-0.81826376915,0.79814863205,-0.702672719955,0.175994873047,-0.333166837692,0.603553533554
1555298072038159378,21536,1555298072038159378,world,-2.88686466217,-0.818278551102,0.7981133461,-0.702720701694,0.176445141435,-0.33303001523,0.603441596031
1555298072048551942,21537,1555298072048551942,world,-2.88688850403,-0.81834769249,0.798054695129,-0.70265007019,0.176384449005,-0.333313822746,0.603384971619
1555298072058930086,21538,1555298072058930086,world,-2.88692092896,-0.818326473236,0.798040390015,-0.702672302723,0.17606253922,-0.333441883326,0.603382229805
1555298072068364155,21539,1555298072068364155,world,-2.8869228363,-0.818360090256,0.798077583313,-0.702655494213,0.176250502467,-0.333682984114,0.603213727474
1555298072078768514,21540,1555298072078768514,world,-2.88694286346,-0.81835603714,0.798153162003,-0.702680826187,0.175893068314,-0.333267807961,0.603518009186
1555298072078811112,21541,1555298072078811112,world,-2.8869562149,-0.818314313889,0.798140525818,-0.702652812004,0.175834864378,-0.333166092634,0.603623569012
1555298072088123533,21542,1555298072088123533,world,-2.88694667816,-0.818297863007,0.798084020615,-0.702687740326,0.176048576832,-0.333253026009,0.603472709656
1555298072098562758,21543,1555298072098562758,world,-2.88692760468,-0.81827378273,0.798028945923,-0.702647030354,0.176067188382,-0.333479911089,0.603389382362
1555298072108945923,21544,1555298072108945923,world,-2.88689899445,-0.818318367004,0.798046588898,-0.702631294727,0.176485553384,-0.333774000406,0.603122830391
1555298072118392479,21545,1555298072118392479,world,-2.88693237305,-0.818245887756,0.798131465912,-0.702717542648,0.175911009312,-0.333240151405,0.603485107422
1555298072128755617,21546,1555298072128755617,world,-2.88683509827,-0.81828045845,0.798096179962,-0.702722072601,0.176829099655,-0.333513140678,0.603060722351
1555298072138026601,21547,1555298072138026601,world,-2.88688850403,-0.818230867386,0.798115968704,-0.702631235123,0.17628633976,-0.333483219147,0.603342056274
1555298072138069891,21548,1555298072138069891,world,-2.88689136505,-0.818236112595,0.798068284988,-0.70261567831,0.176081344485,-0.333503216505,0.603408753872
1555298072148450014,21549,1555298072148450014,world,-2.88687705994,-0.818282842636,0.798021316528,-0.702665507793,0.176355049014,-0.333701580763,0.603161275387
1555298072158711025,21550,1555298072158711025,world,-2.88688755035,-0.818250179291,0.798080205917,-0.702693164349,0.175884053111,-0.33329769969,0.603489816189
1555298072169023193,21551,1555298072169023193,world,-2.88688850403,-0.818260669708,0.798181056976,-0.702670872211,0.175771608949,-0.333191782236,0.603606820107
1555298072178418906,21552,1555298072178418906,world,-2.88685417175,-0.818296194077,0.798164367676,-0.702708959579,0.176288127899,-0.333511352539,0.603235244751
1555298072188866156,21553,1555298072188866156,world,-2.88685512543,-0.818313598633,0.798104047775,-0.70264852047,0.176280885935,-0.333469718695,0.603330790997
1555298072188923628,21554,1555298072188923628,world,-2.88679122925,-0.818319320679,0.798000812531,-0.702634453773,0.176284641027,-0.333887308836,0.603115022182
1555298072198276245,21555,1555298072198276245,world,-2.88683986664,-0.81831073761,0.79804444313,-0.702648878098,0.176377892494,-0.333438277245,0.603319406509
1555298072208608566,21556,1555298072208608566,world,-2.88687229156,-0.818311929703,0.798138856888,-0.702715754509,0.176153451204,-0.333186358213,0.603446185589
1555298072219011200,21557,1555298072219011200,world,-2.88693141937,-0.818313837051,0.798194408417,-0.702633440495,0.175993040204,-0.333110362291,0.603630900383
1555298072228357479,21558,1555298072228357479,world,-2.88691711426,-0.818291902542,0.798133134842,-0.702667415142,0.175997599959,-0.333330720663,0.603468358517
1555298072228434300,21559,1555298072228434300,world,-2.88689899445,-0.818296432495,0.798036813736,-0.702631056309,0.176243081689,-0.333618670702,0.603279948235
1555298072238807258,21560,1555298072238807258,world,-2.8868970871,-0.81826710701,0.798033237457,-0.702600538731,0.176326528192,-0.333695441484,0.603248476982
1555298072248146450,21561,1555298072248146450,world,-2.8869228363,-0.818239212036,0.798090696335,-0.702744543552,0.17591907084,-0.333453804255,0.603333353996
1555298072258441793,21562,1555298072258441793,world,-2.88696193695,-0.818226337433,0.798182487488,-0.702706694603,0.175742357969,-0.333151429892,0.603595912457
1555298072268787758,21563,1555298072268787758,world,-2.88695430756,-0.818206548691,0.798186779022,-0.702668905258,0.175808429718,-0.333272337914,0.603554010391
1555298072278061172,21564,1555298072278061172,world,-2.88688373566,-0.818250894547,0.79808306694,-0.702657520771,0.176066532731,-0.33359220624,0.603315234184
1555298072288459557,21565,1555298072288459557,world,-2.8868894577,-0.818243503571,0.798015594482,-0.702621996403,0.176117137074,-0.333570629358,0.603353798389
1555298072298759983,21566,1555298072298759983,world,-2.88691234589,-0.81823348999,0.798106431961,-0.702598392963,0.175979807973,-0.333370000124,0.603532195091
1555298072298826332,21567,1555298072298826332,world,-2.88692092896,-0.818252563477,0.798167467117,-0.702629208565,0.175913482904,-0.332901924849,0.603774011135
1555298072308042412,21568,1555298072308042412,world,-2.88689517975,-0.818287372589,0.79812502861,-0.702567458153,0.176179975271,-0.333261579275,0.603569686413
1555298072318791817,21569,1555298072318791817,world,-2.88688850403,-0.818278551102,0.798083782196,-0.702736377716,0.176111876965,-0.333328604698,0.603355884552
1555298072328065916,21570,1555298072328065916,world,-2.88684463501,-0.818340539932,0.798017978668,-0.702767252922,0.176589876413,-0.333541125059,0.603062570095
1555298072338406599,21571,1555298072338406599,world,-2.88687705994,-0.818305253983,0.798075914383,-0.702636063099,0.176203623414,-0.333526164293,0.603336691856
1555298072338476551,21572,1555298072338476551,world,-2.88691711426,-0.818310022354,0.798130989075,-0.702675282955,0.176275238395,-0.333649009466,0.603202283382
1555298072348932705,21573,1555298072348932705,world,-2.88691234589,-0.818272352219,0.798151016235,-0.702713727951,0.175992548466,-0.333191394806,0.603492736816
1555298072358282027,21574,1555298072358282027,world,-2.88690853119,-0.818278551102,0.798099517822,-0.702666044235,0.176151514053,-0.33341550827,0.603378117085
1555298072368698098,21575,1555298072368698098,world,-2.88691520691,-0.81827378273,0.798064470291,-0.702578544617,0.176238358021,-0.333656311035,0.603321552277
1555298072379004138,21576,1555298072379004138,world,-2.88691329956,-0.81827878952,0.798080444336,-0.702672123909,0.176130205393,-0.333573907614,0.603289842606
1555298072379067978,21577,1555298072379067978,world,-2.8869228363,-0.818252086639,0.798114776611,-0.702655076981,0.175987541676,-0.333262443542,0.603523254395
1555298072388482277,21578,1555298072388482277,world,-2.88698768616,-0.818221092224,0.798128843307,-0.702613830566,0.175797522068,-0.333063602448,0.603736400604
1555298072398894078,21579,1555298072398894078,world,-2.88691711426,-0.818217754364,0.798102378845,-0.702740073204,0.176153928041,-0.33284637332,0.6036054492
1555298072408353610,21580,1555298072408353610,world,-2.88687229156,-0.818250417709,0.798043727875,-0.702732801437,0.176580369473,-0.333054304123,0.603374481201
1555298072418812964,21581,1555298072418812964,world,-2.88691711426,-0.818230628967,0.798038482666,-0.70269292593,0.176066681743,-0.333344429731,0.603410899639
1555298072428012808,21582,1555298072428012808,world,-2.886926651,-0.818269014359,0.79808807373,-0.70268535614,0.175850152969,-0.333311319351,0.603501081467
1555298072438475894,21583,1555298072438475894,world,-2.88695335388,-0.818255662918,0.798148870468,-0.702685832977,0.175788521767,-0.333200931549,0.603579521179
1555298072438546281,21584,1555298072438546281,world,-2.88694953918,-0.818289279938,0.798132419586,-0.702631771564,0.175958707929,-0.333243399858,0.60356938839
1555298072448997954,21585,1555298072448997954,world,-2.88693618774,-0.818265199661,0.79811501503,-0.702679157257,0.175749719143,-0.333159327507,0.603621482849
1555298072458326563,21586,1555298072458326563,world,-2.88677310944,-0.81830239296,0.797985553741,-0.702741682529,0.176612153649,-0.333973556757,0.602846503258
1555298072468661998,21587,1555298072468661998,world,-2.88687705994,-0.818290472031,0.798049211502,-0.702731430531,0.176321104169,-0.333584934473,0.603158771992
1555298072479048977,21588,1555298072479048977,world,-2.88691711426,-0.818281888962,0.798140048981,-0.702703893185,0.176235720515,-0.333528846502,0.603246808052
1555298072479122024,21589,1555298072479122024,world,-2.88685703278,-0.818285703659,0.798139333725,-0.702753305435,0.176695466042,-0.333322405815,0.603168964386
1555298072488505528,21590,1555298072488505528,world,-2.88681221008,-0.818277359009,0.798076629639,-0.702772319317,0.176883265376,-0.333184212446,0.603168189526
1555298072498903669,21591,1555298072498903669,world,-2.88688564301,-0.818252086639,0.798030614853,-0.702633142471,0.176447927952,-0.33348608017,0.60329079628
1555298072508248744,21592,1555298072508248744,world,-2.88692569733,-0.818243980408,0.798047780991,-0.702599287033,0.176061689854,-0.333436012268,0.603470802307
1555298072518604253,21593,1555298072518604253,world,-2.88694667816,-0.818239212036,0.798111915588,-0.702689528465,0.176101833582,-0.333483666182,0.603327691555
1555298072528976249,21594,1555298072528976249,world,-2.88697624207,-0.818192958832,0.798177480698,-0.702686071396,0.175742089748,-0.333492279053,0.603431761265
1555298072529014702,21595,1555298072529014702,world,-2.88693809509,-0.818227767944,0.798104524612,-0.702714502811,0.175974205136,-0.333602339029,0.603270173073
1555298072538391046,21596,1555298072538391046,world,-2.88690376282,-0.818230628967,0.798055171967,-0.702702343464,0.176028385758,-0.333688288927,0.603221058846
1555298072548782286,21597,1555298072548782286,world,-2.88687992096,-0.818204879761,0.798035383224,-0.702769756317,0.176522731781,-0.333319306374,0.603202104568
1555298072558154049,21598,1555298072558154049,world,-2.88692474365,-0.818222045898,0.798099756241,-0.702704668045,0.175880551338,-0.333162426949,0.603552103043
1555298072568607592,21599,1555298072568607592,world,-2.88690948486,-0.818263292313,0.798123836517,-0.702739715576,0.175855457783,-0.333205103874,0.603494882584
1555298072579061016,21600,1555298072579061016,world,-2.88690853119,-0.818259954453,0.798097133636,-0.702711820602,0.176019072533,-0.333536982536,0.603296279907
1555298072579102786,21601,1555298072579102786,world,-2.8868894577,-0.818294525146,0.798051834106,-0.702548623085,0.176411241293,-0.333752244711,0.603252828121
1555298072588422464,21602,1555298072588422464,world,-2.88682460785,-0.818321228027,0.798002481461,-0.702643692493,0.176248505712,-0.333939582109,0.603085875511
1555298072598845631,21603,1555298072598845631,world,-2.88687324524,-0.818315505981,0.798083782196,-0.702681899071,0.176248461008,-0.333461612463,0.603305995464
1555298072608155750,21604,1555298072608155750,world,-2.88691043854,-0.818290710449,0.798162698746,-0.702718257904,0.175948381424,-0.333171248436,0.603511571884
1555298072618599995,21605,1555298072618599995,world,-2.88691711426,-0.818280935287,0.798133134842,-0.702634036541,0.175794526935,-0.333083361387,0.603702962399
1555298072628967988,21606,1555298072628967988,world,-2.88689231873,-0.818296909332,0.798058986664,-0.702716171741,0.176363244653,-0.333638340235,0.60313475132
1555298072629006502,21607,1555298072629006502,world,-2.88684654236,-0.818272590637,0.798038959503,-0.70270627737,0.176718994975,-0.333313435316,0.603221833706
1555298072638268028,21608,1555298072638268028,world,-2.88691902161,-0.818260669708,0.798080921173,-0.702704906464,0.176393032074,-0.333593010902,0.603164196014
1555298072648554790,21609,1555298072648554790,world,-2.88689804077,-0.818196296692,0.7981133461,-0.702813625336,0.176261007786,-0.332987070084,0.603410959244
1555298072658836223,21610,1555298072658836223,world,-2.88689613342,-0.818204402924,0.798082113266,-0.702727794647,0.176396667957,-0.332916021347,0.603510439396
1555298072668048811,21611,1555298072668048811,world,-2.88695335388,-0.818211317062,0.79807138443,-0.702680885792,0.175971463323,-0.33325996995,0.603499293327
1555298072678326578,21612,1555298072678326578,world,-2.88690185547,-0.818192958832,0.798033714294,-0.702698409557,0.176333770156,-0.33334967494,0.603323638439
1555298072688602246,21613,1555298072688602246,world,-2.88695335388,-0.818196296692,0.798054218292,-0.702604115009,0.175944581628,-0.333344250917,0.60355001688
1555298072688640280,21614,1555298072688640280,world,-2.8868598938,-0.818237781525,0.798051357269,-0.702714681625,0.176727354527,-0.33351111412,0.603100299835
1555298072708183006,21615,1555298072708183006,world,-2.88692474365,-0.818234443665,0.798116445541,-0.70267277956,0.176077798009,-0.333322316408,0.603443264961
1555298072708228224,21616,1555298072708228224,world,-2.88688659668,-0.8182284832,0.798119068146,-0.702726602554,0.176336169243,-0.333163619041,0.603392839432
1555298072718674417,21617,1555298072718674417,world,-2.88684558868,-0.81828045845,0.798056602478,-0.702667593956,0.176175743341,-0.33397552371,0.603059470654
1555298072729065108,21618,1555298072729065108,world,-2.88689804077,-0.818298339844,0.798043966293,-0.702661812305,0.176094546914,-0.333662420511,0.603263258934
1555298072729133367,21619,1555298072729133367,world,-2.88688468933,-0.818305492401,0.798089265823,-0.702702999115,0.176319599152,-0.333699584007,0.603128910065
1555298072738561043,21620,1555298072738561043,world,-2.88688755035,-0.818307876587,0.798148870468,-0.702693939209,0.176197648048,-0.33355820179,0.603253364563
1555298072748927096,21621,1555298072748927096,world,-2.88687610626,-0.818335294724,0.798141717911,-0.702646493912,0.176187932491,-0.333495616913,0.60334610939
1555298072758329786,21622,1555298072758329786,world,-2.88686561584,-0.818238019943,0.798101902008,-0.702718138695,0.176389604807,-0.332996696234,0.603479087353
1555298072768787786,21623,1555298072768787786,world,-2.88689899445,-0.818244934082,0.798058986664,-0.702757000923,0.176099747419,-0.333254784346,0.603376090527
1555298072778058361,21624,1555298072778058361,world,-2.88690567017,-0.818244695663,0.798056364059,-0.702706456184,0.175891011953,-0.333147972822,0.603554904461
1555298072788396655,21625,1555298072788396655,world,-2.88695144653,-0.818219900131,0.798142433167,-0.702697813511,0.175683036447,-0.333038240671,0.603685975075
1555298072788469049,21626,1555298072788469049,world,-2.8869600296,-0.818212985992,0.798153162003,-0.702686011791,0.175775632262,-0.333262175322,0.603549182415
1555298072798762555,21627,1555298072798762555,world,-2.88694477081,-0.818243741989,0.798082590103,-0.702600300312,0.176130726933,-0.33343103528,0.603452324867
1555298072808055000,21628,1555298072808055000,world,-2.88686943054,-0.818215608597,0.798023462296,-0.702633976936,0.176746100187,-0.333643168211,0.603115737438
1555298072818513495,21629,1555298072818513495,world,-2.88686466217,-0.818192243576,0.798007965088,-0.702685594559,0.176754891872,-0.333262085915,0.603263616562
1555298072829769947,21630,1555298072829769947,world,-2.88686561584,-0.818227529526,0.798035144806,-0.702774405479,0.176659971476,-0.333346217871,0.603141486645
1555298072829797847,21631,1555298072829797847,world,-2.88698291779,-0.818170309067,0.798157453537,-0.702747225761,0.17564484477,-0.333141058683,0.603582799435
1555298072838985358,21632,1555298072838985358,world,-2.88698196411,-0.818220615387,0.798130750656,-0.702691018581,0.175906226039,-0.333389848471,0.603434979916
1555298072848200153,21633,1555298072848200153,world,-2.88697147369,-0.818220376968,0.798079490662,-0.70259308815,0.175757944584,-0.33353126049,0.60351395607
1555298072858519114,21634,1555298072858519114,world,-2.8869600296,-0.818233013153,0.79807305336,-0.702666044235,0.175851464272,-0.333390831947,0.603479385376
1555298072868821463,21635,1555298072868821463,world,-2.88691043854,-0.818269252777,0.798080921173,-0.702680528164,0.176203593612,-0.333547204733,0.603273332119
1555298072878070017,21636,1555298072878070017,world,-2.88695144653,-0.818219423294,0.798171043396,-0.70271974802,0.175557747483,-0.332927495241,0.603757977486
1555298072878196224,21637,1555298072878196224,world,-2.88691329956,-0.818252325058,0.798134803772,-0.702723503113,0.176085889339,-0.333376288414,0.603352069855
1555298072888472379,21638,1555298072888472379,world,-2.88691711426,-0.818243026733,0.798128604889,-0.702724933624,0.175962924957,-0.333255410194,0.603453159332
1555298072908349321,21639,1555298072908349321,world,-2.88687419891,-0.818255662918,0.798078775406,-0.702666580677,0.176171794534,-0.333452254534,0.60335123539
1555298072908393197,21640,1555298072908393197,world,-2.88688087463,-0.818245172501,0.798052310944,-0.702663242817,0.176286056638,-0.333650380373,0.603212237358
1555298072918763206,21641,1555298072918763206,world,-2.88688755035,-0.818231344223,0.798110723495,-0.702679872513,0.176073372364,-0.333344817162,0.603423833847
1555298072928033676,21642,1555298072928033676,world,-2.88690948486,-0.818248033524,0.798150539398,-0.702718317509,0.176004305482,-0.333244591951,0.603454709053
1555298072938510127,21643,1555298072938510127,world,-2.88689899445,-0.818261384964,0.798172473907,-0.702663660049,0.176167547703,-0.333426952362,0.603370010853
1555298072938552902,21644,1555298072938552902,world,-2.8868227005,-0.818258285522,0.798044204712,-0.702710747719,0.17675063014,-0.333424776793,0.603145778179
1555298072948993049,21645,1555298072948993049,world,-2.88679409027,-0.818274497986,0.797980070114,-0.702742695808,0.176971942186,-0.333491176367,0.603006780148
1555298072958441032,21646,1555298072958441032,world,-2.88688373566,-0.81828212738,0.798040151596,-0.702698945999,0.17632317543,-0.333670258522,0.603148937225
1555298072968887960,21647,1555298072968887960,world,-2.88692855835,-0.818317651749,0.798127889633,-0.702712595463,0.176283612847,-0.333725005388,0.603114247322
1555298072978233200,21648,1555298072978233200,world,-2.88689613342,-0.818251848221,0.798156499863,-0.702724933624,0.17616379261,-0.333000898361,0.603534936905
1555298072988687456,21649,1555298072988687456,world,-2.88694763184,-0.818252086639,0.798105478287,-0.702710449696,0.175866916776,-0.333212286234,0.603521704674
1555298072988728136,21650,1555298072988728136,world,-2.88697624207,-0.818227529526,0.798022270203,-0.702688336372,0.175763934851,-0.333197087049,0.603585898876
1555298072999141199,21651,1555298072999141199,world,-2.88689231873,-0.818228244781,0.798015594482,-0.702716112137,0.176403939724,-0.333200931549,0.603364706039
1555298073008584789,21652,1555298073008584789,world,-2.88692474365,-0.818213701248,0.798093795776,-0.702605307102,0.175940170884,-0.333236962557,0.603609204292
1555298073018969794,21653,1555298073018969794,world,-2.88695240021,-0.818202972412,0.798140764236,-0.702661514282,0.175914049149,-0.333436846733,0.603441059589
1555298073028407032,21654,1555298073028407032,world,-2.88690853119,-0.818126678467,0.798127889633,-0.702782213688,0.176014438272,-0.33287575841,0.603580832481
1555298073028448459,21655,1555298073028448459,world,-2.8867931366,-0.818157434464,0.798037052155,-0.702755093575,0.176397830248,-0.333368033171,0.603228747845
1555298073038819016,21656,1555298073038819016,world,-2.88685417175,-0.818197965622,0.798025846481,-0.702644824982,0.176436424255,-0.333752512932,0.603133261204
1555298073048063136,21657,1555298073048063136,world,-2.88681983948,-0.818219900131,0.798029661179,-0.702716350555,0.176960706711,-0.333696961403,0.602927029133
1555298073058521192,21658,1555298073058521192,world,-2.88688373566,-0.818214893341,0.7981569767,-0.702758729458,0.175945207477,-0.333110898733,0.603498637676
1555298073068975392,21659,1555298073068975392,world,-2.8868894577,-0.818241596222,0.798176527023,-0.702723741531,0.175824046135,-0.333170771599,0.603541612625
1555298073078383032,21660,1555298073078383032,world,-2.88691711426,-0.81824016571,0.798150062561,-0.702670812607,0.175846397877,-0.333361625671,0.603491306305
1555298073078424166,21661,1555298073078424166,world,-2.88686180115,-0.818279743195,0.79805970192,-0.702641963959,0.176127374172,-0.333577156067,0.603323936462
1555298073088828754,21662,1555298073088828754,world,-2.88676834106,-0.818346261978,0.798005342484,-0.702697992325,0.176505446434,-0.334317922592,0.6027379632
1555298073098079354,21663,1555298073098079354,world,-2.88677978516,-0.818277835846,0.798077821732,-0.702746212482,0.176474824548,-0.33316603303,0.603328108788
1555298073108419891,21664,1555298073108419891,world,-2.88688373566,-0.818292140961,0.798166751862,-0.702738463879,0.176230117679,-0.333508580923,0.60321944952
1555298073118808338,21665,1555298073118808338,world,-2.88694953918,-0.818243026733,0.798186302185,-0.702717125416,0.17571349442,-0.332978993654,0.603687405586
1555298073128089405,21666,1555298073128089405,world,-2.88687515259,-0.81831240654,0.79805970192,-0.702585101128,0.176504284143,-0.333790153265,0.603162229061
1555298073138495956,21667,1555298073138495956,world,-2.88689994812,-0.818267345428,0.798026800156,-0.702572405338,0.176163509488,-0.333508640528,0.603432297707
1555298073138536524,21668,1555298073138536524,world,-2.88692474365,-0.818254470825,0.79806804657,-0.702594339848,0.176251724362,-0.33365765214,0.603298544884
1555298073148859482,21669,1555298073148859482,world,-2.88696098328,-0.818209886551,0.798160791397,-0.702709555626,0.17591330409,-0.333248466253,0.603489100933
1555298073158111298,21670,1555298073158111298,world,-2.88696289062,-0.818155288696,0.798176288605,-0.702687323093,0.175719514489,-0.332955628633,0.603733181953
1555298073168458158,21671,1555298073168458158,world,-2.88687229156,-0.81822347641,0.798061609268,-0.702708363533,0.176319569349,-0.33377084136,0.603083312511
1555298073178826852,21672,1555298073178826852,world,-2.88686752319,-0.818232297897,0.798027515411,-0.70267534256,0.176298439503,-0.333841443062,0.603088855743
1555298073188155600,21673,1555298073188155600,world,-2.88688182831,-0.818217277527,0.798042297363,-0.702744543552,0.176165238023,-0.333731085062,0.603108286858
1555298073188209762,21674,1555298073188209762,world,-2.88690853119,-0.818216562271,0.79812335968,-0.702681183815,0.175967365503,-0.333216041327,0.603524386883
1555298073198589759,21675,1555298073198589759,world,-2.88691329956,-0.818232536316,0.798179388046,-0.702712118626,0.175820603967,-0.332981020212,0.603660941124
1555298073208967759,21676,1555298073208967759,world,-2.88687324524,-0.818256616592,0.798134803772,-0.702744483948,0.176130235195,-0.333312511444,0.603349924088
1555298073218399698,21677,1555298073218399698,world,-2.88683223724,-0.818313360214,0.798064947128,-0.702678203583,0.176612615585,-0.334046959877,0.60287976265
1555298073228749648,21678,1555298073228749648,world,-2.88683319092,-0.818305969238,0.798025608063,-0.702588379383,0.176478102803,-0.33380189538,0.603159546852
1555298073228797936,21679,1555298073228797936,world,-2.88680648804,-0.818247795105,0.79804444313,-0.702667474747,0.176495432854,-0.333132624626,0.603432178497
1555298073238110363,21680,1555298073238110363,world,-2.88682842255,-0.818201541901,0.798151731491,-0.70277261734,0.176231980324,-0.332461237907,0.603756964207
1555298073248561675,21681,1555298073248561675,world,-2.88690948486,-0.818218231201,0.798185110092,-0.702739477158,0.175725102425,-0.332811713219,0.603750288486
1555298073259008739,21682,1555298073259008739,world,-2.886926651,-0.818218231201,0.798139333725,-0.702692091465,0.175846770406,-0.333445221186,0.603420376778
1555298073268459137,21683,1555298073268459137,world,-2.88688564301,-0.818258047104,0.798018217087,-0.702708721161,0.17613363266,-0.333565831184,0.60325050354
1555298073278860552,21684,1555298073278860552,world,-2.88690090179,-0.818257570267,0.797985315323,-0.702616691589,0.17621165514,-0.33359336853,0.603319644928
1555298073278899092,21685,1555298073278899092,world,-2.88692855835,-0.818235635757,0.798094034195,-0.702646613121,0.176132291555,-0.333460897207,0.603381335735
1555298073288258932,21686,1555298073288258932,world,-2.88694477081,-0.818257331848,0.798176050186,-0.702758133411,0.175893619657,-0.333343297243,0.603386044502
1555298073298694653,21687,1555298073298694653,world,-2.88691711426,-0.818265199661,0.798148155212,-0.702712833881,0.176024153829,-0.333304435015,0.603422284126
1555298073309143955,21688,1555298073309143955,world,-2.88689231873,-0.818246603012,0.79803776741,-0.702652931213,0.176009356976,-0.333572983742,0.603348016739
1555298073318881732,21689,1555298073318881732,world,-2.88684940338,-0.818222999573,0.797947406769,-0.702671289444,0.176474869251,-0.333485126495,0.603239059448
1555298073328313604,21690,1555298073328313604,world,-2.88689613342,-0.818221569061,0.798073768616,-0.702641785145,0.175932660699,-0.333338052034,0.603513121605
1555298073328351915,21691,1555298073328351915,world,-2.88690185547,-0.818246603012,0.798200368881,-0.702675104141,0.17582988739,-0.333149909973,0.603608131409
1555298073338740182,21692,1555298073338740182,world,-2.88691139221,-0.818235397339,0.798190832138,-0.702793776989,0.17570798099,-0.333123058081,0.603520333767
1555298073349089787,21693,1555298073349089787,world,-2.88689041138,-0.818220853806,0.798075199127,-0.702750444412,0.175942361355,-0.333212733269,0.603452920914
1555298073358536246,21694,1555298073358536246,world,-2.88685798645,-0.818257331848,0.798014163971,-0.702650606632,0.176327958703,-0.333643466234,0.60321867466
1555298073369004688,21695,1555298073369004688,world,-2.88686847687,-0.818239212036,0.798070669174,-0.702634632587,0.176137402654,-0.333335906267,0.603462815285
1555298073378336574,21696,1555298073378336574,world,-2.88691520691,-0.818198680878,0.798185110092,-0.702692210674,0.175701841712,-0.332798928022,0.603819072247
1555298073378380723,21697,1555298073378380723,world,-2.88691997528,-0.818208456039,0.79819893837,-0.702724099159,0.175580173731,-0.332825273275,0.603802859783
1555298073388697583,21698,1555298073388697583,world,-2.88690567017,-0.818212747574,0.798096895218,-0.702695131302,0.175548195839,-0.333018779755,0.603739082813
1555298073399043672,21699,1555298073399043672,world,-2.88690376282,-0.818223953247,0.798015832901,-0.702666521072,0.176031589508,-0.333605766296,0.603307545185
1555298073408545946,21700,1555298073408545946,world,-2.88690662384,-0.818237781525,0.798055887222,-0.702675163746,0.1759249717,-0.333410531282,0.603436350822
1555298073418984607,21701,1555298073418984607,world,-2.88684368134,-0.818236589432,0.798085212708,-0.70277172327,0.176387324929,-0.33308365941,0.60336959362
1555298073428401056,21702,1555298073428401056,world,-2.88687610626,-0.818178415298,0.798129558563,-0.702778160572,0.176287963986,-0.332687407732,0.603609681129
1555298073428469599,21703,1555298073428469599,world,-2.88687610626,-0.81817817688,0.798083543777,-0.702697813511,0.176314428449,-0.332782536745,0.603643059731
1555298073438911104,21704,1555298073438911104,world,-2.88685703278,-0.818227767944,0.798023700714,-0.702771961689,0.176572039723,-0.3330283463,0.603345751762
1555298073448331216,21705,1555298073448331216,world,-2.88686561584,-0.818240642548,0.798051834106,-0.702750861645,0.176456078887,-0.333256334066,0.603278338909
1555298073458747285,21706,1555298073458747285,world,-2.88695144653,-0.818233966827,0.798096656799,-0.702665507793,0.17580460012,-0.333421200514,0.603476941586
1555298073468054308,21707,1555298073468054308,world,-2.88697147369,-0.818211317062,0.798139095306,-0.702674388885,0.175501227379,-0.333130121231,0.603715419769
1555298073478396071,21708,1555298073478396071,world,-2.88692855835,-0.818250417709,0.798115968704,-0.702645421028,0.175713807344,-0.333483427763,0.603492200375
1555298073478475091,21709,1555298073478475091,world,-2.88690757751,-0.818279981613,0.798069477081,-0.702656805515,0.176348462701,-0.333914071321,0.603055596352
1555298073488795738,21710,1555298073488795738,world,-2.88691329956,-0.818251371384,0.798079252243,-0.702693760395,0.176128700376,-0.333583384752,0.603259682655
1555298073498066212,21711,1555298073498066212,world,-2.88690567017,-0.818253755569,0.798069238663,-0.70265173912,0.175973951817,-0.333442091942,0.603431940079
1555298073508358781,21712,1555298073508358781,world,-2.88691329956,-0.818235397339,0.798109769821,-0.70259642601,0.175817906857,-0.333169221878,0.603692531586
1555298073518668879,21713,1555298073518668879,world,-2.88694572449,-0.818184137344,0.798159360886,-0.702662587166,0.175658851862,-0.332925528288,0.603796184063
1555298073528948796,21714,1555298073528948796,world,-2.88694572449,-0.818215370178,0.79814696312,-0.702624797821,0.175765693188,-0.333048820496,0.603741168976
1555298073528983996,21715,1555298073528983996,world,-2.88691711426,-0.8182117939,0.798075199127,-0.702737867832,0.175965026021,-0.333372980356,0.603372454643
1555298073538253379,21716,1555298073538253379,world,-2.88691329956,-0.818215847015,0.798078536987,-0.702719867229,0.176091000438,-0.333380430937,0.603352487087
1555298073548578308,21717,1555298073548578308,world,-2.8869228363,-0.818203926086,0.798114061356,-0.702732622623,0.175922825933,-0.33323803544,0.603465437889
1555298073558902594,21718,1555298073558902594,world,-2.88690948486,-0.818215847015,0.798122644424,-0.70267701149,0.176092803478,-0.333339571953,0.603424549103
1555298073568310593,21719,1555298073568310593,world,-2.88683319092,-0.818217992783,0.798103570938,-0.702782690525,0.176743522286,-0.333215743303,0.603179574013
1555298073578709351,21720,1555298073578709351,world,-2.88684749603,-0.818254232407,0.798046350479,-0.702745199203,0.176533997059,-0.333735823631,0.60299706459
1555298073578754389,21721,1555298073578754389,world,-2.88689422607,-0.818235635757,0.798063755035,-0.702736675739,0.176026776433,-0.333674937487,0.603188872337
1555298073588008803,21722,1555298073588008803,world,-2.88694953918,-0.818186044693,0.798140764236,-0.702688336372,0.175729840994,-0.333201617002,0.603593289852
1555298073598414889,21723,1555298073598414889,world,-2.88694858551,-0.818234205246,0.798143625259,-0.70269459486,0.175976023078,-0.333220213652,0.603504121304
1555298073608872264,21724,1555298073608872264,world,-2.88693714142,-0.81821680069,0.798139572144,-0.702668309212,0.175752133131,-0.333087056875,0.603673398495
1555298073618270845,21725,1555298073618270845,world,-2.88685512543,-0.818239688873,0.798030376434,-0.702714264393,0.176461473107,-0.333222061396,0.603338360786
1555298073628675907,21726,1555298073628675907,world,-2.88687515259,-0.818222999573,0.798021316528,-0.702809095383,0.17603623867,-0.333335042,0.603289604187
1555298073639075137,21727,1555298073639075137,world,-2.88690185547,-0.818243741989,0.798108577728,-0.70271396637,0.175791323185,-0.333292126656,0.603495597839
1555298073639117125,21728,1555298073639117125,world,-2.8868637085,-0.818206071854,0.798135757446,-0.70275169611,0.17617239058,-0.333036094904,0.603481888771
1555298073648378865,21729,1555298073648378865,world,-2.88682746887,-0.818224668503,0.798096179962,-0.702800631523,0.17641249299,-0.333154886961,0.603289067745
1555298073658777009,21730,1555298073658777009,world,-2.88680934906,-0.818235635757,0.79803609848,-0.702766060829,0.176671594381,-0.333054035902,0.603309333324
1555298073668092877,21731,1555298073668092877,world,-2.88688468933,-0.818250417709,0.798075914383,-0.702736973763,0.176067203283,-0.333299845457,0.60338395834
1555298073678560181,21732,1555298073678560181,world,-2.88690376282,-0.8182721138,0.798123598099,-0.702677965164,0.175995290279,-0.33344078064,0.603395938873
1555298073688975508,21733,1555298073688975508,world,-2.88691711426,-0.818254232407,0.798134326935,-0.70260310173,0.175706684589,-0.333424091339,0.603576421738
1555298073689014115,21734,1555298073689014115,world,-2.88692760468,-0.818238258362,0.798107147217,-0.702663123608,0.17577688396,-0.333338588476,0.603533446789
1555298073698480728,21735,1555298073698480728,world,-2.88684844971,-0.818232774734,0.798048257828,-0.70269536972,0.176514983177,-0.33333325386,0.603283166885
1555298073708938294,21736,1555298073708938294,world,-2.88685894012,-0.818270683289,0.798082351685,-0.70268124342,0.176362499595,-0.33353433013,0.603233277798
1555298073718289228,21737,1555298073718289228,world,-2.88687038422,-0.818270921707,0.798075914383,-0.702727079391,0.176169157028,-0.333552837372,0.603225946426
1555298073728631981,21738,1555298073728631981,world,-2.88692569733,-0.818224668503,0.798090934753,-0.702677488327,0.175813376904,-0.333104491234,0.603635311127
1555298073739028801,21739,1555298073739028801,world,-2.88692474365,-0.818246126175,0.798088788986,-0.702685415745,0.176007345319,-0.333397299051,0.603407740593
1555298073739065092,21740,1555298073739065092,world,-2.88688278198,-0.818222522736,0.798088788986,-0.702736854553,0.176317453384,-0.333107948303,0.603417158127
1555298073748433184,21741,1555298073748433184,world,-2.88690853119,-0.818252563477,0.798101425171,-0.702672183514,0.176111325622,-0.333355516195,0.603415906429
1555298073758885921,21742,1555298073758885921,world,-2.88692951202,-0.818242549896,0.79808807373,-0.702614545822,0.175956010818,-0.333442091942,0.603480577469
1555298073768344998,21743,1555298073768344998,world,-2.88693618774,-0.81823348999,0.798067331314,-0.702691376209,0.175975397229,-0.333468347788,0.603370785713
1555298073778776112,21744,1555298073778776112,world,-2.88693237305,-0.818223953247,0.798114776611,-0.702695131302,0.17596077919,-0.333413124084,0.603401184082
1555298073778845441,21745,1555298073778845441,world,-2.88691234589,-0.818262338638,0.798114299774,-0.702689528465,0.176111727953,-0.333647578955,0.603233993053
1555298073788111258,21746,1555298073788111258,world,-2.88685512543,-0.818266868591,0.798082351685,-0.702805280685,0.175874590874,-0.333966732025,0.602991878986
1555298073798519483,21747,1555298073798519483,world,-2.88691711426,-0.818215847015,0.798079490662,-0.702708482742,0.175770938396,-0.333417892456,0.60343837738
1555298073808817332,21748,1555298073808817332,world,-2.88691616058,-0.818242549896,0.79806637764,-0.702699422836,0.175992131233,-0.333510875702,0.603332996368
1555298073818096450,21749,1555298073818096450,world,-2.8869304657,-0.818212032318,0.798128843307,-0.702722907066,0.175802856684,-0.3330257833,0.60362881422
1555298073828391356,21750,1555298073828391356,world,-2.88692760468,-0.818224668503,0.798121213913,-0.702651798725,0.176058426499,-0.333241015673,0.603518366814
1555298073828464449,21751,1555298073828464449,world,-2.88691997528,-0.8182117939,0.798113107681,-0.702705204487,0.175940409303,-0.333151012659,0.603540301323
1555298073838808347,21752,1555298073838808347,world,-2.88691043854,-0.818208456039,0.798065423965,-0.70272231102,0.175900399685,-0.333313703537,0.603442192078
1555298073848086023,21753,1555298073848086023,world,-2.88693237305,-0.818195581436,0.798098087311,-0.702708959579,0.175844311714,-0.333299994469,0.603481531143
1555298073858468969,21754,1555298073858468969,world,-2.88687896729,-0.818190813065,0.798111200333,-0.702751040459,0.17569360137,-0.333667367697,0.603273332119
1555298073868903089,21755,1555298073868903089,world,-2.88691997528,-0.818197011948,0.798117876053,-0.702695012093,0.17589905858,-0.333536952734,0.603350877762
1555298073878321722,21756,1555298073878321722,world,-2.88694381714,-0.818182945251,0.798099994659,-0.702641367912,0.175961047411,-0.333337396383,0.603505551815
1555298073888656878,21757,1555298073888656878,world,-2.88691043854,-0.818215370178,0.798084259033,-0.702700376511,0.176187217236,-0.333437681198,0.603315591812
1555298073888698869,21758,1555298073888698869,world,-2.88689422607,-0.818254947662,0.798084497452,-0.702739059925,0.176467612386,-0.333554297686,0.603124022484
1555298073899080759,21759,1555298073899080759,world,-2.88693523407,-0.818198442459,0.798123121262,-0.702687978745,0.17600107193,-0.333356022835,0.603429317474
1555298073908471107,21760,1555298073908471107,world,-2.88691425323,-0.818218708038,0.798101902008,-0.702719151974,0.176160141826,-0.333521932364,0.603254973888
1555298073918883693,21761,1555298073918883693,world,-2.88692474365,-0.818219661713,0.798091411591,-0.702682673931,0.176107391715,-0.333370894194,0.603396356106
1555298073928289150,21762,1555298073928289150,world,-2.88688468933,-0.818250656128,0.798087835312,-0.702717483044,0.176316544414,-0.333575457335,0.603181779385
1555298073928331201,21763,1555298073928331201,world,-2.88693618774,-0.818236589432,0.798121929169,-0.702655732632,0.176010355353,-0.333473414183,0.603399455547
1555298073938732330,21764,1555298073938732330,world,-2.88691520691,-0.81822180748,0.798115730286,-0.702684700489,0.176077738404,-0.333467274904,0.603349328041
1555298073948013278,21765,1555298073948013278,world,-2.88683986664,-0.818210840225,0.798053979874,-0.702721178532,0.176453962922,-0.333020597696,0.603443741798
1555298073958421415,21766,1555298073958421415,world,-2.88687515259,-0.818225383759,0.798081159592,-0.702647566795,0.176293939352,-0.333398789167,0.603367269039
1555298073968814885,21767,1555298073968814885,world,-2.88682842255,-0.818211078644,0.798091173172,-0.702732622623,0.176538363099,-0.333269506693,0.603268265724
1555298073978104707,21768,1555298073978104707,world,-2.88684368134,-0.818220615387,0.798101663589,-0.702736973763,0.176572710276,-0.333042353392,0.603378474712
1555298073978159276,21769,1555298073978159276,world,-2.886926651,-0.8181848526,0.798146247864,-0.702652990818,0.175665095448,-0.333044558764,0.603739857674
1555298073988545360,21770,1555298073988545360,world,-2.88693523407,-0.818223953247,0.798080682755,-0.702588617802,0.175867155194,-0.333414942026,0.603551506996
1555298073998907679,21771,1555298073998907679,world,-2.88685798645,-0.818198442459,0.798051595688,-0.702730894089,0.17635846138,-0.333010673523,0.603465795517
1555298074008285530,21772,1555298074008285530,world,-2.88690471649,-0.81823182106,0.798065662384,-0.70266520977,0.176208525896,-0.333544701338,0.603290975094
1555298074018740092,21773,1555298074018740092,world,-2.88698482513,-0.818186759949,0.798146009445,-0.702667236328,0.17534327507,-0.332851052284,0.603923559189
1555298074028021747,21774,1555298074028021747,world,-2.88695907593,-0.818203210831,0.798143625259,-0.702776908875,0.175659775734,-0.333028435707,0.60360622406
1555298074038389085,21775,1555298074038389085,world,-2.88690090179,-0.818256378174,0.79807806015,-0.702735304832,0.17618432641,-0.333701342344,0.603129804134
1555298074038427384,21776,1555298074038427384,world,-2.88690662384,-0.818245172501,0.798055410385,-0.70271807909,0.176142349839,-0.333759337664,0.603130221367
1555298074048894046,21777,1555298074048894046,world,-2.88689804077,-0.818254470825,0.798071861267,-0.702683210373,0.176210522652,-0.333810448647,0.603122472763
1555298074058338327,21778,1555298074058338327,world,-2.88693237305,-0.818249225616,0.798122406006,-0.70274335146,0.176003351808,-0.333327680826,0.603379786015
1555298074068788329,21779,1555298074068788329,world,-2.88692188263,-0.818251132965,0.798120260239,-0.702662527561,0.176131382585,-0.33332362771,0.603438913822
1555298074078084587,21780,1555298074078084587,world,-2.88691997528,-0.818232774734,0.798109769821,-0.702629387379,0.176047280431,-0.333439737558,0.603437781334
1555298074078137713,21781,1555298074078137713,world,-2.8868522644,-0.81822013855,0.798057556152,-0.702746510506,0.176446944475,-0.333303660154,0.603259980679
1555298074088541701,21782,1555298074088541701,world,-2.88682174683,-0.818232536316,0.798038244247,-0.702826082706,0.176517263055,-0.333135634661,0.603239417076
1555298074098890794,21783,1555298074098890794,world,-2.88689422607,-0.818204641342,0.798083543777,-0.702668964863,0.176002278924,-0.333371549845,0.603442549706
1555298074108242076,21784,1555298074108242076,world,-2.88690376282,-0.81823182106,0.798132181168,-0.702681720257,0.176033183932,-0.33348724246,0.603354871273
1555298074118520315,21785,1555298074118520315,world,-2.88690757751,-0.818223953247,0.798124074936,-0.702694654465,0.175713896751,-0.333114624023,0.603638648987
1555298074128858830,21786,1555298074128858830,world,-2.88685894012,-0.818199157715,0.798075199127,-0.702685117722,0.176319539547,-0.333086490631,0.603488683701
1555298074138283049,21787,1555298074138283049,world,-2.88682746887,-0.818209409714,0.798018455505,-0.702724814415,0.176112741232,-0.33392688632,0.603038012981
1555298074138325122,21788,1555298074138325122,world,-2.88684749603,-0.818272590637,0.798042535782,-0.702705919743,0.176218882203,-0.333767443895,0.603117346764
1555298074148654391,21789,1555298074148654391,world,-2.88693523407,-0.818217039108,0.798141956329,-0.702680587769,0.175754606724,-0.333105325699,0.60364818573
1555298074158999880,21790,1555298074158999880,world,-2.88692188263,-0.818222999573,0.798129558563,-0.702693760395,0.176077499986,-0.333316236734,0.603422284126
1555298074168463700,21791,1555298074168463700,world,-2.88683986664,-0.818223714828,0.798100709915,-0.702782809734,0.17652104795,-0.333156079054,0.603277623653
1555298074178858145,21792,1555298074178858145,world,-2.88681983948,-0.818234920502,0.798028469086,-0.702737152576,0.176840260625,-0.333217650652,0.603203177452
1555298074178899357,21793,1555298074178899357,world,-2.88691043854,-0.818212032318,0.798085212708,-0.702663660049,0.176099300385,-0.333213329315,0.603507757187
1555298074188254062,21794,1555298074188254062,world,-2.88692092896,-0.818243265152,0.798099040985,-0.702746808529,0.175852045417,-0.333307832479,0.6034309268
1555298074198700409,21795,1555298074198700409,world,-2.88687038422,-0.818216323853,0.798095464706,-0.702807128429,0.176306530833,-0.333052843809,0.603368937969
1555298074209100062,21796,1555298074209100062,world,-2.88684177399,-0.818224430084,0.798103094101,-0.702782392502,0.175886869431,-0.333733081818,0.603144168854
1555298074218548630,21797,1555298074218548630,world,-2.8868522644,-0.818217992783,0.798090696335,-0.702740013599,0.17632098496,-0.333375245333,0.603264689445
1555298074228931453,21798,1555298074228931453,world,-2.88690280914,-0.81823015213,0.798082828522,-0.702707111835,0.176025047898,-0.333547145128,0.603294491768
1555298074228974711,21799,1555298074228974711,world,-2.88689517975,-0.818236112595,0.79807972908,-0.702659845352,0.175985276699,-0.333287715912,0.603504419327
1555298074238432816,21800,1555298074238432816,world,-2.8868970871,-0.818242549896,0.798083305359,-0.702681720257,0.176195368171,-0.333526462317,0.603285729885
1555298074248853749,21801,1555298074248853749,world,-2.88693714142,-0.818177461624,0.798164367676,-0.702683269978,0.175778761506,-0.333156138659,0.603609919548
1555298074258131631,21802,1555298074258131631,world,-2.8868598938,-0.818203210831,0.798121929169,-0.70274668932,0.175593689084,-0.333564430475,0.60336458683
1555298074268588659,21803,1555298074268588659,world,-2.88688468933,-0.818196773529,0.798109292984,-0.702637672424,0.175957560539,-0.333423852921,0.603463172913
1555298074278966833,21804,1555298074278966833,world,-2.88688182831,-0.818198204041,0.798085451126,-0.702629327774,0.175942480564,-0.333507537842,0.603430986404
1555298074279008532,21805,1555298074279008532,world,-2.88681411743,-0.81816983223,0.798062801361,-0.702714323997,0.176335543394,-0.332947939634,0.603526294231
1555298074298713144,21806,1555298074298713144,world,-2.88678073883,-0.818206548691,0.798104524612,-0.702769815922,0.17677052319,-0.333070904016,0.603266596794
1555298074298764141,21807,1555298074298764141,world,-2.88681507111,-0.818256855011,0.798123598099,-0.702768683434,0.176522523165,-0.333549112082,0.603076159954
1555298074309085601,21808,1555298074309085601,world,-2.88687610626,-0.818228006363,0.798146724701,-0.702741980553,0.175974220037,-0.333414882421,0.603341758251
1555298074318732988,21809,1555298074318732988,world,-2.88688850403,-0.818201780319,0.798111200333,-0.702645599842,0.175911203027,-0.333154708147,0.603616118431
1555298074329073296,21810,1555298074329073296,world,-2.88685417175,-0.818243980408,0.798073530197,-0.702689945698,0.17618919909,-0.333736211061,0.603161931038
1555298074338417656,21811,1555298074338417656,world,-2.88687896729,-0.818224191666,0.798099517822,-0.702671527863,0.175982534885,-0.3333735466,0.603444337845
1555298074338462423,21812,1555298074338462423,world,-2.88686752319,-0.818251371384,0.798113107681,-0.702754676342,0.176082000136,-0.333348721266,0.603332221508
1555298074348739028,21813,1555298074348739028,world,-2.88690280914,-0.81821513176,0.798168897629,-0.702777266502,0.175767213106,-0.333192437887,0.603483855724
1555298074359040420,21814,1555298074359040420,world,-2.88689422607,-0.818225860596,0.798124313354,-0.702757894993,0.175923421979,-0.333310514688,0.603395819664
1555298074368382345,21815,1555298074368382345,world,-2.88687992096,-0.818219423294,0.798102378845,-0.702684521675,0.176277786493,-0.333520740271,0.603261649609
1555298074378823137,21816,1555298074378823137,world,-2.88680744171,-0.818183660507,0.798082113266,-0.702805280685,0.176602244377,-0.333121657372,0.603246510029
1555298074378876920,21817,1555298074378876920,world,-2.88684654236,-0.818207263947,0.7980864048,-0.702674984932,0.176449149847,-0.333510130644,0.603228509426
1555298074388067479,21818,1555298074388067479,world,-2.88687324524,-0.818208694458,0.798128843307,-0.702667534351,0.176130726933,-0.333591490984,0.603285193443
1555298074398523155,21819,1555298074398523155,world,-2.88687038422,-0.818245172501,0.798132419586,-0.70261412859,0.176061883569,-0.333416134119,0.603464484215
1555298074408969456,21820,1555298074408969456,world,-2.88688850403,-0.818253040314,0.798110485077,-0.702660501003,0.175921425223,-0.33322891593,0.603554904461
1555298074418331317,21821,1555298074418331317,world,-2.88685417175,-0.818295717239,0.798105239868,-0.702690303326,0.176323398948,-0.333593338728,0.603201329708
1555298074428659741,21822,1555298074428659741,world,-2.88686847687,-0.818261861801,0.798084259033,-0.702745378017,0.175989493728,-0.333206862211,0.603448331356
1555298074428700390,21823,1555298074428700390,world,-2.88678836823,-0.818294286728,0.798050403595,-0.70287001133,0.1766667068,-0.333165615797,0.603127896786
1555298074448374175,21824,1555298074448374175,world,-2.88686180115,-0.818274736404,0.798147678375,-0.70279443264,0.175915032625,-0.333015650511,0.603518426418
1555298074448424326,21825,1555298074448424326,world,-2.88682937622,-0.81827712059,0.798139333725,-0.702768683434,0.17664501071,-0.333098620176,0.603289306164
1555298074458748456,21826,1555298074458748456,world,-2.88690090179,-0.818213224411,0.798147201538,-0.702627778053,0.176079005003,-0.333187311888,0.603569924831
1555298074468066673,21827,1555298074468066673,world,-2.88687992096,-0.818233966827,0.798046588898,-0.702690899372,0.176091566682,-0.333555608988,0.603289246559
1555298074478504216,21828,1555298074478504216,world,-2.88686084747,-0.818271636963,0.798045396805,-0.702633857727,0.176409125328,-0.333828091621,0.603112220764
1555298074488925628,21829,1555298074488925628,world,-2.88689613342,-0.818223953247,0.798145294189,-0.702698290348,0.176077976823,-0.333527952433,0.603299975395
1555298074488962866,21830,1555298074488962866,world,-2.88690757751,-0.818239212036,0.798137426376,-0.702709496021,0.1758813411,-0.333397060633,0.60341656208
1555298074498395717,21831,1555298074498395717,world,-2.88681793213,-0.818224191666,0.798089027405,-0.702800869942,0.176367551088,-0.333209007978,0.603272140026
1555298074508845711,21832,1555298074508845711,world,-2.8868227005,-0.81821680069,0.798066139221,-0.702762722969,0.176590353251,-0.333115309477,0.603303134441
1555298074518170495,21833,1555298074518170495,world,-2.88687705994,-0.818238735199,0.798082351685,-0.702695906162,0.176004007459,-0.333218127489,0.603495419025
1555298074528568666,21834,1555298074528568666,world,-2.88687419891,-0.818276882172,0.798122167587,-0.702688217163,0.176069438457,-0.333461880684,0.603350639343
1555298074528603522,21835,1555298074528603522,world,-2.88687610626,-0.818271398544,0.798114061356,-0.702699422836,0.176157534122,-0.333384990692,0.603354454041
1555298074539042569,21836,1555298074539042569,world,-2.88683223724,-0.818236351013,0.798084259033,-0.702711343765,0.176519453526,-0.333129763603,0.603375673294
1555298074548506526,21837,1555298074548506526,world,-2.88686275482,-0.81826877594,0.798108816147,-0.702600777149,0.176144137979,-0.333252102137,0.603546500206
1555298074558965372,21838,1555298074558965372,world,-2.88688087463,-0.818288326263,0.798097610474,-0.702613532543,0.176078543067,-0.333425015211,0.603455483913
1555298074568374742,21839,1555298074568374742,world,-2.88687419891,-0.818224668503,0.798129558563,-0.702715873718,0.176246225834,-0.332906126976,0.603573799133
1555298074578784728,21840,1555298074578784728,world,-2.88687801361,-0.818272829056,0.798089504242,-0.702673196793,0.176113247871,-0.333263635635,0.603464841843
1555298074578819934,21841,1555298074578819934,world,-2.88688468933,-0.818281173706,0.798091173172,-0.702731072903,0.176054224372,-0.333368271589,0.60335701704
1555298074588085457,21842,1555298074588085457,world,-2.88687038422,-0.818241357803,0.798102617264,-0.70273566246,0.17585337162,-0.333841085434,0.603148698807
1555298074598536315,21843,1555298074598536315,world,-2.88685894012,-0.818304300308,0.798102140427,-0.702662527561,0.176289156079,-0.333827883005,0.603114008904
1555298074608938354,21844,1555298074608938354,world,-2.88687324524,-0.818256378174,0.798125743866,-0.702641546726,0.175949886441,-0.333254724741,0.603554368019
1555298074618398815,21845,1555298074618398815,world,-2.88690280914,-0.818232059479,0.798099756241,-0.702621042728,0.175928011537,-0.333179503679,0.603626072407
1555298074628720283,21846,1555298074628720283,world,-2.88691711426,-0.81822681427,0.798120498657,-0.70269626379,0.175901934505,-0.333332628012,0.603461682796
1555298074639056729,21847,1555298074639056729,world,-2.88689804077,-0.818241596222,0.798145055771,-0.702678740025,0.176054134965,-0.333376199007,0.603413403034
1555298074639130028,21848,1555298074639130028,world,-2.88688182831,-0.818208694458,0.798133134842,-0.702728331089,0.176088109612,-0.333349972963,0.603360295296
1555298074648450685,21849,1555298074648450685,world,-2.88688087463,-0.818217754364,0.798080444336,-0.702696859837,0.175984814763,-0.333320647478,0.603443443775
1555298074658858611,21850,1555298074658858611,world,-2.88684463501,-0.818274021149,0.798076152802,-0.702698647976,0.176150903106,-0.333443135023,0.603325068951
1555298074668262381,21851,1555298074668262381,world,-2.88685894012,-0.818253278732,0.79811835289,-0.702683985233,0.175935938954,-0.333125144243,0.603580594063
1555298074678610544,21852,1555298074678610544,world,-2.88682174683,-0.818301916122,0.798107862473,-0.702708661556,0.176292225718,-0.333366841078,0.603314340115
1555298074678704327,21853,1555298074678704327,world,-2.88686561584,-0.818267583847,0.798108816147,-0.70267868042,0.175997555256,-0.333268284798,0.603489637375
1555298074688975010,21854,1555298074688975010,world,-2.88680171967,-0.818265914917,0.798066854477,-0.7027733922,0.175936058164,-0.333641678095,0.603191018105
1555298074698259832,21855,1555298074698259832,world,-2.88683986664,-0.818290710449,0.798061609268,-0.702680766582,0.176267370582,-0.333701461554,0.6031691432
1555298074708588638,21856,1555298074708588638,world,-2.8868598938,-0.818291902542,0.798096179962,-0.702728271484,0.176218748093,-0.333354949951,0.603319406509
1555298074718943275,21857,1555298074718943275,world,-2.8868970871,-0.818272590637,0.798124074936,-0.70269536972,0.176049053669,-0.33303809166,0.603582382202
1555298074728278049,21858,1555298074728278049,world,-2.88684272766,-0.81825709343,0.798109531403,-0.702755570412,0.176453441381,-0.332930296659,0.603453576565
1555298074728349132,21859,1555298074728349132,world,-2.8869228363,-0.818241357803,0.798126459122,-0.702694952488,0.175903990865,-0.332924515009,0.603687644005
1555298074738693391,21860,1555298074738693391,world,-2.88692474365,-0.818253517151,0.798070192337,-0.702667117119,0.176130503416,-0.333359092474,0.603414237499
1555298074749002632,21861,1555298074749002632,world,-2.88685321808,-0.818259239197,0.798053264618,-0.702766656876,0.176473915577,-0.333165407181,0.603304862976
1555298074758402898,21862,1555298074758402898,world,-2.88689899445,-0.818243265152,0.798073291779,-0.702662348747,0.176104992628,-0.333245128393,0.603490054607
1555298074768943899,21863,1555298074768943899,world,-2.88688659668,-0.818279504776,0.798106193542,-0.702668190002,0.176158666611,-0.333614826202,0.603263378143
1555298074778403504,21864,1555298074778403504,world,-2.88690376282,-0.818271636963,0.798154115677,-0.702628910542,0.175993993878,-0.333482891321,0.603430151939
1555298074778471521,21865,1555298074778471521,world,-2.88684749603,-0.818245887756,0.798081636429,-0.702689409256,0.176366984844,-0.333083748817,0.603471279144
1555298074788781000,21866,1555298074788781000,world,-2.88679790497,-0.818221330643,0.798025369644,-0.702720701694,0.176698282361,-0.333260208368,0.60324037075
1555298074798091758,21867,1555298074798091758,world,-2.88685321808,-0.818255901337,0.798057556152,-0.702637732029,0.176370456815,-0.333496600389,0.603302359581
1555298074808567177,21868,1555298074808567177,world,-2.88682746887,-0.818266391754,0.798125982285,-0.702697515488,0.175865590572,-0.333879232407,0.603168547153
1555298074819043843,21869,1555298074819043843,world,-2.88688659668,-0.818254947662,0.798177480698,-0.70269548893,0.175743430853,-0.333487004042,0.603423297405
1555298074828400182,21870,1555298074828400182,world,-2.88688564301,-0.818246364594,0.798126220703,-0.70261746645,0.175971880555,-0.333668142557,0.603347420692
1555298074828468182,21871,1555298074828468182,world,-2.88687133789,-0.818237781525,0.798078775406,-0.702663302422,0.176072388887,-0.333249419928,0.60349625349
1555298074838799407,21872,1555298074838799407,world,-2.88686466217,-0.818262338638,0.798069477081,-0.702712774277,0.176087141037,-0.333299160004,0.603406906128
1555298074848132341,21873,1555298074848132341,world,-2.88681983948,-0.818254709244,0.798114776611,-0.702732563019,0.176466464996,-0.33306312561,0.603403329849
1555298074858587989,21874,1555298074858587989,world,-2.8868894577,-0.818258523941,0.7981569767,-0.70274412632,0.176145583391,-0.333160847425,0.603429496288
1555298074869091903,21875,1555298074869091903,world,-2.88684558868,-0.818299055099,0.798108577728,-0.702754259109,0.176342010498,-0.333432435989,0.603210449219
1555298074878437724,21876,1555298074878437724,world,-2.88687324524,-0.818282365799,0.7980697155,-0.702664911747,0.176302149892,-0.333416491747,0.603335022926
1555298074888724125,21877,1555298074888724125,world,-2.88686180115,-0.818315267563,0.79802942276,-0.702589154243,0.176564723253,-0.333918303251,0.603068768978
1555298074888792479,21878,1555298074888792479,world,-2.88690853119,-0.818234205246,0.79812002182,-0.702668011189,0.175865069032,-0.333302766085,0.603521704674
1555298074898108560,21879,1555298074898108560,world,-2.88694286346,-0.818202495575,0.798144102097,-0.702739834785,0.175774246454,-0.333288043737,0.603472650051
1555298074908447555,21880,1555298074908447555,world,-2.88694000244,-0.818190336227,0.798138141632,-0.702676177025,0.175791829824,-0.333228081465,0.603574752808
1555298074918784054,21881,1555298074918784054,world,-2.88690090179,-0.818218708038,0.798075437546,-0.702687978745,0.176071286201,-0.333423256874,0.603371858597
1555298074928101146,21882,1555298074928101146,world,-2.88688755035,-0.818215608597,0.798013210297,-0.702685892582,0.176423385739,-0.333783537149,0.603072047234
1555298074938542079,21883,1555298074938542079,world,-2.88690280914,-0.818201065063,0.798040628433,-0.702683210373,0.176101565361,-0.333583235741,0.603280067444
1555298074938650952,21884,1555298074938650952,world,-2.88689804077,-0.818190813065,0.79810500145,-0.702716290951,0.175824686885,-0.333143681288,0.60356515646
1555298074949105675,21885,1555298074949105675,world,-2.8868598938,-0.818187236786,0.798141479492,-0.702803134918,0.176281869411,-0.332855820656,0.603489398956
1555298074958519303,21886,1555298074958519303,world,-2.88682937622,-0.818186283112,0.798122167587,-0.702828347683,0.176458582282,-0.332768410444,0.603456676006
1555298074968851079,21887,1555298074968851079,world,-2.88685798645,-0.818240880966,0.798061132431,-0.702730476856,0.176390781999,-0.333410769701,0.603235840797
1555298074978111310,21888,1555298074978111310,world,-2.88688564301,-0.818242549896,0.798035144806,-0.702596187592,0.176280260086,-0.333839297295,0.603187561035
1555298074978180560,21889,1555298074978180560,world,-2.88684940338,-0.818284749985,0.798071622849,-0.702652692795,0.176202595234,-0.333632349968,0.60325884819
1555298074988518203,21890,1555298074988518203,world,-2.88689422607,-0.818255186081,0.798164606094,-0.702718019485,0.175865828991,-0.333255887032,0.603489160538
1555298074998820195,21891,1555298074998820195,world,-2.88683986664,-0.818228006363,0.798176050186,-0.702808201313,0.17630495131,-0.332877784967,0.603464722633
1555298075008128884,21892,1555298075008128884,world,-2.88687515259,-0.818249464035,0.798095941544,-0.702754318714,0.17600877583,-0.333381682634,0.603335738182
1555298075018564093,21893,1555298075018564093,world,-2.88686084747,-0.818265914917,0.798007726669,-0.702725529671,0.17615005374,-0.333630651236,0.603190362453
1555298075029045935,21894,1555298075029045935,world,-2.88688373566,-0.818266391754,0.798036575317,-0.702657341957,0.176040321589,-0.333412259817,0.60342258215
1555298075029095163,21895,1555298075029095163,world,-2.88692569733,-0.818249940872,0.798108816147,-0.702604591846,0.175986304879,-0.333176404238,0.603629946709
1555298075038535717,21896,1555298075038535717,world,-2.88691329956,-0.818262338638,0.798151493073,-0.702673256397,0.176195040345,-0.333402901888,0.603364109993
1555298075048957541,21897,1555298075048957541,world,-2.88683319092,-0.818251609802,0.798117399216,-0.702725231647,0.176664188504,-0.333226591349,0.603263735771
1555298075058407256,21898,1555298075058407256,world,-2.88686466217,-0.818266153336,0.798011541367,-0.702641963959,0.176489293575,-0.33348095417,0.603271245956
1555298075068860043,21899,1555298075068860043,world,-2.88688182831,-0.818235397339,0.797990083694,-0.702622175217,0.176266372204,-0.333606600761,0.603290081024
1555298075078183085,21900,1555298075078183085,world,-2.88692569733,-0.818194389343,0.798091888428,-0.702703535557,0.175797834992,-0.333195120096,0.603559374809
