%time,field.header.seq,field.header.stamp,field.header.frame_id,field.pose.position.x,field.pose.position.y,field.pose.position.z,field.pose.orientation.x,field.pose.orientation.y,field.pose.orientation.z,field.pose.orientation.w
1555298141828825522,23294,1555298141828825522,world,-2.89315032959,-0.820197105408,0.798045158386,-0.713810026646,0.125984892249,-0.288788735867,0.62546312809
1555298141828868618,23295,1555298141828868618,world,-2.89315700531,-0.820218801498,0.798028469086,-0.71379327774,0.126035407186,-0.288702756166,0.625511884689
1555298141828942021,23297,1555298141828942021,world,-2.89313411713,-0.820199489594,0.798124790192,-0.713876903057,0.125892981887,-0.288564890623,0.625508725643
1555298141828978257,23298,1555298141828978257,world,-2.89311504364,-0.820219755173,0.798120498657,-0.713792324066,0.12588454783,-0.288679748774,0.625553846359
1555298141829020207,23300,1555298141829020207,world,-2.89314079285,-0.820178747177,0.798035860062,-0.713732540607,0.126006096601,-0.288639962673,0.625615894794
1555298141829052763,23301,1555298141829052763,world,-2.89310932159,-0.820208787918,0.798028469086,-0.713776528835,0.126200124621,-0.28882715106,0.625440299511
1555298141829074730,23302,1555298141829074730,world,-2.89312362671,-0.820181846619,0.798109292984,-0.713793456554,0.126307234168,-0.288692086935,0.625461757183
1555298141838347235,23303,1555298141838347235,world,-2.89317512512,-0.820129156113,0.798137903214,-0.713798820972,0.125993236899,-0.288512051105,0.625601887703
1555298141848628111,23304,1555298141848628111,world,-2.89317321777,-0.820139408112,0.798051595688,-0.71381765604,0.125936597586,-0.288475930691,0.625608503819
1555298141858915772,23305,1555298141858915772,world,-2.89318275452,-0.820153474808,0.797968864441,-0.713651657104,0.126156225801,-0.288920193911,0.625548601151
1555298141868302223,23306,1555298141868302223,world,-2.89322471619,-0.820126771927,0.798002004623,-0.713680267334,0.126049041748,-0.288900613785,0.625546693802
1555298141878681153,23307,1555298141878681153,world,-2.89321613312,-0.820150375366,0.798084259033,-0.713778972626,0.125951468945,-0.288650393486,0.625569105148
1555298141878747802,23308,1555298141878747802,world,-2.89321994781,-0.820131540298,0.798131942749,-0.713861763477,0.125772207975,-0.288521111012,0.625570356846
1555298141889181966,23309,1555298141889181966,world,-2.893201828,-0.820113420486,0.798095464706,-0.71383535862,0.125913381577,-0.28851339221,0.625575721264
1555298141898535003,23310,1555298141898535003,world,-2.89314079285,-0.820185184479,0.797994613647,-0.713762581348,0.126086741686,-0.2887327075,0.62552267313
1555298141908884702,23311,1555298141908884702,world,-2.89314842224,-0.820182561874,0.79802274704,-0.713830888271,0.126012429595,-0.288707703352,0.625471293926
1555298141918222656,23312,1555298141918222656,world,-2.89317131042,-0.820184230804,0.798087120056,-0.713882625103,0.126072511077,-0.288843601942,0.625337302685
1555298141928563814,23313,1555298141928563814,world,-2.89313983917,-0.820218324661,0.798116207123,-0.713887691498,0.126102864742,-0.288739323616,0.625373601913
1555298141928609550,23314,1555298141928609550,world,-2.89313220978,-0.820187568665,0.798104524612,-0.713836848736,0.12594358623,-0.288559764624,0.625546634197
1555298141938934987,23315,1555298141938934987,world,-2.89313697815,-0.820212364197,0.798044204712,-0.713699162006,0.125951096416,-0.288647830486,0.625661492348
1555298141948360185,23316,1555298141948360185,world,-2.89315414429,-0.820174694061,0.798070907593,-0.713682174683,0.125839665532,-0.288594275713,0.625727891922
1555298141958812670,23317,1555298141958812670,world,-2.89315032959,-0.820209264755,0.79807305336,-0.713623523712,0.126021280885,-0.288635164499,0.625739574432
1555298141968149150,23318,1555298141968149150,world,-2.89314651489,-0.820185422897,0.798065423965,-0.713826179504,0.125926449895,-0.288549095392,0.6255671978
1555298141978520276,23319,1555298141978520276,world,-2.8931722641,-0.820149421692,0.798063993454,-0.713843762875,0.125778824091,-0.288483172655,0.625607013702
1555298141988836819,23320,1555298141988836819,world,-2.89318370819,-0.820153236389,0.798069000244,-0.713776290417,0.125873610377,-0.288705915213,0.625562369823
1555298141988897832,23321,1555298141988897832,world,-2.89317703247,-0.820158958435,0.798050880432,-0.713765501976,0.125791251659,-0.288818210363,0.625539243221
1555298141998194804,23322,1555298141998194804,world,-2.89316940308,-0.820167303085,0.798038959503,-0.713756859303,0.126011744142,-0.288709312677,0.625555098057
1555298142008530274,23323,1555298142008530274,world,-2.89318656921,-0.820120573044,0.798050642014,-0.713811933994,0.125895112753,-0.288565337658,0.625582039356
1555298142018979661,23324,1555298142018979661,world,-2.89318847656,-0.820142030716,0.79808306694,-0.713778316975,0.125875338912,-0.28859013319,0.625613093376
1555298142028427547,23325,1555298142028427547,world,-2.89320659637,-0.820146799088,0.798092603683,-0.713829517365,0.125916734338,-0.288624078035,0.625530719757
1555298142038886998,23326,1555298142038886998,world,-2.89321613312,-0.820148468018,0.798099040985,-0.713835060596,0.125812441111,-0.288436830044,0.625631630421
1555298142038933725,23327,1555298142038933725,world,-2.89315223694,-0.82018661499,0.798052549362,-0.713813841343,0.125966861844,-0.288702756166,0.625502169132
1555298142048244974,23328,1555298142048244974,world,-2.89317131042,-0.820186853409,0.798047304153,-0.713771164417,0.126064255834,-0.288815528154,0.62547904253
1555298142058586480,23329,1555298142058586480,world,-2.89317512512,-0.820152521133,0.798086643219,-0.71384459734,0.125893622637,-0.288687169552,0.625488817692
1555298142068955542,23330,1555298142068955542,world,-2.89311408997,-0.820208072662,0.798082113266,-0.713790655136,0.126164913177,-0.288806915283,0.625440597534
1555298142078351898,23331,1555298142078351898,world,-2.8931388855,-0.820183038712,0.798104524612,-0.713768303394,0.125871032476,-0.288627564907,0.625608026981
1555298142088798850,23332,1555298142088798850,world,-2.89312839508,-0.820166826248,0.798059225082,-0.713783323765,0.125924840569,-0.288545638323,0.625617802143
1555298142098122694,23333,1555298142098122694,world,-2.89311122894,-0.820184230804,0.798070907593,-0.713745713234,0.125830054283,-0.288458555937,0.625719964504
1555298142098215308,23334,1555298142098215308,world,-2.89313411713,-0.820165634155,0.798088550568,-0.713765621185,0.125844493508,-0.288558036089,0.625648498535
1555298142108610652,23335,1555298142108610652,world,-2.89317989349,-0.820128202438,0.798093318939,-0.713774979115,0.12574955821,-0.288306772709,0.62577277422
1555298142119063745,23336,1555298142119063745,world,-2.89315509796,-0.82014298439,0.798080921173,-0.713866531849,0.125966340303,-0.288574397564,0.625501215458
1555298142138747006,23337,1555298142138747006,world,-2.89315700531,-0.820158243179,0.798068761826,-0.713789522648,0.125938504934,-0.28863888979,0.625565111637
1555298142138823551,23339,1555298142138823551,world,-2.89316558838,-0.820158720016,0.798060655594,-0.713731706142,0.126001998782,-0.288651436567,0.625612437725
1555298142148024557,23340,1555298142148024557,world,-2.89317893982,-0.820168972015,0.798014879227,-0.713790595531,0.125989124179,-0.288551300764,0.625594079494
1555298142158377219,23341,1555298142158377219,world,-2.89317131042,-0.820166826248,0.798048019409,-0.713791072369,0.125920146704,-0.288569390774,0.625599086285
1555298142168721959,23342,1555298142168721959,world,-2.89317893982,-0.820179462433,0.798079013824,-0.713806867599,0.126046538353,-0.288618087769,0.625533103943
1555298142179041910,23343,1555298142179041910,world,-2.89318180084,-0.820164442062,0.798092126846,-0.713797032833,0.125941127539,-0.288572132587,0.625586926937
1555298142188430079,23344,1555298142188430079,world,-2.89315986633,-0.820185422897,0.798089504242,-0.713761150837,0.126045197248,-0.288737356663,0.625530540943
1555298142198843878,23345,1555298142198843878,world,-2.89317035675,-0.820157527924,0.798044681549,-0.713789045811,0.125942751765,-0.288637936115,0.625565171242
1555298142208180167,23346,1555298142208180167,world,-2.8931684494,-0.820141077042,0.798007965088,-0.71382522583,0.125939026475,-0.288463145494,0.625605344772
1555298142208230136,23347,1555298142208230136,world,-2.89314460754,-0.820146799088,0.798074245453,-0.713867723942,0.125785753131,-0.288243949413,0.625688672066
1555298142218689555,23348,1555298142218689555,world,-2.89314365387,-0.820162296295,0.798111200333,-0.713791012764,0.125934541225,-0.288666337729,0.625551402569
1555298142229176850,23349,1555298142229176850,world,-2.89313793182,-0.820186138153,0.79811501503,-0.713783800602,0.125953838229,-0.28859847784,0.625587105751
1555298142238517957,23350,1555298142238517957,world,-2.89313602448,-0.820192337036,0.798079013824,-0.713727116585,0.125933647156,-0.288611263037,0.625649869442
1555298142238557870,23351,1555298142238557870,world,-2.89312934875,-0.820200681686,0.79803943634,-0.71373039484,0.126061707735,-0.288741648197,0.625560343266
1555298142248852512,23352,1555298142248852512,world,-2.89312076569,-0.820203542709,0.798022270203,-0.713753044605,0.125845581293,-0.288696110249,0.625598967075
1555298142288894370,23353,1555298142288894370,world,-2.89315414429,-0.820196628571,0.798081159592,-0.713697910309,0.125937998295,-0.288676023483,0.625652551651
1555298142288980668,23355,1555298142288980668,world,-2.89315223694,-0.820191383362,0.798108816147,-0.713848888874,0.125953450799,-0.288503438234,0.625556766987
1555298142289054221,23356,1555298142289054221,world,-2.89315795898,-0.820199251175,0.798042297363,-0.713790178299,0.126014783978,-0.288813740015,0.625468254089
1555298142289077362,23357,1555298142289077362,world,-2.89317035675,-0.820167303085,0.797988176346,-0.713730871677,0.125917717814,-0.28853315115,0.625684857368
1555298142298314972,23358,1555298142298314972,world,-2.8931350708,-0.820195198059,0.798022031784,-0.713735878468,0.126099079847,-0.288935959339,0.625456869602
1555298142308618520,23359,1555298142308618520,world,-2.89315414429,-0.820177555084,0.798111200333,-0.713864386082,0.125899717212,-0.288728177547,0.625446200371
1555298142319117890,23360,1555298142319117890,world,-2.89314556122,-0.820193529129,0.798151731491,-0.713935554028,0.126009687781,-0.288461774588,0.625465810299
1555298142319173260,23361,1555298142319173260,world,-2.89314079285,-0.820170164108,0.798064231873,-0.713837623596,0.125987544656,-0.288347989321,0.625634431839
1555298142338676238,23362,1555298142338676238,world,-2.89313220978,-0.820197343826,0.797986268997,-0.713714182377,0.12610206008,-0.288633644581,0.625620424747
1555298142338731020,23363,1555298142338731020,world,-2.89313316345,-0.820205211639,0.798047780991,-0.713750064373,0.126027569175,-0.288941115141,0.625452697277
1555298142349013584,23364,1555298142349013584,world,-2.89312553406,-0.820230722427,0.798106431961,-0.713783085346,0.12610450387,-0.288956105709,0.625392496586
1555298142389073421,23365,1555298142389073421,world,-2.89311218262,-0.820183753967,0.798144817352,-0.713864803314,0.125908493996,-0.288585662842,0.625509738922
1555298142389173265,23368,1555298142389173265,world,-2.89311122894,-0.820191144943,0.798033475876,-0.713763952255,0.126095354557,-0.288613438606,0.625574350357
1555298142398672919,23369,1555298142398672919,world,-2.89310836792,-0.820215463638,0.798062324524,-0.713844060898,0.12602622807,-0.288753896952,0.625432014465
1555298142398724653,23370,1555298142398724653,world,-2.89314365387,-0.820178508759,0.798116445541,-0.713839054108,0.125996187329,-0.288698107004,0.625469684601
1555298142408979137,23371,1555298142408979137,world,-2.89318275452,-0.820161342621,0.798145055771,-0.713828086853,0.12591278553,-0.288638710976,0.625526428223
1555298142418326981,23372,1555298142418326981,world,-2.89316272736,-0.820195198059,0.798043966293,-0.713717520237,0.125848323107,-0.288486540318,0.625735580921
1555298142428740401,23373,1555298142428740401,world,-2.8931646347,-0.820208787918,0.797986745834,-0.713646352291,0.126019701362,-0.288791269064,0.62564176321
1555298142438056789,23374,1555298142438056789,world,-2.89319038391,-0.820178508759,0.79803943634,-0.713737130165,0.126042187214,-0.288668245077,0.625590264797
1555298142438112197,23375,1555298142438112197,world,-2.89315032959,-0.820249080658,0.798093080521,-0.713796198368,0.126041457057,-0.288719236851,0.625499606133
1555298142448496915,23376,1555298142448496915,world,-2.89315414429,-0.820218324661,0.798124074936,-0.713855743408,0.125979855657,-0.288814216852,0.625400304794
1555298142458951321,23377,1555298142458951321,world,-2.89318084717,-0.820196390152,0.798078775406,-0.713839769363,0.125829830766,-0.288789898157,0.625459909439
1555298142468356273,23378,1555298142468356273,world,-2.89317989349,-0.820215940475,0.798002481461,-0.713706433773,0.125901922584,-0.288603037596,0.62568372488
1555298142478759736,23379,1555298142478759736,world,-2.8931684494,-0.820227622986,0.797986984253,-0.71375900507,0.12596257031,-0.288795024157,0.625522911549
1555298142478846562,23380,1555298142478846562,world,-2.89317703247,-0.820226192474,0.79807639122,-0.713830173016,0.125986307859,-0.28859859705,0.625527799129
1555298142488164596,23381,1555298142488164596,world,-2.89317035675,-0.820233345032,0.79812669754,-0.71390414238,0.125951111317,-0.288576006889,0.625460863113
1555298142498571283,23382,1555298142498571283,world,-2.89315319061,-0.820235729218,0.798116207123,-0.713806390762,0.126106694341,-0.288785606623,0.625444173813
1555298142508957912,23383,1555298142508957912,world,-2.89315032959,-0.820225477219,0.798023462296,-0.713714778423,0.12608024478,-0.288818538189,0.625539004803
1555298142518410134,23384,1555298142518410134,world,-2.89311885834,-0.820248365402,0.797967433929,-0.713668525219,0.126378938556,-0.28907212615,0.625414311886
1555298142528706033,23385,1555298142528706033,world,-2.89313220978,-0.820215463638,0.798043727875,-0.713752567768,0.126112014055,-0.288805305958,0.625495493412
1555298142528747661,23386,1555298142528747661,world,-2.89314079285,-0.820225477219,0.798134326935,-0.713801383972,0.126103028655,-0.288945168257,0.625376939774
1555298142538122026,23387,1555298142538122026,world,-2.89314651489,-0.820229530334,0.798127412796,-0.713807284832,0.126198753715,-0.289018958807,0.625316798687
1555298142548574196,23388,1555298142548574196,world,-2.89313602448,-0.820235013962,0.797999858856,-0.71370434761,0.126299068332,-0.288948744535,0.625446557999
1555298142559009379,23389,1555298142559009379,world,-2.89315319061,-0.820215463638,0.797971248627,-0.713681459427,0.125988900661,-0.288456916809,0.625762224197
1555298142568355309,23390,1555298142568355309,world,-2.89318084717,-0.820219039917,0.798028230667,-0.713698446751,0.125968486071,-0.288614332676,0.625674307346
1555298142578686043,23391,1555298142578686043,world,-2.89316654205,-0.82019162178,0.798127412796,-0.713783562183,0.12604752183,-0.288805782795,0.625472843647
1555298142578758692,23392,1555298142578758692,world,-2.89314937592,-0.820207834244,0.798129081726,-0.713867485523,0.125977247953,-0.288772165775,0.625406801701
1555298142589064054,23393,1555298142589064054,world,-2.89313316345,-0.820233345032,0.79803943634,-0.713760256767,0.126126825809,-0.288823455572,0.625475347042
1555298142598537231,23394,1555298142598537231,world,-2.89315509796,-0.820191383362,0.797998666763,-0.713692247868,0.126017183065,-0.288588941097,0.625683128834
1555298142608952869,23395,1555298142608952869,world,-2.89314460754,-0.820245027542,0.798010349274,-0.713718295097,0.126141801476,-0.288792848587,0.625534236431
1555298142618282668,23396,1555298142618282668,world,-2.89313220978,-0.820234298706,0.798085689545,-0.713829696178,0.126134499907,-0.288795679808,0.625407397747
1555298142628625882,23397,1555298142628625882,world,-2.89314365387,-0.820197820663,0.798151731491,-0.713887751102,0.126128524542,-0.28877478838,0.625351965427
1555298142628672007,23398,1555298142628672007,world,-2.89313220978,-0.820216178894,0.798072338104,-0.713815927505,0.126155152917,-0.288828402758,0.625403881073
1555298142639054356,23399,1555298142639054356,world,-2.89312171936,-0.820232152939,0.797996520996,-0.71368598938,0.126047194004,-0.288663625717,0.625649929047
1555298142648462782,23400,1555298142648462782,world,-2.89313030243,-0.82021355629,0.797973871231,-0.71368342638,0.126096278429,-0.288660466671,0.625644266605
1555298142658875124,23401,1555298142658875124,world,-2.89316368103,-0.820216417313,0.798047065735,-0.713782310486,0.125855520368,-0.28882136941,0.625505685806
1555298142668226049,23402,1555298142668226049,world,-2.89314460754,-0.820226192474,0.798130989075,-0.713908433914,0.125952422619,-0.288839221001,0.625334024429
1555298142678668498,23403,1555298142678668498,world,-2.89315319061,-0.820241451263,0.798135042191,-0.713770925999,0.126225307584,-0.28888335824,0.625415623188
1555298142678714335,23404,1555298142678714335,world,-2.89316177368,-0.8202085495,0.79807806015,-0.713745415211,0.125956550241,-0.288648873568,0.625607073307
1555298142688072084,23405,1555298142688072084,world,-2.89314842224,-0.820215463638,0.797959327698,-0.713686943054,0.126096606255,-0.288733243942,0.625606775284
1555298142698479875,23406,1555298142698479875,world,-2.89315509796,-0.820210456848,0.797989606857,-0.71366506815,0.125886708498,-0.288605868816,0.625732719898
1555298142708915650,23407,1555298142708915650,world,-2.89316749573,-0.820217847824,0.798114299774,-0.713823139668,0.125925093889,-0.288641154766,0.625528395176
1555298142718283811,23408,1555298142718283811,world,-2.89317703247,-0.820227622986,0.798168897629,-0.7139108181,0.125926747918,-0.288808971643,0.625350475311
1555298142728637279,23409,1555298142728637279,world,-2.89315605164,-0.820248842239,0.798113584518,-0.71379584074,0.12608371675,-0.288886636496,0.625414311886
1555298142728682833,23410,1555298142728682833,world,-2.89315509796,-0.820219516754,0.797993898392,-0.71373218298,0.126162499189,-0.288612782955,0.625597417355
1555298142748493562,23411,1555298142748493562,world,-2.89317703247,-0.820191383362,0.797965049744,-0.713681876659,0.125998586416,-0.288572251797,0.625706613064
1555298142748535942,23412,1555298142748535942,world,-2.89315032959,-0.820201873779,0.798065662384,-0.713889062405,0.126027747989,-0.288844078779,0.625338733196
1555298142759003884,23413,1555298142759003884,world,-2.89314556122,-0.820247650146,0.798128843307,-0.713855206966,0.126369863749,-0.289088517427,0.625195264816
1555298142768463423,23414,1555298142768463423,world,-2.89313602448,-0.820216178894,0.798129558563,-0.71384203434,0.126312851906,-0.288982838392,0.625270783901
1555298142778764359,23415,1555298142778764359,world,-2.8931312561,-0.820202827454,0.798019647598,-0.713785290718,0.126179635525,-0.288780301809,0.625456035137
1555298142778885374,23416,1555298142778885374,world,-2.89311790466,-0.820219039917,0.79794716835,-0.71365326643,0.126310274005,-0.288872689009,0.625537574291
1555298142788123515,23417,1555298142788123515,world,-2.89314842224,-0.820168495178,0.798050403595,-0.713704764843,0.125905558467,-0.288524121046,0.625721395016
1555298142798501582,23418,1555298142798501582,world,-2.89315319061,-0.820208311081,0.79811501503,-0.713765740395,0.125979840755,-0.288692086935,0.625559270382
1555298142808780823,23419,1555298142808780823,world,-2.89315891266,-0.820194959641,0.798159599304,-0.713829517365,0.12582822144,-0.288581520319,0.625568151474
1555298142819040514,23420,1555298142819040514,world,-2.89314174652,-0.820255994797,0.798080921173,-0.713815808296,0.126135364175,-0.288906693459,0.62537163496
1555298142819083621,23421,1555298142819083621,world,-2.89312553406,-0.820271492004,0.797988176346,-0.713770925999,0.126235410571,-0.288999140263,0.625360131264
1555298142828379267,23422,1555298142828379267,world,-2.8931388855,-0.820258617401,0.797979831696,-0.713821470737,0.126167446375,-0.288981378078,0.625324308872
1555298142838762482,23423,1555298142838762482,world,-2.89316749573,-0.820249795914,0.798066139221,-0.713749408722,0.126108244061,-0.288893729448,0.625458955765
1555298142849032956,23424,1555298142849032956,world,-2.89318370819,-0.820239543915,0.798158407211,-0.713899552822,0.126021906734,-0.288827031851,0.625335872173
1555298142858421226,23425,1555298142858421226,world,-2.89316749573,-0.820243835449,0.79812002182,-0.713847637177,0.125945404172,-0.288918524981,0.625368356705
1555298142868698080,23426,1555298142868698080,world,-2.89315128326,-0.820250034332,0.798003673553,-0.713699877262,0.126209169626,-0.288867175579,0.625507414341
1555298142878080028,23427,1555298142878080028,world,-2.89316272736,-0.820222616196,0.797960042953,-0.713696837425,0.126246094704,-0.288751214743,0.625556886196
1555298142878120851,23428,1555298142878120851,world,-2.89315986633,-0.820230722427,0.798007011414,-0.713747024536,0.126184284687,-0.288860440254,0.625461816788
1555298142888449090,23429,1555298142888449090,world,-2.89318847656,-0.820201396942,0.798100709915,-0.713809490204,0.125940874219,-0.288474112749,0.625617742538
1555298142898825940,23430,1555298142898825940,world,-2.89321517944,-0.820147752762,0.798120260239,-0.713806152344,0.125842049718,-0.288619667292,0.625574350357
1555298142908105183,23431,1555298142908105183,world,-2.89318752289,-0.820176362991,0.798045158386,-0.713762521744,0.126241266727,-0.288893580437,0.625417232513
1555298142918464832,23432,1555298142918464832,world,-2.89318466187,-0.820152997971,0.797996520996,-0.713644206524,0.125979170203,-0.288664072752,0.625711143017
1555298142928903725,23433,1555298142928903725,world,-2.89318370819,-0.820167541504,0.797980546951,-0.713738262653,0.126192420721,-0.288928806782,0.625438511372
1555298142928957485,23434,1555298142928957485,world,-2.89317512512,-0.820165395737,0.798052549362,-0.713758349419,0.125943362713,-0.288682311773,0.625579535961
1555298142938262247,23435,1555298142938262247,world,-2.89317893982,-0.820176362991,0.798109769821,-0.713797748089,0.12597297132,-0.2888456285,0.625453412533
1555298142948549017,23436,1555298142948549017,world,-2.89316749573,-0.820169687271,0.798098564148,-0.713807463646,0.126133084297,-0.289056867361,0.625312268734
1555298142958865901,23437,1555298142958865901,world,-2.89315509796,-0.820199251175,0.798007965088,-0.713745892048,0.126088067889,-0.288760840893,0.625528454781
1555298142968113116,23438,1555298142968113116,world,-2.89313030243,-0.82023525238,0.797985553741,-0.713759124279,0.12618920207,-0.288881093264,0.625437259674
1555298142978488549,23439,1555298142978488549,world,-2.89312839508,-0.820212364197,0.798049926758,-0.713755369186,0.126115873456,-0.288586527109,0.625592470169
1555298142978560462,23440,1555298142978560462,world,-2.89311313629,-0.820220708847,0.798103094101,-0.713827371597,0.126142084599,-0.288714170456,0.625446081161
1555298142988911971,23441,1555298142988911971,world,-2.89311599731,-0.820218086243,0.798130512238,-0.713833332062,0.125953316689,-0.288602828979,0.625528812408
1555298142998251782,23442,1555298142998251782,world,-2.89310264587,-0.820221185684,0.798071146011,-0.713796675205,0.125984400511,-0.288780391216,0.62548238039
1555298143008594068,23443,1555298143008594068,world,-2.89310836792,-0.82022356987,0.798026323318,-0.713743567467,0.126048028469,-0.288826555014,0.625508725643
1555298143018947619,23444,1555298143018947619,world,-2.89310359955,-0.82021689415,0.798041820526,-0.713726520538,0.126096189022,-0.288612008095,0.62561750412
1555298143028283924,23445,1555298143028283924,world,-2.89315128326,-0.820169687271,0.798099279404,-0.713827133179,0.125880360603,-0.288527965546,0.625585079193
1555298143028324333,23446,1555298143028324333,world,-2.8931350708,-0.820162057877,0.798120737076,-0.713820517063,0.12600889802,-0.288591325283,0.625537455082
1555298143038691833,23447,1555298143038691833,world,-2.89314746857,-0.82018327713,0.798074245453,-0.71379250288,0.126069292426,-0.288735479116,0.62549084425
1555298143049026990,23448,1555298143049026990,world,-2.89313793182,-0.820190429688,0.798008918762,-0.713802874088,0.126027300954,-0.28877428174,0.625469505787
1555298143058352669,23449,1555298143058352669,world,-2.8931646347,-0.820169210434,0.798002481461,-0.713819801807,0.125877946615,-0.288668215275,0.625529110432
1555298143068697114,23450,1555298143068697114,world,-2.89319515228,-0.820179462433,0.798053026199,-0.713810920715,0.12591868639,-0.28880739212,0.625466823578
1555298143078970432,23451,1555298143078970432,world,-2.89319515228,-0.820196390152,0.798097372055,-0.713865697384,0.125984579325,-0.288785040379,0.625401437283
1555298143079038266,23452,1555298143079038266,world,-2.89319992065,-0.82018995285,0.798082113266,-0.713846027851,0.126002326608,-0.288659602404,0.625478088856
1555298143088391167,23453,1555298143088391167,world,-2.89320850372,-0.82018661499,0.798011541367,-0.713843047619,0.12601570785,-0.288581222296,0.625515162945
1555298143098909268,23454,1555298143098909268,world,-2.89317703247,-0.820198774338,0.797969341278,-0.71370023489,0.12602172792,-0.288554877043,0.625688970089
1555298143108185025,23455,1555298143108185025,world,-2.89317512512,-0.820214509964,0.798015117645,-0.713748157024,0.126153200865,-0.288807451725,0.625491321087
1555298143118525018,23456,1555298143118525018,world,-2.89318084717,-0.820186138153,0.798104286194,-0.713783979416,0.125886201859,-0.288617610931,0.625591754913
1555298143128878325,23457,1555298143128878325,world,-2.89315414429,-0.820168733597,0.798114299774,-0.713813602924,0.125810131431,-0.288673818111,0.625547289848
1555298143128920028,23458,1555298143128920028,world,-2.89312458038,-0.820166110992,0.798056840897,-0.713827431202,0.125885397196,-0.288637936115,0.625532925129
1555298143138270885,23459,1555298143138270885,world,-2.8930978775,-0.820189714432,0.798032283783,-0.71373540163,0.125976413488,-0.288518249989,0.625674784184
1555298143148705075,23460,1555298143148705075,world,-2.89306640625,-0.820202827454,0.798060417175,-0.713774681091,0.126115396619,-0.288653045893,0.625539779663
1555298143159064379,23461,1555298143159064379,world,-2.8930721283,-0.820187330246,0.79812836647,-0.713787972927,0.126085683703,-0.288762658834,0.625480115414
1555298143168533467,23462,1555298143168533467,world,-2.89308261871,-0.820167064667,0.798149108887,-0.713855326176,0.125894874334,-0.288504779339,0.625560581684
1555298143178926293,23463,1555298143178926293,world,-2.89305973053,-0.82017827034,0.798085927963,-0.713693857193,0.126043155789,-0.288572579622,0.625683784485
1555298143178967456,23464,1555298143178967456,world,-2.89308261871,-0.820191383362,0.798026561737,-0.713735163212,0.126103654504,-0.288722902536,0.625555098057
1555298143188284060,23465,1555298143188284060,world,-2.89307880402,-0.820187807083,0.798005342484,-0.713709652424,0.125977307558,-0.288691341877,0.625624239445
1555298143198616605,23466,1555298143198616605,world,-2.89311218262,-0.820191144943,0.798069000244,-0.71376734972,0.125903040171,-0.288748085499,0.625546991825
1555298143208965731,23467,1555298143208965731,world,-2.89314746857,-0.820170164108,0.798100709915,-0.713768362999,0.125813007355,-0.288710981607,0.6255813241
1555298143218288441,23468,1555298143218288441,world,-2.8931760788,-0.820187091827,0.798088788986,-0.713787853718,0.125811234117,-0.28856292367,0.625627577305
1555298143228620803,23469,1555298143228620803,world,-2.89320087433,-0.820152521133,0.798051834106,-0.713810145855,0.12580665946,-0.288519203663,0.62562340498
1555298143238942422,23470,1555298143238942422,world,-2.89320850372,-0.820169210434,0.797994375229,-0.713695049286,0.126058638096,-0.28888463974,0.62553524971
1555298143248347266,23471,1555298143248347266,world,-2.89317893982,-0.820209264755,0.797986984253,-0.713730335236,0.12609218061,-0.288776129484,0.625538349152
1555298143248393500,23472,1555298143248393500,world,-2.8932056427,-0.82017326355,0.798083782196,-0.713789999485,0.125816911459,-0.288454949856,0.625673830509
1555298143258781332,23473,1555298143258781332,world,-2.89321708679,-0.820178747177,0.798099756241,-0.713854551315,0.125862970948,-0.288724094629,0.625466823578
1555298143268112590,23474,1555298143268112590,world,-2.8932094574,-0.820167303085,0.798052310944,-0.713800728321,0.125821679831,-0.288628280163,0.625580608845
1555298143278459364,23475,1555298143278459364,world,-2.89318466187,-0.820143222809,0.79802942276,-0.713749229908,0.125889927149,-0.288314163685,0.625770390034
1555298143278500817,23476,1555298143278500817,world,-2.89315700531,-0.820164680481,0.798015594482,-0.71373963356,0.126081541181,-0.28850916028,0.625653028488
1555298143288925514,23477,1555298143288925514,world,-2.89313697815,-0.820173025131,0.798073530197,-0.713825404644,0.125863716006,-0.288567513227,0.625572144985
1555298143298367345,23478,1555298143298367345,world,-2.89312648773,-0.820191383362,0.798114299774,-0.71382945776,0.126084789634,-0.28883227706,0.625400722027
1555298143308804892,23479,1555298143308804892,world,-2.89313411713,-0.820158958435,0.798117637634,-0.713802576065,0.125943735242,-0.288657099009,0.625540733337
1555298143318458505,23480,1555298143318458505,world,-2.89310646057,-0.820193529129,0.798041582108,-0.713847279549,0.125846683979,-0.288739293814,0.625471293926
1555298143328740315,23481,1555298143328740315,world,-2.89313602448,-0.820165157318,0.798029661179,-0.713829815388,0.125856861472,-0.28870934248,0.625502943993
1555298143328777310,23482,1555298143328777310,world,-2.89314746857,-0.820160150528,0.798038482666,-0.713803470135,0.125910446048,-0.28847643733,0.625629842281
1555298143338058960,23483,1555298143338058960,world,-2.89313697815,-0.820184469223,0.798067569733,-0.71380764246,0.12604150176,-0.288800537586,0.625449001789
1555298143348497773,23484,1555298143348497773,world,-2.89315414429,-0.820182561874,0.798082590103,-0.713769674301,0.126049891114,-0.288734465837,0.625521183014
1555298143358983712,23485,1555298143358983712,world,-2.89317893982,-0.820191860199,0.798030614853,-0.713847577572,0.125984162092,-0.288662463427,0.625478744507
1555298143368431578,23486,1555298143368431578,world,-2.89318656921,-0.820206642151,0.798038005829,-0.713722288609,0.126016050577,-0.288746654987,0.62557631731
1555298143378844667,23487,1555298143378844667,world,-2.89322566986,-0.820163488388,0.798029899597,-0.713807165623,0.12591162324,-0.288441598415,0.625641167164
1555298143378884429,23488,1555298143378884429,world,-2.8932390213,-0.820168018341,0.79801440239,-0.713703691959,0.125954300165,-0.288630068302,0.625663816929
1555298143388297955,23489,1555298143388297955,world,-2.89322566986,-0.82016658783,0.798032522202,-0.71372795105,0.12597258389,-0.288665682077,0.625616073608
1555298143398767828,23490,1555298143398767828,world,-2.89322376251,-0.82018995285,0.798004150391,-0.713761627674,0.126008704305,-0.288913160563,0.625456154346
1555298143408085730,23491,1555298143408085730,world,-2.89323139191,-0.820155620575,0.798032045364,-0.713797748089,0.126098141074,-0.288925498724,0.625391185284
1555298143418530315,23492,1555298143418530315,world,-2.89319801331,-0.820174217224,0.798047780991,-0.713834047318,0.125935196877,-0.288935184479,0.625378131866
1555298143428913298,23493,1555298143428913298,world,-2.89318370819,-0.820173501968,0.797997951508,-0.713837623596,0.126021623611,-0.288758516312,0.625438213348
1555298143428954123,23494,1555298143428954123,world,-2.89319992065,-0.820108652115,0.798040390015,-0.713947117329,0.125884920359,-0.288422882557,0.625495493412
1555298143438289797,23495,1555298143438289797,world,-2.89319038391,-0.820158720016,0.798038959503,-0.713859498501,0.125946506858,-0.288763850927,0.625425994396
1555298143448621945,23496,1555298143448621945,world,-2.89314365387,-0.820158720016,0.79806637764,-0.713773667812,0.125890895724,-0.288671344519,0.625577867031
1555298143458944177,23497,1555298143458944177,world,-2.89312362671,-0.820160150528,0.798068284988,-0.713825106621,0.125941872597,-0.288763254881,0.625466287136
1555298143468283931,23498,1555298143468283931,world,-2.89313030243,-0.820158481598,0.798042297363,-0.713701486588,0.12606073916,-0.288546234369,0.625683546066
1555298143478704920,23499,1555298143478704920,world,-2.89312076569,-0.820132732391,0.798069477081,-0.713859558105,0.125721886754,-0.288366347551,0.625654459
1555298143478746052,23500,1555298143478746052,world,-2.89311313629,-0.820161104202,0.798092365265,-0.71376568079,0.126158192754,-0.288773804903,0.62548571825
1555298143488073465,23501,1555298143488073465,world,-2.89314651489,-0.820133686066,0.798068761826,-0.713865101337,0.125901192427,-0.288669764996,0.625472128391
1555298143498438313,23502,1555298143498438313,world,-2.89311313629,-0.820187807083,0.798033237457,-0.713827848434,0.126137509942,-0.288764625788,0.625423192978
1555298143508815519,23503,1555298143508815519,world,-2.89314174652,-0.820130109787,0.798053979874,-0.7138453722,0.12588173151,-0.288506120443,0.625574052334
1555298143518079870,23504,1555298143518079870,world,-2.89314174652,-0.820162773132,0.798065900803,-0.71378672123,0.126287341118,-0.288757413626,0.625443160534
1555298143528449024,23505,1555298143528449024,world,-2.89314174652,-0.820172548294,0.79807972908,-0.713875174522,0.125973582268,-0.288691967726,0.625435769558
1555298143528520695,23506,1555298143528520695,world,-2.89316177368,-0.820194721222,0.798049211502,-0.713760852814,0.126188933849,-0.288745760918,0.625498056412
1555298143538843767,23507,1555298143538843767,world,-2.89319229126,-0.820152282715,0.798030853271,-0.713752269745,0.12593460083,-0.288576483727,0.625637054443
1555298143548105909,23508,1555298143548105909,world,-2.89316749573,-0.820226192474,0.798001050949,-0.713718056679,0.126147329807,-0.288765639067,0.625545918941
1555298143558439901,23509,1555298143558439901,world,-2.89318943024,-0.820208072662,0.798030853271,-0.713678896427,0.126018732786,-0.288690030575,0.625651419163
1555298143568762281,23510,1555298143568762281,world,-2.89318370819,-0.820202350616,0.798053026199,-0.713815748692,0.125862985849,-0.288810908794,0.625470936298
1555298143579085363,23511,1555298143579085363,world,-2.89316940308,-0.820223093033,0.798029899597,-0.713771164417,0.12610539794,-0.288861811161,0.625449478626
1555298143588407399,23512,1555298143588407399,world,-2.89314842224,-0.820240020752,0.798022985458,-0.713787555695,0.126212015748,-0.289071828127,0.625312328339
1555298143588452712,23513,1555298143588452712,world,-2.8931350708,-0.820241689682,0.79805970192,-0.713783800602,0.126198932528,-0.28889554739,0.625400662422
1555298143598879901,23514,1555298143598879901,world,-2.89313983917,-0.820224523544,0.798058748245,-0.713754475117,0.126144751906,-0.288700163364,0.625535130501
1555298143608317327,23515,1555298143608317327,world,-2.89312362671,-0.820232391357,0.798071146011,-0.71380007267,0.126090705395,-0.288872808218,0.625414311886
1555298143618822261,23516,1555298143618822261,world,-2.89312648773,-0.820197105408,0.798064231873,-0.713782191277,0.125916421413,-0.288570016623,0.625609576702
1555298143628089962,23517,1555298143628089962,world,-2.89314651489,-0.820176362991,0.79806303978,-0.713874816895,0.125764682889,-0.288642317057,0.625501155853
1555298143628134180,23518,1555298143628134180,world,-2.89314079285,-0.82018828392,0.798064947128,-0.713885128498,0.12567858398,-0.28864043951,0.625507473946
1555298143638432737,23519,1555298143638432737,world,-2.89312648773,-0.820223331451,0.798040866852,-0.713784754276,0.126014381647,-0.288912713528,0.62542873621
1555298143648812437,23520,1555298143648812437,world,-2.89316368103,-0.820176124573,0.798043012619,-0.713799476624,0.125823810697,-0.288376241922,0.625697851181
1555298143658024034,23521,1555298143658024034,world,-2.89318847656,-0.82018661499,0.798010826111,-0.713746011257,0.125767812133,-0.288494795561,0.62571567297
1555298143668357896,23522,1555298143668357896,world,-2.89316654205,-0.820194721222,0.798038244247,-0.713795006275,0.125870853662,-0.288809001446,0.625493824482
1555298143678723474,23523,1555298143678723474,world,-2.89316749573,-0.820203065872,0.798064470291,-0.713820934296,0.126059010625,-0.288858801126,0.625403404236
1555298143678761440,23524,1555298143678761440,world,-2.89316558838,-0.820198774338,0.798049926758,-0.713742315769,0.126162081957,-0.288947880268,0.625431120396
1555298143688009801,23525,1555298143688009801,world,-2.89318084717,-0.820193767548,0.798058271408,-0.713772714138,0.126015171409,-0.288755387068,0.625515162945
1555298143698362224,23526,1555298143698362224,world,-2.89315986633,-0.820203542709,0.798033714294,-0.713742315769,0.126087874174,-0.288667023182,0.625575840473
1555298143708763382,23527,1555298143708763382,world,-2.89315891266,-0.820203065872,0.798038959503,-0.713720321655,0.125971257687,-0.288727998734,0.625596284866
1555298143718035849,23528,1555298143718035849,world,-2.89316177368,-0.820210933685,0.798060178757,-0.713769614697,0.126210972667,-0.288992255926,0.625369727612
1555298143728432856,23529,1555298143728432856,world,-2.89315795898,-0.820240497589,0.798057794571,-0.71388822794,0.126274034381,-0.289062440395,0.625189185143
1555298143738765174,23530,1555298143738765174,world,-2.89315319061,-0.820217370987,0.798073530197,-0.713787913322,0.12604278326,-0.288858383894,0.625444591045
1555298143738805257,23531,1555298143738805257,world,-2.89315223694,-0.820199966431,0.798037290573,-0.713790178299,0.125908210874,-0.288794666529,0.625498533249
1555298143748006909,23532,1555298143748006909,world,-2.89313983917,-0.820191860199,0.798017024994,-0.713716983795,0.125997558236,-0.288579136133,0.625663518906
1555298143758333306,23533,1555298143758333306,world,-2.89314460754,-0.820185661316,0.798046112061,-0.713789522648,0.126090735197,-0.288897454739,0.625414907932
1555298143768734185,23534,1555298143768734185,world,-2.89314174652,-0.820187568665,0.798062324524,-0.713794648647,0.126149103045,-0.288855165243,0.62541693449
1555298143779063082,23535,1555298143779063082,world,-2.89313983917,-0.820175886154,0.798084497452,-0.713849246502,0.125990256667,-0.288764685392,0.625428378582
1555298143779100406,23536,1555298143779100406,world,-2.8931388855,-0.820144414902,0.79807972908,-0.713740170002,0.12570348382,-0.288453519344,0.62575417757
1555298143788400551,23537,1555298143788400551,world,-2.89312362671,-0.820188522339,0.798018932343,-0.713765382767,0.126175299287,-0.288850456476,0.625447273254
1555298143798719635,23538,1555298143798719635,world,-2.89313793182,-0.820150852203,0.79804444313,-0.713855564594,0.126032695174,-0.288723528385,0.625431656837
1555298143808997755,23539,1555298143808997755,world,-2.89314460754,-0.820195913315,0.798058509827,-0.713821530342,0.126015782356,-0.288942545652,0.625372827053
1555298143818388686,23540,1555298143818388686,world,-2.89315986633,-0.820171833038,0.798069953918,-0.713823080063,0.126022174954,-0.288835197687,0.625419378281
1555298143828780237,23541,1555298143828780237,world,-2.89315891266,-0.820178508759,0.798035144806,-0.713816702366,0.126122027636,-0.288697659969,0.625469982624
1555298143828820063,23542,1555298143828820063,world,-2.89316940308,-0.820157766342,0.798014879227,-0.713762223721,0.126052424312,-0.288588732481,0.62559646368
1555298143838063328,23543,1555298143838063328,world,-2.89317989349,-0.820172309875,0.798033237457,-0.713761508465,0.12597464025,-0.288675755262,0.625572860241
1555298143848452719,23544,1555298143848452719,world,-2.89315319061,-0.820202350616,0.798034191132,-0.713771641254,0.126117259264,-0.288859426975,0.625447571278
1555298143858835305,23545,1555298143858835305,world,-2.89314651489,-0.820189237595,0.798070430756,-0.713771343231,0.12618637085,-0.289120912552,0.625313282013
1555298143868171512,23546,1555298143868171512,world,-2.8931646347,-0.820158481598,0.798090219498,-0.713833391666,0.126075223088,-0.288789898157,0.625417768955
1555298143878519711,23547,1555298143878519711,world,-2.89314842224,-0.820179462433,0.798055887222,-0.713771104813,0.126147866249,-0.288704037666,0.625513792038
1555298143878556390,23548,1555298143878556390,world,-2.89311408997,-0.8202085495,0.79801940918,-0.713755488396,0.126355588436,-0.288976043463,0.625364005566
1555298143888981521,23549,1555298143888981521,world,-2.8931350708,-0.820204973221,0.798041820526,-0.713831365108,0.126089438796,-0.288840383291,0.625394046307
1555298143898426158,23550,1555298143898426158,world,-2.89310646057,-0.820239305496,0.798057317734,-0.713748216629,0.126215055585,-0.288737684488,0.625510931015
1555298143908871250,23551,1555298143908871250,world,-2.89311313629,-0.820285081863,0.798052787781,-0.713709115982,0.126336172223,-0.288894444704,0.625458717346
1555298143918263785,23552,1555298143918263785,world,-2.89315700531,-0.820251464844,0.798067808151,-0.713774800301,0.126071512699,-0.288697332144,0.625528037548
1555298143928688821,23553,1555298143928688821,world,-2.89316749573,-0.820282459259,0.798055171967,-0.713786900043,0.126321062446,-0.288923203945,0.625359654427
1555298143928735083,23554,1555298143928735083,world,-2.89320087433,-0.820220708847,0.79803943634,-0.713819205761,0.125883921981,-0.288704365492,0.625512063503
1555298143939168806,23555,1555298143939168806,world,-2.8932352066,-0.820208072662,0.798047780991,-0.713730156422,0.126061841846,-0.288770854473,0.62554705143
1555298143948632180,23556,1555298143948632180,world,-2.89324474335,-0.820148468018,0.798072338104,-0.713834404945,0.125918567181,-0.288613289595,0.625529706478
1555298143959082202,23557,1555298143959082202,world,-2.89321041107,-0.820167541504,0.79803276062,-0.713802278042,0.125966534019,-0.288777798414,0.625480830669
1555298143968494199,23558,1555298143968494199,world,-2.89317893982,-0.82012796402,0.797996997833,-0.713869810104,0.126191735268,-0.288883924484,0.625309228897
1555298143978791692,23559,1555298143978791692,world,-2.89320659637,-0.820046901703,0.79799413681,-0.713853299618,0.125901922584,-0.288512796164,0.62555783987
1555298143978828527,23560,1555298143978828527,world,-2.89318370819,-0.820097208023,0.797988653183,-0.713825702667,0.126209154725,-0.288723021746,0.625430345535
1555298143998522459,23561,1555298143998522459,world,-2.89319038391,-0.820022583008,0.798052072525,-0.713815808296,0.125660061836,-0.288459509611,0.6256737113
1555298143998563307,23562,1555298143998563307,world,-2.89317798615,-0.820094823837,0.798043489456,-0.713765084743,0.126146107912,-0.288750559092,0.625499486923
1555298144008943937,23563,1555298144008943937,world,-2.8931312561,-0.820078849792,0.798038959503,-0.713785231113,0.125856369734,-0.288424551487,0.625685274601
1555298144018288910,23564,1555298144018288910,world,-2.89312362671,-0.820144414902,0.797987937927,-0.713684976101,0.12607614696,-0.288548201323,0.625698506832
1555298144028581433,23565,1555298144028581433,world,-2.89315509796,-0.820125102997,0.798073768616,-0.713764846325,0.12576495111,-0.288324564695,0.625773131847
1555298144028630879,23566,1555298144028630879,world,-2.89310932159,-0.820217132568,0.798101425171,-0.713830947876,0.12588442862,-0.288604289293,0.625544548035
1555298144038950039,23567,1555298144038950039,world,-2.89311408997,-0.820241451263,0.798076152802,-0.713832676411,0.126018449664,-0.288541615009,0.625544667244
1555298144048256952,23568,1555298144048256952,world,-2.89313411713,-0.820212364197,0.798067092896,-0.713809728622,0.125975206494,-0.28837826848,0.625654935837
1555298144058598935,23569,1555298144058598935,world,-2.89313983917,-0.820228099823,0.798013448715,-0.713759958744,0.125963494182,-0.288514912128,0.62565100193
1555298144068907547,23570,1555298144068907547,world,-2.89315891266,-0.820228099823,0.798046112061,-0.713761508465,0.126024931669,-0.288748770952,0.625528812408
1555298144078205528,23571,1555298144078205528,world,-2.89315605164,-0.820199966431,0.798075199127,-0.713776946068,0.126163065434,-0.288629382849,0.625538527966
1555298144078256378,23572,1555298144078256378,world,-2.8931722641,-0.820181369781,0.79802942276,-0.713779270649,0.126027494669,-0.288535773754,0.625606358051
1555298144088682598,23573,1555298144088682598,world,-2.89317989349,-0.820163488388,0.798002481461,-0.713766157627,0.126086324453,-0.288726508617,0.625521481037
1555298144099123669,23574,1555298144099123669,world,-2.89318847656,-0.820167064667,0.797999620438,-0.713785886765,0.126036003232,-0.288608938456,0.625563383102
1555298144108500440,23575,1555298144108500440,world,-2.89321994781,-0.820120096207,0.798042297363,-0.713829696178,0.125949889421,-0.28864505887,0.625514030457
1555298144118852315,23576,1555298144118852315,world,-2.89322853088,-0.820102930069,0.798040628433,-0.713744521141,0.125914514065,-0.28848657012,0.625691354275
1555298144128205066,23577,1555298144128205066,world,-2.89319419861,-0.820109605789,0.797971248627,-0.713789880276,0.126013025641,-0.288597673178,0.625568807125
1555298144138566538,23578,1555298144138566538,world,-2.89320087433,-0.820071935654,0.797986745834,-0.713808715343,0.125739201903,-0.288545101881,0.625626504421
1555298144138610770,23579,1555298144138610770,world,-2.89319133759,-0.820135354996,0.798038721085,-0.713867843151,0.126051992178,-0.288841426373,0.625359475613
1555298144148904162,23580,1555298144148904162,world,-2.8931722641,-0.820138931274,0.798080444336,-0.713842153549,0.125985279679,-0.288532406092,0.625544786453
1555298144158245152,23581,1555298144158245152,world,-2.89317798615,-0.820141553879,0.798070430756,-0.713791489601,0.126004517078,-0.288613885641,0.625561177731
1555298144168537590,23582,1555298144168537590,world,-2.89317321777,-0.820172071457,0.798025131226,-0.713784694672,0.125872612,-0.288581490517,0.625610351562
1555298144178875867,23583,1555298144178875867,world,-2.89316654205,-0.820200204849,0.798043966293,-0.713724553585,0.12586401403,-0.288652867079,0.625647723675
1555298144178913042,23584,1555298144178913042,world,-2.89314174652,-0.820236444473,0.798070669174,-0.713802576065,0.126334786415,-0.289032101631,0.625288724899
1555298144188224289,23585,1555298144188224289,world,-2.89312934875,-0.820227146149,0.798077106476,-0.713764846325,0.126327261329,-0.288834899664,0.625424325466
1555298144198611481,23586,1555298144198611481,world,-2.89314460754,-0.820254802704,0.798081636429,-0.713798105717,0.126123219728,-0.28892070055,0.625387966633
1555298144209076822,23587,1555298144209076822,world,-2.89314079285,-0.820233345032,0.798040390015,-0.713779807091,0.126094996929,-0.28889092803,0.625428140163
1555298144218521150,23588,1555298144218521150,world,-2.89314556122,-0.820206403732,0.798045873642,-0.71377581358,0.126359567046,-0.288932770491,0.625360190868
1555298144228983438,23589,1555298144228983438,world,-2.89317131042,-0.820187807083,0.798064231873,-0.713714540005,0.126082763076,-0.288871020079,0.625514447689
1555298144229034447,23590,1555298144229034447,world,-2.89320278168,-0.820120096207,0.798045158386,-0.713822007179,0.125897347927,-0.288629382849,0.625540673733
1555298144248805249,23591,1555298144248805249,world,-2.89322566986,-0.820117950439,0.798051118851,-0.713760614395,0.125790074468,-0.288526922464,0.62567949295
1555298144248845800,23592,1555298144248845800,world,-2.89321422577,-0.820130586624,0.79806470871,-0.713789701462,0.125921502709,-0.288685113192,0.62554693222
1555298144258158924,23593,1555298144258158924,world,-2.89321613312,-0.820155858994,0.79803943634,-0.713816583157,0.126006573439,-0.289007812738,0.625349998474
1555298144268502788,23594,1555298144268502788,world,-2.8932352066,-0.820105314255,0.798043966293,-0.713690876961,0.12571400404,-0.288638085127,0.625723063946
1555298144278833530,23595,1555298144278833530,world,-2.89322376251,-0.820127248764,0.79803276062,-0.713721573353,0.12578509748,-0.288407504559,0.6257802248
1555298144278869218,23596,1555298144278869218,world,-2.89319133759,-0.820140361786,0.798077344894,-0.713832736015,0.125828266144,-0.288464277983,0.62561839819
1555298144288187203,23597,1555298144288187203,world,-2.89319038391,-0.820156097412,0.798098802567,-0.713835060596,0.125918716192,-0.288602411747,0.625533878803
1555298144298659689,23598,1555298144298659689,world,-2.89317417145,-0.820180892944,0.798053741455,-0.713776171207,0.125966876745,-0.288661658764,0.625564157963
1555298144309106276,23599,1555298144309106276,world,-2.89315700531,-0.820204734802,0.798018455505,-0.713723957539,0.125991985202,-0.288753807545,0.625576138496
1555298144318876902,23600,1555298144318876902,world,-2.89315319061,-0.820184469223,0.798056364059,-0.713708162308,0.126014128327,-0.288706809282,0.625611305237
1555298144328299576,23601,1555298144328299576,world,-2.89315032959,-0.820184230804,0.798102617264,-0.713755071163,0.126053497195,-0.288764685392,0.625523269176
1555298144338764144,23602,1555298144338764144,world,-2.8931427002,-0.82014966011,0.79811167717,-0.713755548,0.125860318542,-0.288511365652,0.625678479671
1555298144338804597,23603,1555298144338804597,world,-2.89313030243,-0.820163249969,0.798072814941,-0.713734924793,0.126036077738,-0.288779199123,0.625542938709
1555298144348114321,23604,1555298144348114321,world,-2.8931055069,-0.820153236389,0.798005819321,-0.713747143745,0.126039743423,-0.288707345724,0.625561416149
1555298144368857091,23605,1555298144368857091,world,-2.89310932159,-0.820140600204,0.798002004623,-0.713739037514,0.126100480556,-0.288847535849,0.625493705273
1555298144368886395,23606,1555298144368886395,world,-2.89313602448,-0.820100545883,0.798090696335,-0.713792264462,0.126033768058,-0.288739532232,0.625496327877
1555298144378126829,23607,1555298144378126829,world,-2.89315032959,-0.820072174072,0.798096418381,-0.713843405247,0.1260189116,-0.288601219654,0.625504791737
1555298144388528995,23608,1555298144388528995,world,-2.89314460754,-0.820058345795,0.798050642014,-0.713799476624,0.125952780247,-0.288650155067,0.625545740128
1555298144388575107,23609,1555298144388575107,world,-2.8931350708,-0.820078372955,0.797983169556,-0.713764071465,0.126102507114,-0.288667529821,0.62554782629
1555298144408231856,23610,1555298144408231856,world,-2.89311313629,-0.820154428482,0.797971487045,-0.713782727718,0.126234441996,-0.289048582315,0.62532377243
1555298144408270007,23611,1555298144408270007,world,-2.89313697815,-0.82014799118,0.798031806946,-0.713905692101,0.125952243805,-0.288799375296,0.625355660915
1555298144418664323,23612,1555298144418664323,world,-2.89315605164,-0.820163011551,0.798096656799,-0.713841974735,0.126107409596,-0.288669973612,0.625456869602
1555298144429064136,23613,1555298144429064136,world,-2.8931312561,-0.82022190094,0.798084259033,-0.713798820972,0.126031950116,-0.288902074099,0.625414192677
1555298144429102600,23614,1555298144429102600,world,-2.89316368103,-0.820250749588,0.798032045364,-0.713748633862,0.125994965434,-0.288845390081,0.625505149364
1555298144438480484,23615,1555298144438480484,world,-2.89319133759,-0.820224046707,0.798031330109,-0.713759720325,0.125834792852,-0.288510620594,0.625679075718
1555298144448877660,23616,1555298144448877660,world,-2.89319419861,-0.820231676102,0.798064947128,-0.71381264925,0.125801950693,-0.288338601589,0.625704586506
1555298144458267612,23617,1555298144458267612,world,-2.89317893982,-0.820250272751,0.7980864048,-0.713764488697,0.12603327632,-0.288425862789,0.625672876835
1555298144468652830,23618,1555298144468652830,world,-2.89318180084,-0.820234060287,0.79807972908,-0.713755786419,0.126135498285,-0.288616329432,0.625574111938
1555298144478992560,23619,1555298144478992560,world,-2.89318180084,-0.82023692131,0.798062324524,-0.713738679886,0.126140609384,-0.288775116205,0.625519514084
1555298144488398074,23620,1555298144488398074,world,-2.89316654205,-0.820212125778,0.798019886017,-0.713698029518,0.126246929169,-0.288816660643,0.625525176525
1555298144488441193,23621,1555298144488441193,world,-2.89318084717,-0.82013130188,0.798022508621,-0.713762819767,0.125956386328,-0.288670957088,0.625577032566
1555298144498781767,23622,1555298144498781767,world,-2.89317989349,-0.820103406906,0.79803609848,-0.713805615902,0.125905379653,-0.288609713316,0.625566899776
1555298144508056348,23623,1555298144508056348,world,-2.89318466187,-0.820081949234,0.798084020615,-0.713778316975,0.125861734152,-0.288553774357,0.625632584095
1555298144528752047,23624,1555298144528752047,world,-2.89317512512,-0.820070743561,0.798126220703,-0.713804423809,0.125883743167,-0.288548201323,0.625600993633
1555298144539158768,23625,1555298144539158768,world,-2.89315986633,-0.8201212883,0.798057794571,-0.713777065277,0.126040533185,-0.288659840822,0.625549077988
1555298144539215020,23626,1555298144539215020,world,-2.89316272736,-0.820089578629,0.798002481461,-0.713778436184,0.125795468688,-0.288472026587,0.625683486462
1555298144578374195,23627,1555298144578374195,world,-2.8931427002,-0.820134401321,0.798026323318,-0.713771402836,0.126125186682,-0.28882843256,0.625460684299
1555298144578413430,23628,1555298144578413430,world,-2.89315223694,-0.820159912109,0.798114776611,-0.71384614706,0.125947922468,-0.288810640574,0.625419139862
1555298144578468894,23629,1555298144578468894,world,-2.89313793182,-0.820204496384,0.798121452332,-0.713909387589,0.125954389572,-0.288867950439,0.625319242477
1555298144578496033,23630,1555298144578496033,world,-2.89313316345,-0.820248603821,0.798062086105,-0.713806629181,0.126102089882,-0.288782000542,0.625446557999
1555298144578523817,23631,1555298144578523817,world,-2.89312553406,-0.8202252388,0.79801607132,-0.713683962822,0.126105725765,-0.288641899824,0.625650346279
1555298144588861333,23632,1555298144588861333,world,-2.89312362671,-0.82026553154,0.798039674759,-0.713644385338,0.126191079617,-0.288785308599,0.625612199306
1555298144588903370,23633,1555298144588903370,world,-2.89313220978,-0.820250034332,0.798109292984,-0.713727355003,0.126073420048,-0.288660615683,0.625598847866
1555298144598252407,23634,1555298144598252407,world,-2.89315605164,-0.820185899734,0.798143148422,-0.713779747486,0.125933393836,-0.28859513998,0.62559735775
1555298144608700542,23635,1555298144608700542,world,-2.89312362671,-0.820172786713,0.798090696335,-0.713733971119,0.126029461622,-0.2887160182,0.625574409962
1555298144619152133,23636,1555298144619152133,world,-2.89314556122,-0.820137500763,0.798055171967,-0.713695943356,0.125984176993,-0.288515299559,0.625719726086
1555298144628511783,23637,1555298144628511783,world,-2.89313411713,-0.820134401321,0.79802775383,-0.713721096516,0.12618175149,-0.288774549961,0.625531494617
1555298144638855156,23638,1555298144638855156,world,-2.89314746857,-0.820125579834,0.798060894012,-0.713743984699,0.125984162092,-0.288632214069,0.625610888004
1555298144648213563,23639,1555298144648213563,world,-2.89314556122,-0.82007932663,0.798100709915,-0.713778674603,0.125911042094,-0.288572639227,0.625613629818
1555298144648256242,23640,1555298144648256242,world,-2.89311885834,-0.820086956024,0.79807639122,-0.713726997375,0.126011550426,-0.288601994514,0.625638723373
1555298144658575679,23641,1555298144658575679,world,-2.89310264587,-0.820100069046,0.798087120056,-0.713798046112,0.126017570496,-0.288601875305,0.625556468964
1555298144668957311,23642,1555298144668957311,world,-2.89312648773,-0.820073127747,0.798062801361,-0.713706076145,0.125740796328,-0.288311779499,0.625850737095
1555298144669002037,23643,1555298144669002037,world,-2.89311122894,-0.820129394531,0.798056364059,-0.713718831539,0.12586389482,-0.288543313742,0.625704944134
1555298144688824373,23644,1555298144688824373,world,-2.89310646057,-0.820136070251,0.798094034195,-0.713747560978,0.12591971457,-0.288568764925,0.625649034977
1555298144688878303,23645,1555298144688878303,world,-2.89308929443,-0.820171356201,0.798124074936,-0.713837385178,0.12607139349,-0.288700938225,0.625455141068
1555298144698075128,23646,1555298144698075128,world,-2.89307880402,-0.820197343826,0.798119306564,-0.713778972626,0.126091435552,-0.288866907358,0.625441074371
1555298144708467720,23647,1555298144708467720,world,-2.89308929443,-0.820206165314,0.798088550568,-0.713722467422,0.126060202718,-0.288859993219,0.625514984131
1555298144718807286,23648,1555298144718807286,world,-2.89308738708,-0.820180416107,0.798070907593,-0.713757753372,0.126018881798,-0.288731575012,0.625542402267
1555298144728076857,23649,1555298144728076857,world,-2.89310455322,-0.820148468018,0.798051118851,-0.713759481907,0.125935986638,-0.288695126772,0.625573933125
1555298144738472991,23650,1555298144738472991,world,-2.8930978775,-0.82018661499,0.798082828522,-0.713697493076,0.125961750746,-0.288796126842,0.625592768192
1555298144738511694,23651,1555298144738511694,world,-2.89311790466,-0.820140123367,0.79811501503,-0.713754236698,0.125910907984,-0.288640797138,0.62560993433
1555298144758029195,23652,1555298144758029195,world,-2.89312744141,-0.820123434067,0.798099994659,-0.713736534119,0.125963568687,-0.288520097733,0.625675201416
1555298144758069178,23653,1555298144758069178,world,-2.89314079285,-0.820090055466,0.798067569733,-0.713753402233,0.125777468085,-0.288410633802,0.625744044781
1555298144768460783,23654,1555298144768460783,world,-2.89312171936,-0.820116996765,0.798048496246,-0.713760793209,0.125845462084,-0.288466274738,0.625696361065
1555298144778748273,23655,1555298144778748273,world,-2.89312362671,-0.820122480392,0.798060178757,-0.713734686375,0.126012817025,-0.288629323244,0.625617086887
1555298144778791744,23656,1555298144778791744,world,-2.89312171936,-0.820183992386,0.798092365265,-0.713763356209,0.125985980034,-0.288839787245,0.62549251318
1555298144798366100,23657,1555298144798366100,world,-2.89310073853,-0.820213317871,0.798105716705,-0.713823020458,0.12611566484,-0.288859814405,0.625389277935
1555298144798434599,23658,1555298144798434599,world,-2.89311790466,-0.820189714432,0.798088312149,-0.713747560978,0.125942021608,-0.288614332676,0.625623524189
1555298144818100351,23659,1555298144818100351,world,-2.89311981201,-0.820217847824,0.798069953918,-0.713717639446,0.125743672252,-0.288475841284,0.625761449337
1555298144818170212,23660,1555298144818170212,world,-2.89312362671,-0.820262908936,0.798063755035,-0.713787913322,0.125942826271,-0.288536041975,0.625613391399
1555298144828491138,23661,1555298144828491138,world,-2.89311504364,-0.82025885582,0.798089742661,-0.713773846626,0.126060187817,-0.288691610098,0.625533998013
1555298144828561070,23662,1555298144828561070,world,-2.89311218262,-0.820275783539,0.798123836517,-0.713747739792,0.126096621156,-0.288573771715,0.6256108284
1555298144838934735,23663,1555298144838934735,world,-2.8931312561,-0.820239305496,0.798149347305,-0.713781416416,0.126005426049,-0.288477450609,0.625635206699
1555298144868060034,23664,1555298144868060034,world,-2.89312744141,-0.820247650146,0.798066854477,-0.713759362698,0.126008495688,-0.288575857878,0.625614583492
1555298144868128719,23665,1555298144868128719,world,-2.89311695099,-0.820223331451,0.798060655594,-0.713688790798,0.126135572791,-0.288717836142,0.625603854656
1555298144868158001,23666,1555298144868158001,world,-2.89314460754,-0.820183992386,0.798076868057,-0.713746666908,0.125997424126,-0.288638800383,0.625602185726
1555298144878444070,23667,1555298144878444070,world,-2.89312076569,-0.820192575455,0.798086643219,-0.713793814182,0.126128345728,-0.288725912571,0.625481665134
1555298144878505417,23668,1555298144878505417,world,-2.89311218262,-0.820164442062,0.798092842102,-0.713858783245,0.125908538699,-0.288612693548,0.62550419569
1555298144898293885,23669,1555298144898293885,world,-2.89313793182,-0.820139884949,0.798061132431,-0.71376657486,0.12594987452,-0.288615137339,0.625599861145
1555298144928493936,23670,1555298144928493936,world,-2.89315128326,-0.820090055466,0.798072338104,-0.713735997677,0.125715643167,-0.288314849138,0.625820159912
1555298144928563412,23671,1555298144928563412,world,-2.89316082001,-0.820115804672,0.798060178757,-0.713770627975,0.125817134976,-0.288328438997,0.625754117966
1555298144928618110,23673,1555298144928618110,world,-2.89311695099,-0.820203304291,0.798102140427,-0.71378916502,0.125925883651,-0.288606137037,0.62558311224
1555298144939001715,23674,1555298144939001715,world,-2.89309883118,-0.820250749588,0.798096656799,-0.713704049587,0.126134499907,-0.288917630911,0.625494420528
1555298144978221256,23675,1555298144978221256,world,-2.89312744141,-0.820230007172,0.798082828522,-0.713723480701,0.126095861197,-0.288616359234,0.625618994236
