%time,field.header.seq,field.header.stamp,field.header.frame_id,field.pose.position.x,field.pose.position.y,field.pose.position.z,field.pose.orientation.x,field.pose.orientation.y,field.pose.orientation.z,field.pose.orientation.w
1555298322919107210,24584,1555298322919107210,world,-2.8878326416,-0.818128824234,0.798003196716,-0.70458561182,0.168636515737,-0.324492365122,0.608132958412
1555298322919153696,24585,1555298322919153696,world,-2.88781070709,-0.81814789772,0.798012733459,-0.70465606451,0.168519899249,-0.325105160475,0.607756257057
1555298322919207988,24586,1555298322919207988,world,-2.88784599304,-0.818170785904,0.797983407974,-0.704655170441,0.168716728687,-0.324765920639,0.607883930206
1555298322919285594,24589,1555298322919285594,world,-2.88790893555,-0.818161964417,0.797993421555,-0.704566717148,0.168542027473,-0.324513792992,0.608169555664
1555298322919329473,24590,1555298322919329473,world,-2.88789558411,-0.818156719208,0.798011064529,-0.704570174217,0.168568357825,-0.32467469573,0.608072221279
1555298322919377301,24592,1555298322919377301,world,-2.88791656494,-0.818130731583,0.79801440239,-0.704594254494,0.168413028121,-0.324438303709,0.608213603497
1555298322919417768,24593,1555298322919417768,world,-2.88786792755,-0.818149089813,0.797986984253,-0.704479455948,0.168316185474,-0.325203895569,0.607964515686
1555298322919463776,24595,1555298322919463776,world,-2.88790035248,-0.818166971207,0.797951221466,-0.704512476921,0.168548628688,-0.324811905622,0.608071267605
1555298323138442968,24596,1555298323138442968,world,-2.88786792755,-0.818155765533,0.797991275787,-0.704564154148,0.168691113591,-0.324748307467,0.60800588131
1555298323138521071,24597,1555298323138521071,world,-2.88784790039,-0.818161487579,0.798003911972,-0.704666733742,0.168567463756,-0.324625462294,0.607986867428
1555298323138576619,24599,1555298323138576619,world,-2.8878660202,-0.81819152832,0.797964811325,-0.704452037811,0.168417870998,-0.325277090073,0.607928991318
1555298323138613698,24600,1555298323138613698,world,-2.88790416718,-0.818219184875,0.797975301743,-0.704405367374,0.168716564775,-0.324992090464,0.608052611351
1555298323138709544,24603,1555298323138709544,world,-2.88786888123,-0.81822514534,0.79797911644,-0.704722881317,0.168704092503,-0.324834465981,0.607772350311
1555298323138734648,24604,1555298323138734648,world,-2.88792228699,-0.818183422089,0.79795050621,-0.704710781574,0.168479993939,-0.324426800013,0.60806620121
1555298323138778192,24606,1555298323138778192,world,-2.88797950745,-0.818184614182,0.797978401184,-0.704427957535,0.168290257454,-0.324797034264,0.608248710632
1555298323138833456,24607,1555298323138833456,world,-2.88793373108,-0.818185091019,0.797999620438,-0.704557478428,0.168687179685,-0.324682295322,0.608049988747
1555298323138856682,24608,1555298323138856682,world,-2.88795661926,-0.818154811859,0.798030376434,-0.704470038414,0.16844163835,-0.324714273214,0.608202397823
1555298323138901851,24609,1555298323138901851,world,-2.88790035248,-0.818159580231,0.797978639603,-0.704624652863,0.1686373353,-0.324646830559,0.608005046844
1555298323138926618,24610,1555298323138926618,world,-2.88784980774,-0.818165302277,0.797938346863,-0.704624474049,0.168944731355,-0.324821531773,0.607826590538
1555298323138976809,24611,1555298323138976809,world,-2.8879070282,-0.818176269531,0.797929048538,-0.704500675201,0.168681561947,-0.32491505146,0.607993125916
1555298323139009192,24612,1555298323139009192,world,-2.88791751862,-0.818175315857,0.797978878021,-0.704445660114,0.168599560857,-0.324852734804,0.608112931252
1555298323139061655,24613,1555298323139061655,world,-2.88791179657,-0.818215370178,0.798042297363,-0.704442918301,0.168666943908,-0.324924558401,0.608059108257
1555298323139106278,24615,1555298323139106278,world,-2.88786029816,-0.818159103394,0.797974348068,-0.704633235931,0.168594181538,-0.324484348297,0.608093738556
1555298323148372534,24616,1555298323148372534,world,-2.88795375824,-0.818163156509,0.798043727875,-0.704469919205,0.168229937553,-0.324502468109,0.608374118805
1555298323158766805,24617,1555298323158766805,world,-2.8879070282,-0.818172931671,0.797932624817,-0.704572141171,0.168474301696,-0.324665755033,0.608100831509
1555298323178397804,24618,1555298323178397804,world,-2.88784980774,-0.81821346283,0.79788184166,-0.704652309418,0.168852031231,-0.324968695641,0.607741355896
1555298323178438666,24619,1555298323178438666,world,-2.88793563843,-0.818183422089,0.797986984253,-0.704560041428,0.168457388878,-0.324510812759,0.608202219009
1555298323178488017,24620,1555298323178488017,world,-2.88795280457,-0.818196058273,0.798087835312,-0.704511284828,0.168226704001,-0.324598997831,0.608275592327
1555298323188839224,24621,1555298323188839224,world,-2.88793182373,-0.818214178085,0.798070430756,-0.704573392868,0.168307006359,-0.324808239937,0.608069658279
1555298323198135716,24622,1555298323198135716,world,-2.88792610168,-0.818197250366,0.797983646393,-0.704456090927,0.16845113039,-0.324880838394,0.608126938343
1555298323208443290,24623,1555298323208443290,world,-2.8878993988,-0.81819319725,0.797919988632,-0.704455018044,0.168515905738,-0.324970215559,0.608062446117
1555298323218762258,24624,1555298323218762258,world,-2.88784980774,-0.818222761154,0.797931432724,-0.704634964466,0.169011667371,-0.325040727854,0.6076785326
1555298323229094538,24625,1555298323229094538,world,-2.88787174225,-0.818147182465,0.798053741455,-0.704694569111,0.168510809541,-0.324523001909,0.60802513361
1555298323238379376,24626,1555298323238379376,world,-2.88790512085,-0.818209409714,0.798060655594,-0.704582512379,0.168538346887,-0.324940592051,0.607924342155
1555298323468665948,24627,1555298323468665948,world,-2.88787555695,-0.818160772324,0.797985315323,-0.704624593258,0.168550416827,-0.324632495642,0.608036935329
1555298323468710233,24628,1555298323468710233,world,-2.88786220551,-0.818140029907,0.797915220261,-0.704577505589,0.168709531426,-0.324618041515,0.608054995537
1555298323468751659,24629,1555298323468751659,world,-2.88786220551,-0.818152666092,0.797916412354,-0.704662501812,0.168642863631,-0.324623197317,0.607972323895
1555298323468794390,24631,1555298323468794390,world,-2.88786697388,-0.818179368973,0.798028230667,-0.704587757587,0.1687207371,-0.324698716402,0.607996821404
1555298323468831663,24632,1555298323468831663,world,-2.8879404068,-0.818172931671,0.798046112061,-0.704410076141,0.16824889183,-0.32463312149,0.608368396759
1555298323468853357,24633,1555298323468853357,world,-2.88789653778,-0.818161010742,0.797943353653,-0.704519510269,0.168589353561,-0.324631690979,0.608148097992
1555298323468874556,24634,1555298323468874556,world,-2.88793087006,-0.818192005157,0.79794883728,-0.704442679882,0.168529853225,-0.3248308599,0.608147323132
1555298323468898625,24635,1555298323468898625,world,-2.88788509369,-0.818197011948,0.79797077179,-0.704592108727,0.168677136302,-0.324602454901,0.60805529356
1555298323468921276,24636,1555298323468921276,world,-2.88793373108,-0.818192958832,0.798040628433,-0.704474687576,0.168438434601,-0.324652314186,0.608230829239
1555298323468944218,24637,1555298323468944218,world,-2.88790130615,-0.818183898926,0.798055171967,-0.704582214355,0.168486297131,-0.324567437172,0.60813832283
1555298323468982262,24638,1555298323468982262,world,-2.88789367676,-0.818170785904,0.797986984253,-0.704583644867,0.168442726135,-0.324478507042,0.608196258545
1555298323469005984,24639,1555298323469005984,world,-2.88786125183,-0.818180799484,0.797922849655,-0.704528093338,0.168728172779,-0.324833154678,0.607992172241
1555298323469023360,24640,1555298323469023360,world,-2.88785171509,-0.818190097809,0.797913312912,-0.704618275166,0.168882146478,-0.324995070696,0.607758402824
1555298323469043327,24641,1555298323469043327,world,-2.88785266876,-0.818199634552,0.797982215881,-0.704678058624,0.168756484985,-0.324956059456,0.607744693756
1555298323469105508,24642,1555298323469105508,world,-2.88791275024,-0.818171024323,0.798059225082,-0.704643785954,0.168392077088,-0.324509054422,0.608124375343
1555298323469128711,24643,1555298323469128711,world,-2.88788604736,-0.818168401718,0.798008441925,-0.70461833477,0.16880081594,-0.324753373861,0.607909858227
1555298323469146817,24644,1555298323469146817,world,-2.88792896271,-0.81816983223,0.797945261002,-0.704503834248,0.168460682034,-0.324974566698,0.608018755913
1555298323469173755,24645,1555298323469173755,world,-2.88789081573,-0.818154573441,0.797919273376,-0.704524517059,0.168745517731,-0.324813604355,0.608001947403
1555298323469209242,24647,1555298323469209242,world,-2.88789844513,-0.818137645721,0.798058509827,-0.704610586166,0.168410301208,-0.324445486069,0.608191728592
1555298323469227552,24648,1555298323469227552,world,-2.88786697388,-0.818153619766,0.798028230667,-0.704629719257,0.168583706021,-0.32463696599,0.60801923275
1555298323469245600,24649,1555298323469245600,world,-2.88786125183,-0.81814622879,0.797958135605,-0.704529047012,0.168669223785,-0.324777960777,0.608036756516
1555298323469277182,24650,1555298323469277182,world,-2.88783359528,-0.818179130554,0.797922134399,-0.704548001289,0.168943807483,-0.325066059828,0.607784688473
1555298323478676837,24651,1555298323478676837,world,-2.88787078857,-0.818180561066,0.797952413559,-0.704585433006,0.168826624751,-0.32495829463,0.607831418514
1555298323478745994,24652,1555298323478745994,world,-2.88786029816,-0.818175315857,0.797943115234,-0.704669296741,0.168717339635,-0.324877083302,0.607807993889
1555298323498416196,24653,1555298323498416196,world,-2.88787174225,-0.818192720413,0.797985315323,-0.70461076498,0.168807849288,-0.324724406004,0.607932269573
1555298323498466771,24654,1555298323498466771,world,-2.88790225983,-0.818162918091,0.798028707504,-0.704658806324,0.168465867639,-0.324553638697,0.608062624931
1555298323508819587,24655,1555298323508819587,world,-2.8879070282,-0.818177700043,0.798008680344,-0.704619944096,0.168531313539,-0.324622422457,0.60805284977
1555298323518399621,24656,1555298323518399621,world,-2.88796329498,-0.818163633347,0.798002243042,-0.704430937767,0.168249711394,-0.324548214674,0.608389317989
1555298323528645934,24657,1555298323528645934,world,-2.88798141479,-0.818194627762,0.797978639603,-0.7043364048,0.16846126318,-0.324817657471,0.608296394348
1555298323528702426,24658,1555298323528702426,world,-2.88794326782,-0.818200826645,0.797985553741,-0.704442977905,0.168394744396,-0.324802517891,0.608199596405
1555298323538909540,24659,1555298323538909540,world,-2.88792228699,-0.81822180748,0.79802107811,-0.704485058784,0.168323084712,-0.325237482786,0.607937991619
1555298323548194241,24660,1555298323548194241,world,-2.88794326782,-0.818229675293,0.798028945923,-0.704499661922,0.168556854129,-0.325033396482,0.607965648174
1555298323558744165,24661,1555298323558744165,world,-2.88790798187,-0.818229675293,0.797980546951,-0.704572796822,0.168761000037,-0.32475695014,0.607971847057
1555298323568073617,24662,1555298323568073617,world,-2.88787078857,-0.818203687668,0.797938346863,-0.704691946507,0.168883994222,-0.324747234583,0.607804894447
1555298323798735688,24663,1555298323798735688,world,-2.88791561127,-0.818214416504,0.797974824905,-0.704463481903,0.168688893318,-0.324811697006,0.608089447021
1555298323818281267,24664,1555298323818281267,world,-2.88788986206,-0.818188667297,0.797998666763,-0.704666733742,0.168592080474,-0.324698418379,0.607941091061
1555298323818321219,24665,1555298323818321219,world,-2.88791942596,-0.818204879761,0.798038482666,-0.704554975033,0.168595001101,-0.324887007475,0.607969224453
1555298323818373486,24666,1555298323818373486,world,-2.88793087006,-0.818179130554,0.798032522202,-0.70446395874,0.168397605419,-0.324655413628,0.608253002167
1555298323818422910,24668,1555298323818422910,world,-2.88778781891,-0.818111658096,0.79792881012,-0.704597234726,0.168649196625,-0.325231432915,0.607720851898
1555298323818472893,24669,1555298323818472893,world,-2.88778591156,-0.818144321442,0.79794883728,-0.704662263393,0.168912991881,-0.32498010993,0.607706725597
1555298323818503521,24670,1555298323818503521,world,-2.88782405853,-0.818099737167,0.798010587692,-0.704662740231,0.168597444892,-0.324489444494,0.608056008816
1555298323818529110,24671,1555298323818529110,world,-2.88786029816,-0.818093538284,0.798010349274,-0.704655110836,0.168716296554,-0.324319332838,0.608122527599
1555298323818556452,24672,1555298323818556452,world,-2.88783454895,-0.818130970001,0.797962665558,-0.704658031464,0.168826818466,-0.32478094101,0.607841968536
1555298323818609314,24673,1555298323818609314,world,-2.88781642914,-0.818164825439,0.797929763794,-0.704579472542,0.169183656573,-0.325152367353,0.607635200024
1555298323818671621,24674,1555298323818671621,world,-2.88788986206,-0.81808423996,0.797992706299,-0.70452773571,0.168429896235,-0.324530094862,0.608236968517
1555298323818698885,24675,1555298323818698885,world,-2.88786315918,-0.818138837814,0.797998666763,-0.704583227634,0.168554797769,-0.324754744768,0.608018279076
1555298323818727400,24676,1555298323818727400,world,-2.88789844513,-0.818193912506,0.798022985458,-0.704471886158,0.168691471219,-0.3248231709,0.60807287693
1555298323818770436,24677,1555298323818770436,world,-2.88788700104,-0.818165063858,0.798021793365,-0.704517424107,0.168377354741,-0.324489146471,0.608285307884
1555298323818797552,24678,1555298323818797552,world,-2.88790035248,-0.81821680069,0.7979824543,-0.704506397247,0.168450117111,-0.324678659439,0.60817694664
1555298323818823916,24679,1555298323818823916,world,-2.88791370392,-0.818249225616,0.797992706299,-0.704445540905,0.168497845531,-0.32490286231,0.608114421368
1555298323818850235,24680,1555298323818850235,world,-2.88788032532,-0.818232059479,0.797988653183,-0.704599022865,0.168494746089,-0.324648946524,0.608072936535
1555298323818889818,24681,1555298323818889818,world,-2.88785934448,-0.818253993988,0.797974824905,-0.704597771168,0.168866172433,-0.32491376996,0.607829928398
1555298323818917568,24682,1555298323818917568,world,-2.88789558411,-0.818225622177,0.797978639603,-0.704523265362,0.168610438704,-0.324995964766,0.607943475246
1555298323818943771,24683,1555298323818943771,world,-2.88784313202,-0.818173885345,0.797973871231,-0.704513967037,0.168536290526,-0.325172513723,0.607880294323
1555298323818973175,24684,1555298323818973175,world,-2.88790035248,-0.81817317009,0.797984600067,-0.704534471035,0.168591067195,-0.324810832739,0.608034789562
1555298323819002250,24685,1555298323819002250,world,-2.88783168793,-0.818141698837,0.7979824543,-0.704605400562,0.168586090207,-0.325089007616,0.607805132866
1555298323828349412,24686,1555298323828349412,world,-2.88782501221,-0.818192720413,0.79798412323,-0.704659640789,0.16877989471,-0.324755400419,0.607866942883
1555298323838748218,24687,1555298323838748218,world,-2.88783359528,-0.818164587021,0.797999620438,-0.704584658146,0.168591156602,-0.324550300837,0.608115553856
1555298323838820565,24688,1555298323838820565,world,-2.88780784607,-0.818193435669,0.797997236252,-0.704591155052,0.168738469481,-0.324672192335,0.608002126217
1555298323848051920,24689,1555298323848051920,world,-2.88786315918,-0.818208217621,0.798013687134,-0.704523324966,0.168672084808,-0.324808716774,0.608026266098
1555298323858457585,24690,1555298323858457585,world,-2.88783359528,-0.818217515945,0.798004388809,-0.704554498196,0.168964609504,-0.325002402067,0.607805430889
1555298323868773520,24691,1555298323868773520,world,-2.88785934448,-0.818217277527,0.798001289368,-0.704643309116,0.168852582574,-0.32490876317,0.607783675194
1555298323879054232,24692,1555298323879054232,world,-2.88787937164,-0.818166017532,0.79799413681,-0.704635798931,0.168698772788,-0.324673384428,0.607960879803
1555298323879094047,24693,1555298323879094047,world,-2.88794708252,-0.818167686462,0.798000812531,-0.704506933689,0.168595448136,-0.324826747179,0.608056902885
1555298323888551041,24694,1555298323888551041,world,-2.88792800903,-0.818136453629,0.797995328903,-0.704570114613,0.168439164758,-0.324494302273,0.608204483986
1555298323898948602,24695,1555298323898948602,world,-2.88792324066,-0.818134307861,0.79798746109,-0.704653978348,0.16851913929,-0.324472784996,0.608096599579
1555298324138862260,24696,1555298324138862260,world,-2.88790988922,-0.818153858185,0.797969341278,-0.704626023769,0.168649181724,-0.324787706137,0.607924878597
1555298324138905083,24697,1555298324138905083,world,-2.88792514801,-0.818149328232,0.797971725464,-0.704549014568,0.168517574668,-0.324683398008,0.608106315136
1555298324138950855,24698,1555298324138950855,world,-2.8879108429,-0.818134069443,0.797978878021,-0.704597592354,0.168449029326,-0.32448014617,0.608177363873
1555298324139036060,24702,1555298324139036060,world,-2.88778018951,-0.818171262741,0.797973155975,-0.704601764679,0.168602645397,-0.325273156166,0.607706308365
1555298324139087977,24703,1555298324139087977,world,-2.88780975342,-0.818161964417,0.797991037369,-0.704649150372,0.168640837073,-0.324653953314,0.607971847057
1555298324139130552,24705,1555298324139130552,world,-2.88777351379,-0.818162202835,0.797986745834,-0.704544186592,0.168617233634,-0.325208038092,0.607803761959
1555298324139176787,24706,1555298324139176787,world,-2.88785076141,-0.818180322647,0.797992706299,-0.704356491566,0.168650522828,-0.324929744005,0.608160853386
1555298324139218809,24708,1555298324139218809,world,-2.88784313202,-0.818148851395,0.79799079895,-0.704665720463,0.168657973409,-0.324664384127,0.607942223549
1555298324139272686,24709,1555298324139272686,world,-2.8878736496,-0.818135499954,0.798008441925,-0.70456969738,0.168608292937,-0.324511140585,0.608148992062
1555298324139335609,24712,1555298324139335609,world,-2.88789653778,-0.818146944046,0.797937870026,-0.704611361027,0.168641760945,-0.324728518724,0.60797560215
1555298324139379600,24713,1555298324139379600,world,-2.88790798187,-0.818156719208,0.797949314117,-0.704654276371,0.168684974313,-0.324647843838,0.607956767082
1555298324139440707,24715,1555298324139440707,world,-2.88794803619,-0.818150043488,0.798000574112,-0.704546511173,0.168472066522,-0.324517756701,0.608210206032
1555298324139491686,24716,1555298324139491686,world,-2.88794326782,-0.81818652153,0.797986745834,-0.704456329346,0.168407618999,-0.324816942215,0.608172893524
1555298324139515290,24717,1555298324139515290,world,-2.88792324066,-0.81815123558,0.79798078537,-0.704511463642,0.168658509851,-0.324614077806,0.608147680759
1555298324139543105,24718,1555298324139543105,world,-2.88788986206,-0.818180799484,0.797959327698,-0.704626619816,0.168793156743,-0.324839651585,0.60785639286
1555298324139592398,24720,1555298324139592398,world,-2.8878993988,-0.818113565445,0.798009157181,-0.704691529274,0.16820846498,-0.3243072927,0.608227431774
1555298324149029919,24721,1555298324149029919,world,-2.88789081573,-0.818133115768,0.798011302948,-0.704621851444,0.168309524655,-0.32435721159,0.608253598213
1555298324149113964,24722,1555298324149113964,world,-2.88789272308,-0.818143606186,0.797988176346,-0.704619765282,0.168391928077,-0.324363678694,0.608229577541
1555298324158493984,24723,1555298324158493984,world,-2.88783073425,-0.81816983223,0.797983169556,-0.704545140266,0.168518587947,-0.325064271688,0.607906997204
1555298324168888958,24724,1555298324168888958,world,-2.8878660202,-0.818160295486,0.797972917557,-0.704575061798,0.168684065342,-0.324893474579,0.607917785645
1555298324178299542,24725,1555298324178299542,world,-2.88790988922,-0.818167209625,0.797962427139,-0.704549372196,0.168601289392,-0.324548989534,0.60815435648
1555298324178368701,24726,1555298324178368701,world,-2.88789367676,-0.818145751953,0.798003911972,-0.704590499401,0.168302223086,-0.324851483107,0.608028113842
1555298324188797709,24727,1555298324188797709,world,-2.88793945312,-0.818166971207,0.797988414764,-0.70463347435,0.16840916872,-0.324642181396,0.608060359955
1555298324198070852,24728,1555298324198070852,world,-2.88797569275,-0.8181681633,0.798003911972,-0.704498946667,0.168378517032,-0.324837297201,0.608120620251
1555298324208478520,24729,1555298324208478520,world,-2.88794326782,-0.818169593811,0.797966003418,-0.704525768757,0.168656304479,-0.324795037508,0.608035206795
1555298324218874282,24730,1555298324218874282,world,-2.88797569275,-0.818171739578,0.79799246788,-0.704428553581,0.168294593692,-0.324712842703,0.60829180479
1555298324228326411,24731,1555298324228326411,world,-2.8879442215,-0.818148851395,0.798002481461,-0.704543352127,0.168426096439,-0.324667811394,0.608146429062
1555298324468836903,24732,1555298324468836903,world,-2.88796138763,-0.818135976791,0.798031568527,-0.704472720623,0.168448194861,-0.324694246054,0.608208119869
1555298324468880490,24733,1555298324468880490,world,-2.88789272308,-0.818145513535,0.797986745834,-0.704557597637,0.168500646949,-0.324588388205,0.608151853085
1555298324468906631,24734,1555298324468906631,world,-2.88789367676,-0.818182468414,0.798006534576,-0.704483449459,0.168604657054,-0.324823707342,0.608083188534
1555298324468964343,24739,1555298324468964343,world,-2.88787555695,-0.818178415298,0.797986507416,-0.704610109329,0.168549239635,-0.324534535408,0.608106136322
1555298324468995389,24740,1555298324468995389,world,-2.88786411285,-0.818198442459,0.797955036163,-0.704582035542,0.168794229627,-0.324853211641,0.607900500298
1555298324469022335,24742,1555298324469022335,world,-2.88790512085,-0.81810092926,0.797973155975,-0.70459908247,0.16851221025,-0.324512451887,0.608141124249
1555298324469047034,24743,1555298324469047034,world,-2.88785743713,-0.818105697632,0.797975063324,-0.704699516296,0.168662369251,-0.325126647949,0.607654809952
1555298324469072639,24745,1555298324469072639,world,-2.88790130615,-0.818037986755,0.797974824905,-0.704712033272,0.16843341291,-0.324586004019,0.607992589474
1555298324469135084,24746,1555298324469135084,world,-2.8879070282,-0.817994832993,0.797963380814,-0.704669237137,0.168283343315,-0.324392318726,0.608187198639
1555298324469178164,24747,1555298324469178164,world,-2.88782978058,-0.818046331406,0.797934770584,-0.704616844654,0.168456450105,-0.325144797564,0.607797920704
1555298324469201725,24748,1555298324469201725,world,-2.88784408569,-0.818088531494,0.798018455505,-0.704513132572,0.168521776795,-0.324823409319,0.608071923256
1555298324469222812,24749,1555298324469222812,world,-2.88783359528,-0.818204164505,0.798054695129,-0.704477787018,0.169072806835,-0.325024724007,0.607852220535
1555298324469242343,24750,1555298324469242343,world,-2.88778781891,-0.818304777145,0.798007249832,-0.704423248768,0.169134870172,-0.325644403696,0.607566475868
1555298324469260242,24751,1555298324469260242,world,-2.8877954483,-0.818350791931,0.797996282578,-0.704364061356,0.168637752533,-0.325338125229,0.607937335968
1555298324469277700,24752,1555298324469277700,world,-2.88788032532,-0.81843996048,0.79803442955,-0.704335093498,0.168296441436,-0.325336784124,0.608066022396
1555298324469294658,24753,1555298324469294658,world,-2.88799381256,-0.818455457687,0.798116445541,-0.704292833805,0.168080642819,-0.324448525906,0.608649134636
1555298324469329766,24755,1555298324469329766,world,-2.88792228699,-0.818462848663,0.798054456711,-0.704495787621,0.168470546603,-0.324483960867,0.608287274837
1555298324478538759,24756,1555298324478538759,world,-2.88785076141,-0.818001747131,0.798007249832,-0.7047098279,0.168625488877,-0.324560344219,0.607955813408
1555298324478555317,24757,1555298324478555317,world,-2.8877954483,-0.817946195602,0.797944307327,-0.704710125923,0.168900057673,-0.324732631445,0.607787072659
1555298324488789264,24758,1555298324488789264,world,-2.88777637482,-0.817878007889,0.797913551331,-0.704638957977,0.1688169837,-0.32465493679,0.607934236526
1555298324488837227,24759,1555298324488837227,world,-2.88770198822,-0.817948102951,0.797910928726,-0.70474755764,0.169264301658,-0.325072973967,0.607460439205
1555298324498100277,24760,1555298324498100277,world,-2.88767433167,-0.817993164062,0.797984838486,-0.704667329788,0.168799579144,-0.325394868851,0.607510328293
1555298324508435624,24761,1555298324508435624,world,-2.88766860962,-0.818067073822,0.798052072525,-0.704632103443,0.168624654412,-0.325161606073,0.607724547386
1555298324518845175,24762,1555298324518845175,world,-2.88765716553,-0.818169593811,0.798054933548,-0.704594731331,0.168456956744,-0.325326532125,0.607726275921
1555298324528158976,24763,1555298324528158976,world,-2.88765048981,-0.818245172501,0.798006534576,-0.704545497894,0.168711304665,-0.325386762619,0.607680559158
1555298324528201342,24764,1555298324528201342,world,-2.88768768311,-0.818318367004,0.798021793365,-0.704609513283,0.168524190784,-0.325280159712,0.607715308666
1555298324538665258,24765,1555298324538665258,world,-2.88764858246,-0.81834435463,0.798046350479,-0.704616606236,0.168531373143,-0.325290948153,0.607699275017
1555298324549119891,24766,1555298324549119891,world,-2.88768482208,-0.818321228027,0.798093795776,-0.704514861107,0.168688580394,-0.325259059668,0.607790648937
1555298324558574668,24767,1555298324558574668,world,-2.8876953125,-0.818247795105,0.798074245453,-0.704551815987,0.16855750978,-0.325113028288,0.60786241293
1555298324569013220,24768,1555298324569013220,world,-2.8876914978,-0.818206071854,0.79801607132,-0.704589366913,0.168791413307,-0.325061202049,0.607781708241
1555298324578410209,24769,1555298324578410209,world,-2.88772201538,-0.818125724792,0.798009395599,-0.704433262348,0.168748930097,-0.325268775225,0.607863306999
1555298324578450104,24770,1555298324578450104,world,-2.8877620697,-0.818068265915,0.798000812531,-0.704498589039,0.168937817216,-0.324731618166,0.608022332191
1555298324598052259,24771,1555298324598052259,world,-2.88771820068,-0.81801867485,0.798009157181,-0.704581081867,0.168724730611,-0.325209528208,0.607730448246
1555298324598091191,24772,1555298324598091191,world,-2.88774871826,-0.817979097366,0.797990560532,-0.70462423563,0.168888762593,-0.325067788363,0.607710659504
1555298324608502806,24773,1555298324608502806,world,-2.88774681091,-0.818000793457,0.797949552536,-0.704595386982,0.168957069516,-0.325279146433,0.607612013817
1555298324618889641,24774,1555298324618889641,world,-2.8877620697,-0.8180372715,0.797931671143,-0.70462924242,0.168768182397,-0.325382143259,0.607570052147
1555298324628265104,24775,1555298324628265104,world,-2.88785839081,-0.818115949631,0.797949314117,-0.704598963261,0.169057264924,-0.324776560068,0.607848703861
1555298324638702216,24776,1555298324638702216,world,-2.88788318634,-0.818188667297,0.798000812531,-0.704625725746,0.168887123466,-0.324647039175,0.607934176922
1555298324649152038,24777,1555298324649152038,world,-2.88793945312,-0.818251848221,0.798043012619,-0.704672217369,0.168490037322,-0.324292749166,0.60817950964
1555298324649237939,24778,1555298324649237939,world,-2.8879108429,-0.81828546524,0.798008918762,-0.704596221447,0.168355926871,-0.324726074934,0.608073651791
1555298324658648754,24779,1555298324658648754,world,-2.88786411285,-0.818332910538,0.797983169556,-0.70454210043,0.168405815959,-0.325150102377,0.607895791531
1555298324668969873,24780,1555298324668969873,world,-2.88784122467,-0.818392753601,0.798012018204,-0.704539477825,0.168430134654,-0.325333923101,0.607793748379
1555298324678308917,24781,1555298324678308917,world,-2.88788223267,-0.818379163742,0.798066139221,-0.704498529434,0.168187081814,-0.325150966644,0.608006477356
1555298324678350291,24782,1555298324678350291,world,-2.88786888123,-0.818368434906,0.798061609268,-0.704538881779,0.16835154593,-0.32502129674,0.607983469963
1555298324688694698,24783,1555298324688694698,world,-2.88787269592,-0.818313121796,0.79803776741,-0.704455971718,0.168290540576,-0.32505223155,0.608079850674
1555298324699067118,24784,1555298324699067118,world,-2.88785076141,-0.818284034729,0.797968149185,-0.704553425312,0.168850317597,-0.324882090092,0.607902646065
1555298324708517640,24785,1555298324708517640,world,-2.88784980774,-0.818210601807,0.797966718674,-0.704646229744,0.168798670173,-0.324641793966,0.607937753201
1555298324718962871,24786,1555298324718962871,world,-2.88786506653,-0.818102121353,0.797993659973,-0.704725563526,0.168532326818,-0.324308335781,0.608097672462
1555298324728284799,24787,1555298324728284799,world,-2.8877954483,-0.818019866943,0.798005342484,-0.704573392868,0.168544650078,-0.324814319611,0.608000516891
1555298324728329967,24788,1555298324728329967,world,-2.88769245148,-0.818006753922,0.797964811325,-0.704630374908,0.168852448463,-0.325299620628,0.607589483261
1555298324738657372,24789,1555298324738657372,world,-2.88763904572,-0.818010568619,0.797912359238,-0.704654037952,0.169164374471,-0.325717002153,0.607251763344
1555298324748978894,24790,1555298324748978894,world,-2.88770008087,-0.817977428436,0.797950029373,-0.70463758707,0.169144049287,-0.324881106615,0.607724070549
1555298324758303170,24791,1555298324758303170,world,-2.88773345947,-0.818004608154,0.798008203506,-0.704586207867,0.168907269835,-0.324485033751,0.608061015606
1555298324768758471,24792,1555298324768758471,world,-2.88770008087,-0.818049669266,0.79802775383,-0.704594194889,0.168533042073,-0.324821978807,0.60797560215
1555298324778084512,24793,1555298324778084512,world,-2.88769435883,-0.818109989166,0.798024892807,-0.704547643661,0.168531179428,-0.325064778328,0.607900381088
1555298324778127357,24794,1555298324778127357,world,-2.88775253296,-0.818208217621,0.79802942276,-0.704456865788,0.16850246489,-0.325344592333,0.607863783836
1555298324788555932,24795,1555298324788555932,world,-2.88775157928,-0.818269252777,0.798028230667,-0.704528093338,0.168463766575,-0.325395703316,0.607764482498
1555298324799006759,24796,1555298324799006759,world,-2.88773059845,-0.818338155746,0.798011064529,-0.704514086246,0.168794825673,-0.325515419245,0.60762488842
1555298324808469650,24797,1555298324808469650,world,-2.88776397705,-0.818363666534,0.798010349274,-0.704593837261,0.168785855174,-0.325291007757,0.607654988766
1555298324818868271,24798,1555298324818868271,world,-2.88782596588,-0.818315982819,0.798038482666,-0.704589784145,0.168464884162,-0.325003236532,0.607902884483
1555298324828266134,24799,1555298324828266134,world,-2.88787651062,-0.818313360214,0.798052787781,-0.7044480443,0.168492034078,-0.32515206933,0.607979893684
1555298324838716920,24800,1555298324838716920,world,-2.88785362244,-0.818272590637,0.798004388809,-0.704573631287,0.168793916702,-0.324871063232,0.607900857925
1555298324838758542,24801,1555298324838758542,world,-2.88779735565,-0.818183660507,0.797960996628,-0.704537272453,0.168947204947,-0.325255960226,0.60769456625
1555298324848058404,24802,1555298324848058404,world,-2.88779258728,-0.818112373352,0.797955036163,-0.704543888569,0.168861344457,-0.325001388788,0.607846856117
1555298324858563906,24803,1555298324858563906,world,-2.88776683807,-0.818061113358,0.797994613647,-0.704506158829,0.168850839138,-0.325019717216,0.607883691788
1555298324868976958,24804,1555298324868976958,world,-2.8877696991,-0.818029642105,0.798007965088,-0.704562544823,0.168869242072,-0.325126379728,0.607756316662
1555298324878376478,24805,1555298324878376478,world,-2.88781738281,-0.817992687225,0.798020601273,-0.704539358616,0.168827727437,-0.324352443218,0.608208060265
1555298324878414705,24806,1555298324878414705,world,-2.88773345947,-0.818040847778,0.797991037369,-0.704558193684,0.169036462903,-0.325169712305,0.607691645622
1555298324888794999,24807,1555298324888794999,world,-2.8876914978,-0.818065166473,0.797967433929,-0.704516172409,0.169069468975,-0.325412392616,0.607601225376
1555298324898051093,24808,1555298324898051093,world,-2.88770675659,-0.818052530289,0.798038482666,-0.704523324966,0.168692588806,-0.324959874153,0.607939720154
1555298324908388372,24809,1555298324908388372,world,-2.88770771027,-0.818149328232,0.798064947128,-0.704482674599,0.168640181422,-0.325309842825,0.607814252377
1555298324918829818,24810,1555298324918829818,world,-2.88767528534,-0.818194150925,0.798076868057,-0.704541325569,0.168704196811,-0.325301378965,0.607732951641
1555298324928118127,24811,1555298324928118127,world,-2.88762569427,-0.818239927292,0.798012018204,-0.704615116119,0.168999493122,-0.325453996658,0.607483685017
1555298324928186937,24812,1555298324928186937,world,-2.88764286041,-0.818283081055,0.798001050949,-0.704539418221,0.169191405177,-0.325267761946,0.607617795467
1555298324938656435,24813,1555298324938656435,world,-2.88766479492,-0.818277359009,0.798016309738,-0.704614877701,0.168846130371,-0.325225234032,0.607649147511
1555298324949160837,24814,1555298324949160837,world,-2.88774299622,-0.818238735199,0.7980260849,-0.704517424107,0.16866274178,-0.324974358082,0.607947230339
1555298324958613188,24815,1555298324958613188,world,-2.88776302338,-0.818213701248,0.798073530197,-0.704575896263,0.168368324637,-0.324950426817,0.607973754406
1555298324969093270,24816,1555298324969093270,world,-2.88779354095,-0.81823682785,0.798023462296,-0.704561710358,0.168511211872,-0.325221538544,0.607805728912
1555298324978544526,24817,1555298324978544526,world,-2.88787937164,-0.818178892136,0.79799747467,-0.70457470417,0.168705746531,-0.324575632811,0.608081758022
1555298324978614658,24818,1555298324978614658,world,-2.88786411285,-0.818141222,0.797965288162,-0.704571723938,0.168721735477,-0.324949502945,0.607881069183
1555298324988980018,24819,1555298324988980018,world,-2.88793182373,-0.818109750748,0.797968864441,-0.704578697681,0.168649926782,-0.324520170689,0.608122229576
1555298324998443584,24820,1555298324998443584,world,-2.88795280457,-0.818050384521,0.797977685928,-0.704656660557,0.168532386422,-0.324364006519,0.608147978783
1555298325008841606,24821,1555298325008841606,world,-2.88787746429,-0.81801199913,0.797956228256,-0.704568862915,0.168713510036,-0.325018763542,0.607849836349
1555298325018154685,24822,1555298325018154685,world,-2.88787460327,-0.818011283875,0.797934293747,-0.704619646072,0.1687977314,-0.324669718742,0.607954025269
1555298325028492334,24823,1555298325028492334,world,-2.88776874542,-0.818025350571,0.797943115234,-0.704540193081,0.168968483806,-0.325312584639,0.607654988766
1555298325028527926,24824,1555298325028527926,world,-2.88770771027,-0.8180372715,0.797957181931,-0.704599201679,0.169038251042,-0.325527459383,0.60745203495
1555298325038835200,24825,1555298325038835200,world,-2.88767433167,-0.818070888519,0.798001766205,-0.704563379288,0.168899476528,-0.325497508049,0.607548236847
1555298325048100777,24826,1555298325048100777,world,-2.88768577576,-0.818125963211,0.798048734665,-0.704508841038,0.168748095632,-0.325096994638,0.607867836952
1555298325058434730,24827,1555298325058434730,world,-2.88764858246,-0.818205356598,0.7979991436,-0.704562962055,0.168878272176,-0.325222283602,0.607701897621
1555298325068866998,24828,1555298325068866998,world,-2.88762378693,-0.818293333054,0.797996997833,-0.704583346844,0.16905169189,-0.325508445501,0.607476890087
1555298325078365522,24829,1555298325078365522,world,-2.88766288757,-0.818314313889,0.798036813736,-0.704648733139,0.168641746044,-0.325155138969,0.607704162598
1555298325078408467,24830,1555298325078408467,world,-2.8877248764,-0.818315982819,0.798066139221,-0.70465862751,0.168435201049,-0.324898213148,0.607887208462
1555298325099023302,24831,1555298325099023302,world,-2.88774871826,-0.818282604218,0.798061132431,-0.704639792442,0.168229565024,-0.324783414602,0.608027398586
1555298325099064990,24832,1555298325099064990,world,-2.88778400421,-0.818276166916,0.798018932343,-0.704689621925,0.168327793479,-0.324803084135,0.607932031155
1555298325108326454,24833,1555298325108326454,world,-2.88778781891,-0.818236112595,0.797968626022,-0.704586148262,0.168633744121,-0.325075954199,0.607821166515
1555298325128924605,24834,1555298325128924605,world,-2.88787460327,-0.818183898926,0.797960996628,-0.704610347748,0.168928444386,-0.324525356293,0.608005523682
1555298325128994657,24835,1555298325128994657,world,-2.88788700104,-0.818132400513,0.79797410965,-0.704513430595,0.168615862727,-0.325048536062,0.607925117016
1555298325148798934,24836,1555298325148798934,world,-2.88796710968,-0.818064689636,0.797995090485,-0.704543828964,0.168604075909,-0.324495792389,0.608188390732
1555298325148841471,24837,1555298325148841471,world,-2.88797664642,-0.818041086197,0.7979388237,-0.704601228237,0.168919309974,-0.32462605834,0.607964932919
1555298325158188516,24838,1555298325158188516,world,-2.88796806335,-0.81805062294,0.797894239426,-0.704634010792,0.168958619237,-0.324692517519,0.607880473137
1555298325158226954,24839,1555298325158226954,world,-2.88798332214,-0.818065166473,0.797931432724,-0.70466697216,0.16872279346,-0.324531406164,0.607993781567
1555298325178873813,24840,1555298325178873813,world,-2.88802623749,-0.818120956421,0.79797077179,-0.704586744308,0.168452858925,-0.32465326786,0.608096599579
1555298325178916393,24841,1555298325178916393,world,-2.888007164,-0.818189382553,0.79801940918,-0.704469442368,0.168445050716,-0.324806451797,0.608152866364
1555298325188384647,24842,1555298325188384647,world,-2.88797283173,-0.818189620972,0.798027992249,-0.704529643059,0.168270692229,-0.324494212866,0.608298003674
1555298325188427921,24843,1555298325188427921,world,-2.88786792755,-0.818208217621,0.797995090485,-0.704587161541,0.168314859271,-0.324921220541,0.607991158962
1555298325228831053,24844,1555298325228831053,world,-2.88778972626,-0.818253755569,0.797976016998,-0.704591631889,0.168428465724,-0.32515797019,0.607827842236
1555298325228924208,24847,1555298325228924208,world,-2.88770771027,-0.818281173706,0.79806137085,-0.704542517662,0.168714568019,-0.325430840254,0.607659518719
1555298325238387300,24848,1555298325238387300,world,-2.88769340515,-0.818239688873,0.798010587692,-0.704630970955,0.168708249927,-0.325252503157,0.607654035091
1555298325259154941,24849,1555298325259154941,world,-2.88771247864,-0.818185091019,0.79797744751,-0.704585552216,0.168735325336,-0.32528924942,0.607679605484
1555298325259196393,24850,1555298325259196393,world,-2.88770389557,-0.818197011948,0.797951698303,-0.704564750195,0.168984279037,-0.325475305319,0.60753506422
1555298325268617907,24851,1555298325268617907,world,-2.88776493073,-0.818131685257,0.798000335693,-0.704587519169,0.168607726693,-0.32500949502,0.607862353325
1555298325268670914,24852,1555298325268670914,world,-2.88783168793,-0.818091869354,0.79802441597,-0.704578518867,0.168348655105,-0.324705690145,0.608107030392
1555298325279045921,24853,1555298325279045921,world,-2.88790988922,-0.818061828613,0.798017024994,-0.704654276371,0.168260231614,-0.324068486691,0.608383536339
1555298325279099997,24854,1555298325279099997,world,-2.8879108429,-0.818078756332,0.797955751419,-0.704653501511,0.16861563921,-0.324265956879,0.608180820942
1555298325288533608,24855,1555298325288533608,world,-2.88789558411,-0.818111181259,0.797940015793,-0.704665243626,0.168841257691,-0.324515879154,0.607971310616
1555298325298920762,24856,1555298325298920762,world,-2.88791179657,-0.818155050278,0.797969579697,-0.704643845558,0.168878719211,-0.324740022421,0.607865989208
1555298325308360127,24857,1555298325308360127,world,-2.88793087006,-0.818170070648,0.798006772995,-0.704553127289,0.168753027916,-0.324714899063,0.608019411564
1555298325318062005,24858,1555298325318062005,world,-2.88795089722,-0.818159341812,0.797991275787,-0.704516768456,0.168569728732,-0.324715346098,0.608112037182
1555298325328512008,24859,1555298325328512008,world,-2.88787937164,-0.818220853806,0.797970533371,-0.704527854919,0.168631017208,-0.32522892952,0.60780787468
1555298325328554502,24860,1555298325328554502,world,-2.88791656494,-0.818212747574,0.797979593277,-0.704475283623,0.168561026454,-0.324678272009,0.608182370663
1555298325339000246,24861,1555298325339000246,world,-2.88790988922,-0.818246841431,0.797995328903,-0.704487204552,0.168653890491,-0.32474514842,0.608107030392
1555298325348460895,24862,1555298325348460895,world,-2.88792896271,-0.818293333054,0.79803609848,-0.704422473907,0.168565094471,-0.325032234192,0.608053267002
1555298325358807580,24863,1555298325358807580,world,-2.88789272308,-0.818254947662,0.798044919968,-0.704535543919,0.168576017022,-0.324656158686,0.608120322227
1555298325368133218,24864,1555298325368133218,world,-2.88786125183,-0.818236351013,0.798007011414,-0.704582333565,0.168673142791,-0.324673503637,0.608029782772
1555298325378539711,24865,1555298325378539711,world,-2.88784790039,-0.818202972412,0.797988653183,-0.704536437988,0.168708860874,-0.324774742126,0.608019173145
1555298325388992069,24866,1555298325388992069,world,-2.88787078857,-0.818214654922,0.797997713089,-0.704363465309,0.168693825603,-0.32491979003,0.608146131039
1555298325389034233,24867,1555298325389034233,world,-2.88787651062,-0.818192481995,0.798025846481,-0.704364180565,0.1686052531,-0.325005859137,0.608123719692
1555298325398498929,24868,1555298325398498929,world,-2.88780879974,-0.818154811859,0.798022270203,-0.70451271534,0.168568775058,-0.32534095645,0.607782542706
1555298325408834595,24869,1555298325408834595,world,-2.88778781891,-0.818101882935,0.797986507416,-0.704535841942,0.168383523822,-0.325359672308,0.607797086239
1555298325418144002,24870,1555298325418144002,world,-2.88777351379,-0.818125009537,0.797943592072,-0.704537987709,0.168755874038,-0.325413197279,0.60766261816
1555298325428574827,24871,1555298325428574827,world,-2.88782787323,-0.818117380142,0.797966003418,-0.704587042332,0.168830707669,-0.324927002192,0.607845187187
1555298325428620069,24872,1555298325428620069,world,-2.88791465759,-0.818116426468,0.798012018204,-0.704529643059,0.168489083648,-0.324444025755,0.608264386654
1555298325438999743,24873,1555298325438999743,world,-2.888007164,-0.818135261536,0.798061609268,-0.704411864281,0.168127045035,-0.32423838973,0.608610570431
1555298325448449018,24874,1555298325448449018,world,-2.88798236847,-0.818156242371,0.798008441925,-0.704537212849,0.168406203389,-0.324232518673,0.608391404152
1555298325458873014,24875,1555298325458873014,world,-2.88789272308,-0.818219423294,0.797957897186,-0.704546451569,0.168574333191,-0.325174093246,0.6078312397
1555298325468323042,24876,1555298325468323042,world,-2.88789463043,-0.81826376915,0.79794716835,-0.704492330551,0.168667316437,-0.325404644012,0.607744693756
1555298325478776900,24877,1555298325478776900,world,-2.88793087006,-0.818256855011,0.798000335693,-0.704477965832,0.168343111873,-0.325261443853,0.607927978039
1555298325488104342,24878,1555298325488104342,world,-2.8880109787,-0.8182554245,0.798018217087,-0.704596698284,0.168306753039,-0.324559897184,0.608175456524
1555298325488147754,24879,1555298325488147754,world,-2.88799190521,-0.818241357803,0.798009634018,-0.704550325871,0.168173089623,-0.324767619371,0.60815513134
1555298325498615358,24880,1555298325498615358,world,-2.88805675507,-0.81823182106,0.797959804535,-0.704556882381,0.168214246631,-0.324331849813,0.608368813992
1555298325508975551,24881,1555298325508975551,world,-2.88802814484,-0.818254709244,0.797922611237,-0.704541265965,0.168629363179,-0.324649721384,0.608102142811
1555298325518434498,24882,1555298325518434498,world,-2.88806438446,-0.818228960037,0.797991514206,-0.704440414906,0.168591693044,-0.324848204851,0.608123600483
1555298325528823944,24883,1555298325528823944,world,-2.88806438446,-0.818168878555,0.798026800156,-0.704450905323,0.168436899781,-0.324519068003,0.608329892159
1555298325528897842,24884,1555298325528897842,world,-2.88799953461,-0.818154811859,0.798018217087,-0.704585015774,0.168322727084,-0.324677437544,0.608121812344
1555298325538330897,24885,1555298325538330897,world,-2.88799285889,-0.818129062653,0.797975063324,-0.70455288887,0.168400645256,-0.324540734291,0.608210325241
1555298325548772588,24886,1555298325548772588,world,-2.88796329498,-0.818125247955,0.797952413559,-0.704496860504,0.168596148491,-0.324715137482,0.608128070831
1555298325559067832,24887,1555298325559067832,world,-2.8879737854,-0.818162441254,0.798009157181,-0.704473733902,0.168397009373,-0.324753046036,0.608189582825
1555298325568401930,24888,1555298325568401930,world,-2.88789653778,-0.818209648132,0.798026561737,-0.704559385777,0.168535843492,-0.324804455042,0.608024477959
1555298325578797777,24889,1555298325578797777,world,-2.8879327774,-0.818234443665,0.798035621643,-0.704384028912,0.168438658118,-0.324656575918,0.608333528042
1555298325588077290,24890,1555298325588077290,world,-2.88784599304,-0.81826543808,0.798012495041,-0.704535126686,0.168622538447,-0.325006455183,0.607920587063
1555298325588116557,24891,1555298325588116557,world,-2.8877620697,-0.818314552307,0.797974586487,-0.704637169838,0.168949112296,-0.325499981642,0.607447564602
1555298325598492660,24892,1555298325598492660,world,-2.88781070709,-0.81828212738,0.79799079895,-0.704636454582,0.168792888522,-0.324822634459,0.607854068279
1555298325608899528,24893,1555298325608899528,world,-2.88782691956,-0.81826877594,0.798040628433,-0.704433858395,0.168564662337,-0.325171560049,0.607965886593
1555298325618198297,24894,1555298325618198297,world,-2.88781929016,-0.818215370178,0.798023939133,-0.704468846321,0.168640658259,-0.325063556433,0.607961833477
1555298325628543662,24895,1555298325628543662,world,-2.8878660202,-0.81814956665,0.798033714294,-0.704566717148,0.168347001076,-0.324247598648,0.608365535736
1555298325628583251,24896,1555298325628583251,world,-2.88782119751,-0.818128347397,0.7979991436,-0.704606354237,0.168464198709,-0.324815452099,0.607984185219
1555298325638961354,24897,1555298325638961354,world,-2.88789081573,-0.818115234375,0.798015356064,-0.704415857792,0.168459072709,-0.324713855982,0.608260512352
1555298325648242089,24898,1555298325648242089,world,-2.8879070282,-0.818103790283,0.798013925552,-0.704421579838,0.168513074517,-0.324703752995,0.608244299889
1555298325658502594,24899,1555298325658502594,world,-2.8879070282,-0.818108081818,0.797998666763,-0.704515695572,0.168811023235,-0.324582695961,0.608117163181
1555298325668892611,24900,1555298325668892611,world,-2.88788986206,-0.818084001541,0.798003673553,-0.704607307911,0.168527200818,-0.324368655682,0.608204007149
1555298325678290530,24901,1555298325678290530,world,-2.88784122467,-0.818177938461,0.79797577858,-0.704465925694,0.168783381581,-0.325218468904,0.607842803001
1555298325678330251,24902,1555298325678330251,world,-2.88789367676,-0.818147182465,0.797967433929,-0.704537391663,0.168430149555,-0.324595570564,0.608190774918
1555298325688707809,24903,1555298325688707809,world,-2.88787078857,-0.818197727203,0.797994852066,-0.704611957073,0.168320998549,-0.32480058074,0.608025252819
1555298325699104283,24904,1555298325699104283,world,-2.88784694672,-0.818228960037,0.798009872437,-0.70460742712,0.168361708522,-0.325029820204,0.607896745205
1555298325708498398,24905,1555298325708498398,world,-2.88788604736,-0.818270206451,0.798014163971,-0.704436957836,0.168896004558,-0.32510766387,0.607904374599
1555298325718824562,24906,1555298325718824562,world,-2.88791179657,-0.818252086639,0.79803276062,-0.704360246658,0.168649733067,-0.324736118317,0.608260154724
1555298325728080929,24907,1555298325728080929,world,-2.88786792755,-0.818211078644,0.798010110855,-0.704471111298,0.168798446655,-0.324701428413,0.608108997345
1555298325738523087,24908,1555298325738523087,world,-2.88774681091,-0.818202257156,0.797993659973,-0.704542160034,0.169107913971,-0.325506091118,0.607510387897
1555298325738565741,24909,1555298325738565741,world,-2.88770389557,-0.818189382553,0.798007011414,-0.70458483696,0.168915510178,-0.325626969337,0.60744959116
1555298325748944938,24910,1555298325748944938,world,-2.88771629333,-0.818159103394,0.798011541367,-0.704557061195,0.168931588531,-0.325572818518,0.607506215572
1555298325758276268,24911,1555298325758276268,world,-2.88778114319,-0.818111181259,0.798028230667,-0.704511880875,0.168866693974,-0.324737071991,0.608023881912
1555298325768597942,24912,1555298325768597942,world,-2.88780117035,-0.818113088608,0.798023462296,-0.70454198122,0.168688967824,-0.324442207813,0.608195662498
1555298325778872244,24913,1555298325778872244,world,-2.88782405853,-0.818106174469,0.797984600067,-0.704582691193,0.168817937374,-0.324484705925,0.608089923859
1555298325778909481,24914,1555298325778909481,world,-2.88778305054,-0.818143129349,0.797970533371,-0.704583346844,0.168884262443,-0.325105518103,0.607739150524
1555298325788217717,24915,1555298325788217717,world,-2.8877658844,-0.818178892136,0.797993659973,-0.704634964466,0.168648555875,-0.325434356928,0.607568860054
1555298325798499000,24916,1555298325798499000,world,-2.88777160645,-0.818185091019,0.797997951508,-0.704545259476,0.168676316738,-0.325491547585,0.607634305954
1555298325808820729,24917,1555298325808820729,world,-2.88782501221,-0.81814455986,0.798012256622,-0.704482793808,0.168247818947,-0.324960827827,0.608109474182
1555298325818078833,24918,1555298325818078833,world,-2.88784599304,-0.818236112595,0.797994375229,-0.704351603985,0.16841159761,-0.325432389975,0.607963979244
1555298325828425381,24919,1555298325828425381,world,-2.887840271,-0.818195343018,0.798001289368,-0.704528689384,0.168442592025,-0.325042814016,0.607958495617
1555298325838825248,24920,1555298325838825248,world,-2.88782310486,-0.818205356598,0.798015594482,-0.704483389854,0.168651685119,-0.32527706027,0.607827842236
1555298325838864046,24921,1555298325838864046,world,-2.88781166077,-0.818253040314,0.798024177551,-0.704567909241,0.16881531477,-0.325567126274,0.607528924942
1555298325848052296,24922,1555298325848052296,world,-2.88781547546,-0.818202257156,0.798038244247,-0.70454120636,0.168473780155,-0.325311183929,0.607791900635
1555298325858460735,24923,1555298325858460735,world,-2.88781738281,-0.818245649338,0.797962427139,-0.704564392567,0.168882921338,-0.325548201799,0.607524514198
1555298325868856701,24924,1555298325868856701,world,-2.88786411285,-0.818208932877,0.798003196716,-0.704488575459,0.168587401509,-0.324721604586,0.608136534691
1555298325878127632,24925,1555298325878127632,world,-2.88791465759,-0.818192958832,0.798015356064,-0.704538166523,0.168578699231,-0.324420273304,0.60824239254
1555298325888521825,24926,1555298325888521825,world,-2.88792514801,-0.818166017532,0.798032999039,-0.704498827457,0.168604388833,-0.324236094952,0.608379006386
1555298325888560868,24927,1555298325888560868,world,-2.88794803619,-0.818201780319,0.798053979874,-0.704397559166,0.1685911268,-0.32461425662,0.608298242092
1555298325898994511,24928,1555298325898994511,world,-2.8879032135,-0.818174123764,0.798017501831,-0.704402029514,0.168705299497,-0.324592500925,0.608272910118
1555298325908393163,24929,1555298325908393163,world,-2.88783454895,-0.818172931671,0.798010826111,-0.704480111599,0.168597504497,-0.325069278479,0.607957780361
1555298325918774214,24930,1555298325918774214,world,-2.88792514801,-0.818158864975,0.798047304153,-0.704442501068,0.16820281744,-0.324593305588,0.60836482048
1555298325928082141,24931,1555298325928082141,world,-2.88788223267,-0.818160295486,0.798034667969,-0.704507768154,0.168474540114,-0.324462860823,0.608283698559
1555298325928123780,24932,1555298325928123780,world,-2.88791942596,-0.818153381348,0.798060894012,-0.704488754272,0.168166637421,-0.324336409569,0.608458280563
1555298325938589628,24933,1555298325938589628,world,-2.88782405853,-0.818184137344,0.798017024994,-0.704562485218,0.168499365449,-0.32509842515,0.607874035835
1555298325958348463,24934,1555298325958348463,world,-2.88778495789,-0.818182945251,0.798004627228,-0.704566061497,0.168665722013,-0.325388818979,0.607668280602
1555298325958436185,24935,1555298325958436185,world,-2.88787937164,-0.818187713623,0.798023939133,-0.704575359821,0.168336942792,-0.324762374163,0.608083605766
1555298325968818096,24936,1555298325968818096,world,-2.88782691956,-0.818207025528,0.798016548157,-0.704530239105,0.168365716934,-0.325085401535,0.607955217361
1555298325978139264,24937,1555298325978139264,world,-2.88787078857,-0.818176269531,0.798057317734,-0.704559206963,0.168385729194,-0.324417203665,0.608272969723
1555298325988587005,24938,1555298325988587005,world,-2.88785934448,-0.818226337433,0.79802942276,-0.704409360886,0.168519496918,-0.325150489807,0.608017921448
1555298325988628567,24939,1555298325988628567,world,-2.88787269592,-0.818197011948,0.798012495041,-0.704522252083,0.168510124087,-0.324677318335,0.60814255476
1555298325999087089,24940,1555298325999087089,world,-2.88787460327,-0.818191766739,0.798010349274,-0.704612255096,0.16842931509,-0.324563860893,0.608121395111
1555298326018861561,24941,1555298326018861561,world,-2.88789081573,-0.81817150116,0.798044681549,-0.704467475414,0.168240174651,-0.325045794249,0.60808390379
1555298326018926310,24942,1555298326018926310,world,-2.88789272308,-0.818161487579,0.798052072525,-0.704540371895,0.168353304267,-0.324466913939,0.608277261257
1555298326028404404,24943,1555298326028404404,world,-2.88787841797,-0.818167448044,0.798053979874,-0.704427719116,0.168222844601,-0.324952483177,0.608184576035
1555298326028474171,24944,1555298326028474171,world,-2.88788318634,-0.818142175674,0.798027276993,-0.704479813576,0.168549820781,-0.324699372053,0.608169019222
1555298326038924561,24945,1555298326038924561,world,-2.887799263,-0.818167209625,0.797986507416,-0.704548060894,0.168790742755,-0.325167268515,0.607773005962
1555298326048284739,24946,1555298326048284739,world,-2.8877696991,-0.818186044693,0.798006772995,-0.704485297203,0.168753191829,-0.325439423323,0.607710540295
1555298326058728687,24947,1555298326058728687,world,-2.88784217834,-0.818153142929,0.798023939133,-0.7044891119,0.168598756194,-0.324663966894,0.608163535595
1555298326068059817,24948,1555298326068059817,world,-2.88784408569,-0.818165540695,0.798006772995,-0.704619407654,0.168699085712,-0.324588298798,0.608025074005
1555298326078458592,24949,1555298326078458592,world,-2.88778591156,-0.818179607391,0.798012971878,-0.704638540745,0.168622508645,-0.325120121241,0.607740044594
1555298326078526527,24950,1555298326078526527,world,-2.88785552979,-0.818156719208,0.798015594482,-0.704576909542,0.168572768569,-0.324649065733,0.608076989651
1555298326098329425,24951,1555298326098329425,world,-2.88783168793,-0.818135261536,0.798044919968,-0.704498589039,0.168302133679,-0.32478800416,0.60816848278
1555298326098398680,24952,1555298326098398680,world,-2.88784217834,-0.818153381348,0.798019170761,-0.704526364803,0.168560788035,-0.32473513484,0.608092963696
1555298326108784074,24953,1555298326108784074,world,-2.88780498505,-0.818170785904,0.797998666763,-0.704565763474,0.168539643288,-0.325020909309,0.607900381088
1555298326118163459,24954,1555298326118163459,world,-2.88781356812,-0.818163871765,0.79804444313,-0.704503834248,0.168194547296,-0.324922382832,0.608120322227
1555298326128616127,24955,1555298326128616127,world,-2.88780212402,-0.818189144135,0.798032045364,-0.704484939575,0.168384253979,-0.325088858604,0.60800075531
1555298326128676855,24956,1555298326128676855,world,-2.88786697388,-0.81817150116,0.798049688339,-0.70441699028,0.168129146099,-0.325067400932,0.608161687851
1555298326139104991,24957,1555298326139104991,world,-2.88784885406,-0.818182468414,0.798015117645,-0.704501450062,0.168187454343,-0.325051695108,0.608055949211
1555298326148561516,24958,1555298326148561516,world,-2.88791275024,-0.818170547485,0.798040866852,-0.70445650816,0.168311223388,-0.324434012175,0.608403623104
1555298326159021186,24959,1555298326159021186,world,-2.88790607452,-0.818224906921,0.798072576523,-0.704394876957,0.168295517564,-0.325177580118,0.608082175255
1555298326168479522,24960,1555298326168479522,world,-2.88785266876,-0.818214893341,0.798045635223,-0.704478740692,0.168369054794,-0.325076341629,0.608018875122
1555298326178947230,24961,1555298326178947230,world,-2.88789367676,-0.818192243576,0.798049211502,-0.7044454813,0.168186828494,-0.324903100729,0.608200490475
1555298326179016912,24962,1555298326179016912,world,-2.88785076141,-0.818199872971,0.798012495041,-0.704579234123,0.168446049094,-0.324912041426,0.607968986034
1555298326188351070,24963,1555298326188351070,world,-2.88783359528,-0.818216323853,0.798018932343,-0.704558432102,0.168413296342,-0.324959933758,0.607976555824
1555298326198753760,24964,1555298326198753760,world,-2.88785934448,-0.818261861801,0.798043966293,-0.704414725304,0.168532833457,-0.325357288122,0.607897460461
1555298326208028242,24965,1555298326208028242,world,-2.88783168793,-0.818226099014,0.798025131226,-0.704557657242,0.168502807617,-0.324981927872,0.607940912247
1555298326218380890,24966,1555298326218380890,world,-2.88780784607,-0.818240642548,0.798018455505,-0.704507112503,0.16850990057,-0.325077056885,0.607946634293
1555298326228728112,24967,1555298326228728112,world,-2.88779449463,-0.81823849678,0.798027992249,-0.70453864336,0.168514028192,-0.324985295534,0.607957959175
1555298326228797573,24968,1555298326228797573,world,-2.88779354095,-0.818239927292,0.798032283783,-0.704553186893,0.168687954545,-0.324984371662,0.60789334774
1555298326248345602,24969,1555298326248345602,world,-2.88779830933,-0.818220615387,0.798036813736,-0.704579234123,0.168483480811,-0.324776858091,0.608030736446
1555298326248414872,24970,1555298326248414872,world,-2.88778018951,-0.818234443665,0.798017263412,-0.704545259476,0.168741762638,-0.324983358383,0.607888281345
1555298326258871578,24971,1555298326258871578,world,-2.88778209686,-0.81822681427,0.798041582108,-0.704504132271,0.168540939689,-0.325063437223,0.607948720455
1555298326268329450,24972,1555298326268329450,world,-2.88783168793,-0.81823849678,0.798055410385,-0.704366981983,0.168320074677,-0.32521751523,0.608086466789
1555298326278786486,24973,1555298326278786486,world,-2.88778781891,-0.818267822266,0.7980427742,-0.704405844212,0.168632104993,-0.32535675168,0.607880473137
1555298326278856019,24974,1555298326278856019,world,-2.88782691956,-0.818239688873,0.79805803299,-0.704408943653,0.168466225266,-0.324981838465,0.608123421669
1555298326288191039,24975,1555298326288191039,world,-2.88787460327,-0.818231582642,0.798060894012,-0.704481363297,0.168416380882,-0.324448347092,0.608338117599
1555298326298564026,24976,1555298326298564026,world,-2.88784885406,-0.818248748779,0.798052549362,-0.704427957535,0.168443202972,-0.32502758503,0.608083248138
1555298326308875186,24977,1555298326308875186,world,-2.88784694672,-0.818234443665,0.798020839691,-0.70452529192,0.168423429132,-0.324768930674,0.608114123344
1555298326318472458,24978,1555298326318472458,world,-2.88789081573,-0.818275928497,0.798038244247,-0.704394817352,0.168361067772,-0.325016498566,0.608150243759
1555298326328778553,24979,1555298326328778553,world,-2.88788795471,-0.818275690079,0.798043966293,-0.704410552979,0.168190419674,-0.325026035309,0.608174324036
1555298326328840707,24980,1555298326328840707,world,-2.8878364563,-0.818288564682,0.798023462296,-0.704473972321,0.168519198895,-0.325193285942,0.60792016983
1555298326338125636,24981,1555298326338125636,world,-2.88784503937,-0.818244218826,0.798069238663,-0.704496145248,0.168357491493,-0.324938178062,0.608075857162
1555298326348453000,24982,1555298326348453000,world,-2.88785552979,-0.818312168121,0.798026323318,-0.70443969965,0.168678835034,-0.325450092554,0.607778191566
1555298326358912237,24983,1555298326358912237,world,-2.88784217834,-0.818245887756,0.798036336899,-0.704516232014,0.168386653066,-0.325116544962,0.607949137688
1555298326368350499,24984,1555298326368350499,world,-2.88784313202,-0.818228721619,0.798039674759,-0.704519748688,0.168344795704,-0.324817180634,0.60811662674
1555298326378767738,24985,1555298326378767738,world,-2.88780117035,-0.818271160126,0.798033237457,-0.704489767551,0.168614581227,-0.325018554926,0.60796892643
1555298326378807150,24986,1555298326378807150,world,-2.88779640198,-0.818237781525,0.798041343689,-0.704602658749,0.168473228812,-0.324823468924,0.607981622219
1555298326389264576,24987,1555298326389264576,world,-2.88777923584,-0.818252563477,0.798044681549,-0.704513013363,0.168592974544,-0.325248688459,0.607824981213
1555298326398670521,24988,1555298326398670521,world,-2.88775539398,-0.818244695663,0.798044681549,-0.704504609108,0.16866992414,-0.32519993186,0.607839286327
