%time,field.header.seq,field.header.stamp,field.header.frame_id,field.pose.position.x,field.pose.position.y,field.pose.position.z,field.pose.orientation.x,field.pose.orientation.y,field.pose.orientation.z,field.pose.orientation.w
1555298465038076872,27001,1555298465038076872,world,-2.88726520538,-0.818262577057,0.798071622849,-0.704121351242,0.170746982098,-0.326415896416,0.607051372528
1555298465048415143,27002,1555298465048415143,world,-2.88734722137,-0.818247318268,0.79810333252,-0.703977406025,0.170403316617,-0.326608806849,0.607210993767
1555298465048460280,27003,1555298465048460280,world,-2.88731956482,-0.818269968033,0.798081159592,-0.703994274139,0.171014368534,-0.326816558838,0.606907844543
1555298465058798610,27004,1555298465058798610,world,-2.88737678528,-0.818216323853,0.798145532608,-0.703937649727,0.170755490661,-0.326412886381,0.607263505459
1555298465068115055,27005,1555298465068115055,world,-2.8874130249,-0.818178415298,0.798135280609,-0.704006791115,0.170706614852,-0.326361984015,0.607224404812
1555298465078594520,27006,1555298465078594520,world,-2.88738059998,-0.818204641342,0.798028469086,-0.703986525536,0.171413704753,-0.327033609152,0.606687247753
1555298465108523993,27007,1555298465108523993,world,-2.88740253448,-0.818197727203,0.797973871231,-0.703951656818,0.171651020646,-0.327247768641,0.606545090675
1555298465118859849,27008,1555298465118859849,world,-2.88746738434,-0.818133115768,0.798008441925,-0.703867316246,0.171261653304,-0.326881736517,0.606950223446
1555298465118901431,27009,1555298465118901431,world,-2.88750553131,-0.818091630936,0.798088550568,-0.703879714012,0.170822367072,-0.326524227858,0.607252061367
1555298465118947626,27010,1555298465118947626,world,-2.88750362396,-0.818097114563,0.798089027405,-0.70387583971,0.170618131757,-0.326465517282,0.607345461845
1555298465118969833,27011,1555298465118969833,world,-2.88744354248,-0.818151950836,0.798028707504,-0.703981637955,0.171054184437,-0.326828837395,0.606904745102
1555298465138742636,27012,1555298465138742636,world,-2.88743495941,-0.81818985939,0.797975301743,-0.703951954842,0.171217367053,-0.326854199171,0.606879413128
1555298465158505365,27013,1555298465158505365,world,-2.88743114471,-0.818199872971,0.798020839691,-0.703934490681,0.171129122376,-0.326737195253,0.606987595558
1555298465158577055,27014,1555298465158577055,world,-2.88745212555,-0.818192958832,0.798111200333,-0.703968405724,0.170584067702,-0.326133221388,0.607426345348
1555298465158646635,27016,1555298465158646635,world,-2.88736343384,-0.818253517151,0.798114538193,-0.704031527042,0.170761540532,-0.326580911875,0.607062697411
1555298465178199351,27017,1555298465178199351,world,-2.88730430603,-0.818286180496,0.79802441597,-0.704034626484,0.17120243609,-0.326971918344,0.606724381447
1555298465178240339,27018,1555298465178240339,world,-2.8872833252,-0.818307161331,0.798008680344,-0.704112589359,0.171245589852,-0.327179461718,0.606509804726
1555298465188545464,27019,1555298465188545464,world,-2.88732433319,-0.818295240402,0.798064470291,-0.704073309898,0.171129494905,-0.326879948378,0.606749534607
1555298465188595352,27020,1555298465188595352,world,-2.88736820221,-0.818259000778,0.798108100891,-0.70403701067,0.170926108956,-0.326750308275,0.606918692589
1555298465198907240,27021,1555298465198907240,world,-2.88739967346,-0.81822347641,0.798111915588,-0.703967213631,0.170768722892,-0.326602071524,0.607123792171
1555298465229124848,27022,1555298465229124848,world,-2.88741111755,-0.818227052689,0.798014879227,-0.703901290894,0.171150863171,-0.326942324638,0.606909513474
1555298465248930323,27023,1555298465248930323,world,-2.88744449615,-0.818202257156,0.797964811325,-0.703835844994,0.171187207103,-0.32714626193,0.606865108013
1555298465249004695,27025,1555298465249004695,world,-2.88748550415,-0.818138599396,0.798043727875,-0.703888893127,0.171001076698,-0.326728343964,0.60708117485
1555298465258432128,27026,1555298465258432128,world,-2.88750648499,-0.818101644516,0.798062801361,-0.703962087631,0.170687317848,-0.326464295387,0.607226848602
1555298465258473759,27027,1555298465258473759,world,-2.88751506805,-0.818102121353,0.798011779785,-0.703976213932,0.170573785901,-0.326489120722,0.60722887516
1555298465268890203,27028,1555298465268890203,world,-2.88746547699,-0.818153142929,0.797969818115,-0.704047203064,0.170909285545,-0.326784610748,0.60689330101
1555298465268935478,27029,1555298465268935478,world,-2.88742733002,-0.818203687668,0.797985553741,-0.704036355019,0.171126291156,-0.326923578978,0.606769740582
1555298465278318967,27030,1555298465278318967,world,-2.88743877411,-0.818214893341,0.798067569733,-0.70390278101,0.170966878533,-0.326637655497,0.607123672962
1555298465288721484,27031,1555298465288721484,world,-2.88744544983,-0.818251132965,0.798133611679,-0.703979790211,0.170697107911,-0.326427489519,0.607223391533
1555298465288764375,27032,1555298465288764375,world,-2.88738536835,-0.818293571472,0.798072814941,-0.703961193562,0.171095624566,-0.326815873384,0.606923699379
1555298465298070495,27033,1555298465298070495,world,-2.88736534119,-0.818317174911,0.79803943634,-0.703963458538,0.171152219176,-0.32695838809,0.606828391552
1555298465308472446,27034,1555298465308472446,world,-2.88736248016,-0.818315505981,0.798045635223,-0.703997910023,0.170937493443,-0.326898008585,0.60688149929
1555298465319169793,27035,1555298465319169793,world,-2.8873872757,-0.818268299103,0.798096895218,-0.70401930809,0.170853316784,-0.326558351517,0.607063055038
1555298465328628099,27036,1555298465328628099,world,-2.88739013672,-0.818256616592,0.798128843307,-0.703975379467,0.170761033893,-0.326586097479,0.607125222683
1555298465339103046,27037,1555298465339103046,world,-2.88737201691,-0.818256855011,0.798073291779,-0.703992426395,0.17088599503,-0.326752096415,0.606980919838
1555298465339146802,27038,1555298465339146802,world,-2.887383461,-0.818219423294,0.798042535782,-0.703945934772,0.171054974198,-0.326790839434,0.606966376305
1555298465348493774,27039,1555298465348493774,world,-2.88741397858,-0.818169355392,0.798021793365,-0.703892290592,0.171097770333,-0.326612859964,0.607112288475
1555298465358837370,27040,1555298465358837370,world,-2.88744735718,-0.818156003952,0.798040628433,-0.703925788403,0.170913740993,-0.32648357749,0.607194840908
1555298465368106693,27041,1555298465368106693,world,-2.88744068146,-0.818153619766,0.798074245453,-0.703947842121,0.170914307237,-0.326698929071,0.607053160667
1555298465378452316,27042,1555298465378452316,world,-2.8874797821,-0.818154335022,0.798065185547,-0.704008102417,0.170876204967,-0.326494932175,0.607103824615
1555298465388844446,27043,1555298465388844446,world,-2.88744926453,-0.818176031113,0.79802441597,-0.703936040401,0.171004161239,-0.326773971319,0.607001245022
1555298465388885403,27044,1555298465388885403,world,-2.88743877411,-0.818190813065,0.797998189926,-0.703931391239,0.171255066991,-0.326740056276,0.606954216957
1555298465398217192,27045,1555298465398217192,world,-2.88744163513,-0.818180084229,0.798033714294,-0.703915417194,0.171186342835,-0.326760321856,0.606981158257
1555298465408558930,27046,1555298465408558930,world,-2.88742351532,-0.818191051483,0.798098087311,-0.703970611095,0.17080847919,-0.326595872641,0.607112109661
1555298465419008991,27047,1555298465419008991,world,-2.88741016388,-0.818184137344,0.798103570938,-0.703977942467,0.17078743875,-0.326423376799,0.607202231884
1555298465428402434,27048,1555298465428402434,world,-2.88739967346,-0.818173885345,0.798077821732,-0.703992903233,0.170932069421,-0.326470881701,0.607118666172
1555298465438800280,27049,1555298465438800280,world,-2.88734817505,-0.818196296692,0.798028945923,-0.704012811184,0.171009287238,-0.326834768057,0.606877982616
1555298465438842000,27050,1555298465438842000,world,-2.88734912872,-0.818186998367,0.798038482666,-0.704048931599,0.171017900109,-0.326691657305,0.606910586357
1555298465458586444,27051,1555298465458586444,world,-2.88735485077,-0.818176746368,0.798091888428,-0.70402431488,0.170776844025,-0.326694607735,0.607005596161
1555298465458651974,27052,1555298465458651974,world,-2.88733959198,-0.818189620972,0.79810667038,-0.704008340836,0.170944571495,-0.326797008514,0.606921672821
1555298465469093081,27053,1555298465469093081,world,-2.88736438751,-0.818182468414,0.798084020615,-0.704005718231,0.17077255249,-0.326706290245,0.607022047043
1555298465478543641,27054,1555298465478543641,world,-2.88738822937,-0.818172693253,0.79801940918,-0.704036176205,0.17088149488,-0.32656738162,0.607030808926
1555298465488874820,27055,1555298465488874820,world,-2.88739109039,-0.818187475204,0.797979354858,-0.704018652439,0.171145632863,-0.326775461435,0.606864750385
1555298465498151935,27056,1555298465498151935,world,-2.88741397858,-0.818177223206,0.798035383224,-0.70396399498,0.171183049679,-0.326757311821,0.606927394867
1555298465508474326,27057,1555298465508474326,world,-2.88742923737,-0.818170547485,0.798082828522,-0.703973114491,0.171044483781,-0.326663762331,0.607006192207
1555298465508516857,27058,1555298465508516857,world,-2.8874540329,-0.818155050278,0.798072814941,-0.703941106796,0.170838654041,-0.326643466949,0.607112169266
1555298465518778383,27059,1555298465518778383,world,-2.88745212555,-0.818153619766,0.797997951508,-0.704017102718,0.170933410525,-0.326599448919,0.607021033764
1555298465528089963,27060,1555298465528089963,world,-2.88744926453,-0.818162441254,0.79795217514,-0.703995287418,0.17108400166,-0.326866775751,0.606860041618
1555298465538374715,27061,1555298465538374715,world,-2.88745594025,-0.818170070648,0.798020839691,-0.703936040401,0.171009346843,-0.326816052198,0.606977164745
1555298465538443805,27062,1555298465538443805,world,-2.8874578476,-0.818204402924,0.798068761826,-0.703927338123,0.170866325498,-0.326763898134,0.607055544853
1555298465548825151,27063,1555298465548825151,world,-2.88748168945,-0.818163156509,0.798098802567,-0.703951120377,0.170533418655,-0.326164603233,0.607443809509
1555298465558130595,27064,1555298465558130595,world,-2.88743495941,-0.818223953247,0.798025131226,-0.703997671604,0.171023145318,-0.326664716005,0.606983065605
1555298465568543075,27065,1555298465568543075,world,-2.88739204407,-0.818265199661,0.798005104065,-0.70397746563,0.171182736754,-0.327023237944,0.606768548489
1555298465578962358,27066,1555298465578962358,world,-2.88739395142,-0.818250179291,0.798026561737,-0.703989326954,0.1709767133,-0.326824814081,0.606919646263
1555298465588354512,27067,1555298465588354512,world,-2.88738536835,-0.818275690079,0.798051357269,-0.703987717628,0.171055719256,-0.327004641294,0.606802403927
1555298465598744165,27068,1555298465598744165,world,-2.88742351532,-0.818249464035,0.798092842102,-0.704004824162,0.170823648572,-0.326786786318,0.60696542263
1555298465598789875,27069,1555298465598789875,world,-2.88741779327,-0.818194627762,0.798096418381,-0.70398235321,0.170778214931,-0.326445698738,0.607187747955
1555298465608036431,27070,1555298465608036431,world,-2.88739204407,-0.818208456039,0.798046350479,-0.703996658325,0.171016514301,-0.326578021049,0.607032835484
1555298465618425416,27071,1555298465618425416,world,-2.88737010956,-0.81821346283,0.798011541367,-0.704025566578,0.17100776732,-0.326803594828,0.606880307198
1555298465628822219,27072,1555298465628822219,world,-2.88737773895,-0.818218231201,0.798016309738,-0.703981220722,0.17123682797,-0.32683005929,0.606852889061
1555298465638076125,27073,1555298465638076125,world,-2.88740634918,-0.818194150925,0.798059225082,-0.703903436661,0.171183824539,-0.326793909073,0.606977701187
1555298465638131784,27074,1555298465638131784,world,-2.88743019104,-0.818178892136,0.798072099686,-0.703942894936,0.171040460467,-0.326636880636,0.607056796551
1555298465648508475,27075,1555298465648508475,world,-2.88745212555,-0.818190336227,0.798038244247,-0.7038641572,0.17104382813,-0.326640993357,0.60714495182
1555298465658838998,27076,1555298465658838998,world,-2.88741016388,-0.818229913712,0.798006772995,-0.703916490078,0.171317145228,-0.327030986547,0.606797158718
1555298465678369497,27077,1555298465678369497,world,-2.8874540329,-0.81817650795,0.798021793365,-0.703970432281,0.170840501785,-0.326651453972,0.607073307037
1555298465678411429,27078,1555298465678411429,world,-2.88746452332,-0.818182706833,0.798027992249,-0.703980505466,0.170782700181,-0.326518684626,0.607149243355
1555298465688781154,27079,1555298465688781154,world,-2.88747596741,-0.818175792694,0.798065185547,-0.703917264938,0.170681715012,-0.326494693756,0.607264041901
1555298465688820814,27080,1555298465688820814,world,-2.88746070862,-0.818189382553,0.798070907593,-0.704009830952,0.170721963048,-0.326569229364,0.607105135918
1555298465698069203,27081,1555298465698069203,world,-2.88744068146,-0.818193674088,0.798043489456,-0.703994393349,0.170888707042,-0.32667645812,0.60701841116
1555298465708345551,27082,1555298465708345551,world,-2.88740825653,-0.818211317062,0.798017978668,-0.704016268253,0.171127036214,-0.326877981424,0.606817603111
1555298465718738178,27083,1555298465718738178,world,-2.88743305206,-0.81818652153,0.798037052155,-0.704015016556,0.170980870724,-0.326664209366,0.606975317001
1555298465729108120,27084,1555298465729108120,world,-2.88742446899,-0.818180084229,0.798072338104,-0.70399916172,0.170774385333,-0.32658430934,0.607094705105
1555298465738454093,27085,1555298465738454093,world,-2.88742923737,-0.818184614182,0.798087358475,-0.703973352909,0.170796409249,-0.32658341527,0.607118964195
1555298465738524437,27086,1555298465738524437,world,-2.88739871979,-0.818217039108,0.798040151596,-0.703922748566,0.171177446842,-0.326862692833,0.606920003891
1555298465748969245,27087,1555298465748969245,world,-2.88739204407,-0.818212985992,0.797993421555,-0.703927099705,0.171258583665,-0.326864033937,0.606891274452
1555298465758412946,27088,1555298465758412946,world,-2.88739585876,-0.81821680069,0.798016309738,-0.70395475626,0.171129539609,-0.326829344034,0.606914401054
1555298465768868443,27089,1555298465768868443,world,-2.88742542267,-0.818196773529,0.798074245453,-0.70390099287,0.170937642455,-0.326804488897,0.607044160366
1555298465788694059,27090,1555298465788694059,world,-2.88741111755,-0.818193674088,0.798065185547,-0.70399081707,0.171129509807,-0.32675370574,0.606913268566
1555298465788764806,27091,1555298465788764806,world,-2.88740539551,-0.818210601807,0.798031806946,-0.703960478306,0.171241953969,-0.327024132013,0.606771111488
1555298465788793052,27092,1555298465788793052,world,-2.8874464035,-0.818174362183,0.798027038574,-0.703955471516,0.17081131041,-0.32658174634,0.607136368752
1555298465799056637,27093,1555298465799056637,world,-2.88745975494,-0.818178415298,0.798047304153,-0.703879117966,0.170863211155,-0.326489090919,0.607260227203
1555298465858081490,27094,1555298465858081490,world,-2.88745689392,-0.818192243576,0.798065900803,-0.703920125961,0.170870304108,-0.326552033424,0.607176780701
1555298465858155092,27095,1555298465858155092,world,-2.88743019104,-0.818215847015,0.7980427742,-0.703973352909,0.170885577798,-0.326823860407,0.606964468956
1555298465858222277,27097,1555298465858222277,world,-2.88744544983,-0.81821680069,0.798013687134,-0.703895151615,0.171089306474,-0.326857358217,0.606979727745
1555298465858245869,27098,1555298465858245869,world,-2.88744926453,-0.818187713623,0.798043251038,-0.703965187073,0.170757353306,-0.326668739319,0.607093572617
1555298465868535251,27099,1555298465868535251,world,-2.88743591309,-0.818188667297,0.798070669174,-0.704064369202,0.170851349831,-0.326649069786,0.606962680817
1555298465868561483,27100,1555298465868561483,world,-2.88741970062,-0.818183660507,0.798063993454,-0.704044401646,0.170924201608,-0.326519042253,0.607035279274
1555298465868606239,27101,1555298465868606239,world,-2.88741493225,-0.818182229996,0.798025846481,-0.703988969326,0.170986935496,-0.326616972685,0.607029139996
1555298465878842124,27102,1555298465878842124,world,-2.88740158081,-0.818180322647,0.79802942276,-0.703976452351,0.170923724771,-0.32653144002,0.607107520103
1555298465898242908,27103,1555298465898242908,world,-2.88739490509,-0.818176269531,0.798030853271,-0.704028189182,0.170959249139,-0.326671034098,0.606962263584
1555298465898302023,27105,1555298465898302023,world,-2.88738059998,-0.818190336227,0.798082113266,-0.703921556473,0.170826256275,-0.326593995094,0.607164859772
1555298465908548475,27106,1555298465908548475,world,-2.88739013672,-0.818190336227,0.798055171967,-0.703951299191,0.171033486724,-0.326759308577,0.60698312521
1555298465918797689,27107,1555298465918797689,world,-2.88738822937,-0.81819319725,0.798048257828,-0.703896343708,0.170980289578,-0.326734811068,0.607075095177
1555298465928018515,27108,1555298465928018515,world,-2.88738632202,-0.818225622177,0.798024654388,-0.704016387463,0.171214267612,-0.326948493719,0.606754720211
1555298465938253686,27109,1555298465938253686,world,-2.88739395142,-0.818231105804,0.798034667969,-0.703949511051,0.17118228972,-0.327004700899,0.60681116581
1555298465948461918,27110,1555298465948461918,world,-2.88740634918,-0.818238258362,0.79805803299,-0.703964531422,0.171147719026,-0.326843291521,0.606890320778
1555298465948485705,27111,1555298465948485705,world,-2.88747406006,-0.818166017532,0.798080205917,-0.703948497772,0.170660674572,-0.326279163361,0.607349395752
1555298465958739135,27112,1555298465958739135,world,-2.88747692108,-0.818190097809,0.798038005829,-0.703978359699,0.170918539166,-0.326450139284,0.607150435448
1555298465968991447,27113,1555298465968991447,world,-2.88745594025,-0.818198680878,0.798026561737,-0.703991651535,0.170865654945,-0.326779484749,0.606972694397
1555298465978336780,27114,1555298465978336780,world,-2.88741397858,-0.818227052689,0.798007488251,-0.704014539719,0.171123921871,-0.327068567276,0.606717586517
1555298465988692602,27115,1555298465988692602,world,-2.88743495941,-0.818186044693,0.798034667969,-0.70396310091,0.170937672257,-0.326542168856,0.607113242149
1555298465998963931,27116,1555298465998963931,world,-2.88744831085,-0.818150520325,0.798034191132,-0.70400929451,0.170754671097,-0.326440215111,0.607166051865
1555298465999005738,27117,1555298465999005738,world,-2.88745594025,-0.818132162094,0.798033237457,-0.703951478004,0.170620307326,-0.326355665922,0.607316195965
1555298466008308651,27118,1555298466008308651,world,-2.88741207123,-0.818166017532,0.798036813736,-0.704014241695,0.17087815702,-0.326630085707,0.60702341795
1555298466018701088,27119,1555298466018701088,world,-2.88739013672,-0.818180084229,0.798038244247,-0.703968942165,0.171101257205,-0.326926797628,0.606853425503
1555298466029028741,27120,1555298466029028741,world,-2.88740253448,-0.818174600601,0.798038721085,-0.703956365585,0.171045422554,-0.326777815819,0.60696387291
1555298466038460133,27121,1555298466038460133,world,-2.88741779327,-0.818182468414,0.798049211502,-0.703927993774,0.170947909355,-0.326624393463,0.607106924057
1555298466038537268,27122,1555298466038537268,world,-2.88741779327,-0.81817317009,0.798079013824,-0.703971922398,0.170739427209,-0.326369315386,0.607251763344
1555298466048931760,27123,1555298466048931760,world,-2.88741493225,-0.818227052689,0.798057556152,-0.703936100006,0.17089766264,-0.326737642288,0.607050657272
1555298466058313382,27124,1555298466058313382,world,-2.88739204407,-0.818243980408,0.798045158386,-0.703967809677,0.170956671238,-0.326969742775,0.606872320175
1555298466068727377,27125,1555298466068727377,world,-2.8874168396,-0.818217277527,0.798043966293,-0.703936576843,0.170862436295,-0.326862096786,0.606992959976
1555298466078056233,27126,1555298466078056233,world,-2.88741397858,-0.818227767944,0.798015356064,-0.70402097702,0.171073615551,-0.326826453209,0.606854915619
1555298466088474171,27127,1555298466088474171,world,-2.88742542267,-0.8182117939,0.798036575317,-0.703954041004,0.17104883492,-0.326906830072,0.606896281242
1555298466098928033,27128,1555298466098928033,world,-2.88745880127,-0.818182945251,0.798062324524,-0.704003214836,0.170990213752,-0.326826900244,0.606898725033
1555298466098982820,27129,1555298466098982820,world,-2.88748168945,-0.818165540695,0.798067569733,-0.703929126263,0.170696184039,-0.326583713293,0.607198417187
1555298466108367460,27130,1555298466108367460,world,-2.88746929169,-0.818155527115,0.798005342484,-0.703910112381,0.170971393585,-0.326713681221,0.6070728302
1555298466129099408,27131,1555298466129099408,world,-2.88745498657,-0.818125724792,0.797996759415,-0.703952550888,0.170971155167,-0.326639533043,0.607063770294
1555298466129141678,27132,1555298466129141678,world,-2.88745307922,-0.818120002747,0.798026800156,-0.703953742981,0.170809388161,-0.326495051384,0.607185602188
1555298466138593162,27133,1555298466138593162,world,-2.88745212555,-0.818130493164,0.798056840897,-0.704007506371,0.170858427882,-0.326417654753,0.607150971889
1555298466138657043,27134,1555298466138657043,world,-2.88743400574,-0.818122625351,0.79806470871,-0.70398837328,0.170754805207,-0.326433569193,0.607193827629
1555298466148984639,27135,1555298466148984639,world,-2.88741111755,-0.818151712418,0.798031330109,-0.703936398029,0.171012118459,-0.32668569684,0.60704600811
1555298466158413834,27136,1555298466158413834,world,-2.88740348816,-0.818136930466,0.798011541367,-0.704011142254,0.170871302485,-0.326596945524,0.60704678297
1555298466168882404,27137,1555298466168882404,world,-2.88736820221,-0.818171739578,0.798018455505,-0.704062998295,0.171009197831,-0.326759964228,0.606859982014
1555298466178262585,27138,1555298466178262585,world,-2.88738822937,-0.818169355392,0.79808473587,-0.704042434692,0.17076331377,-0.326508641243,0.607088327408
1555298466188606629,27139,1555298466188606629,world,-2.88737773895,-0.818194389343,0.798079967499,-0.703936755657,0.170999631286,-0.326766937971,0.607005536556
1555298466188644594,27140,1555298466188644594,world,-2.8873462677,-0.818208932877,0.798039913177,-0.703903496265,0.171095862985,-0.326983124018,0.606900274754
1555298466208377348,27141,1555298466208377348,world,-2.88736343384,-0.818194627762,0.798022270203,-0.703959524632,0.170960441232,-0.326788216829,0.606978476048
1555298466208416222,27142,1555298466208416222,world,-2.88738250732,-0.818177938461,0.798027038574,-0.703978002071,0.171027466655,-0.326737850904,0.606965482235
1555298466258972300,27143,1555298466258972300,world,-2.88738059998,-0.818196058273,0.798056602478,-0.704021394253,0.171001061797,-0.326655834913,0.606966674328
1555298466259014069,27144,1555298466259014069,world,-2.8873872757,-0.818201541901,0.798036336899,-0.70403444767,0.171069070697,-0.326757520437,0.606877505779
1555298466259062012,27145,1555298466259062012,world,-2.88742923737,-0.818138360977,0.798055887222,-0.703917443752,0.170911416411,-0.326522916555,0.607184112072
1555298466259106672,27147,1555298466259106672,world,-2.88743019104,-0.818185806274,0.798009634018,-0.704028010368,0.171117469668,-0.326692551374,0.606906354427
1555298466259144506,27148,1555298466259144506,world,-2.88745689392,-0.818143606186,0.798026561737,-0.703987896442,0.170928671956,-0.326586872339,0.607062935829
1555298466268510178,27149,1555298466268510178,world,-2.8874540329,-0.818161010742,0.79803442955,-0.703997790813,0.170816108584,-0.326527327299,0.607115209103
1555298466278890825,27150,1555298466278890825,world,-2.88746261597,-0.818165540695,0.798037528992,-0.704034090042,0.170811295509,-0.326551914215,0.60706114769
1555298466288439759,27151,1555298466288439759,world,-2.88747501373,-0.818133115768,0.798023939133,-0.703993797302,0.170696437359,-0.326446294785,0.60719704628
1555298466288480596,27152,1555298466288480596,world,-2.88743686676,-0.818193912506,0.798004150391,-0.70403701067,0.171032622457,-0.326794058084,0.606865227222
1555298466298812277,27153,1555298466298812277,world,-2.88744354248,-0.818187713623,0.798031330109,-0.704042673111,0.170736670494,-0.326784968376,0.60694694519
1555298466308096685,27154,1555298466308096685,world,-2.88741588593,-0.818212032318,0.798043012619,-0.703939378262,0.171193704009,-0.32695671916,0.60684555769
1555298466318814317,27155,1555298466318814317,world,-2.88742446899,-0.818168878555,0.798056840897,-0.703943192959,0.17098288238,-0.326707452536,0.607034862041
1555298466328157329,27156,1555298466328157329,world,-2.88737392426,-0.8182117939,0.798034667969,-0.703940451145,0.171187892556,-0.326999217272,0.60682284832
1555298466338502527,27157,1555298466338502527,world,-2.88738632202,-0.818175792694,0.798048973083,-0.704048037529,0.170787140727,-0.326668232679,0.606989324093
1555298466338573052,27158,1555298466338573052,world,-2.88735961914,-0.818185567856,0.79801774025,-0.704033195972,0.171089425683,-0.326898247004,0.606797575951
1555298466358382537,27159,1555298466358382537,world,-2.88738918304,-0.818165302277,0.798058748245,-0.703991532326,0.171005412936,-0.326693743467,0.606979548931
1555298466358425061,27160,1555298466358425061,world,-2.88739013672,-0.818149805069,0.798086643219,-0.704005360603,0.170838698745,-0.326568454504,0.607078015804
1555298466378109925,27161,1555298466378109925,world,-2.88740730286,-0.818137645721,0.798087596893,-0.703959345818,0.170765921474,-0.326565235853,0.607153594494
1555298466378172093,27162,1555298466378172093,world,-2.88740730286,-0.818111181259,0.798040390015,-0.703918993473,0.170978620648,-0.326500207186,0.607175469398
1555298466478984960,27163,1555298466478984960,world,-2.88737297058,-0.818149805069,0.797994852066,-0.704004108906,0.171214655042,-0.32689717412,0.606796622276
1555298466479027383,27164,1555298466479027383,world,-2.88739776611,-0.818125724792,0.798022031784,-0.703924417496,0.171080291271,-0.326838612556,0.606958389282
1555298466479078119,27165,1555298466479078119,world,-2.88740348816,-0.81812787056,0.798043251038,-0.703974664211,0.171143993735,-0.326733082533,0.606939017773
1555298466479125671,27167,1555298466479125671,world,-2.88744449615,-0.818113565445,0.798045873642,-0.703999340534,0.17078705132,-0.326379686594,0.607200980186
1555298466479167803,27168,1555298466479167803,world,-2.88744544983,-0.818113803864,0.7980427742,-0.703963637352,0.170673534274,-0.32647010684,0.607225596905
1555298466479217278,27169,1555298466479217278,world,-2.88744544983,-0.818158149719,0.798023223877,-0.70390111208,0.170781090856,-0.32657507062,0.607211470604
1555298466479245748,27170,1555298466479245748,world,-2.88741970062,-0.818162679672,0.798022031784,-0.704003453255,0.170909032226,-0.326759427786,0.606957614422
1555298466479292165,27171,1555298466479292165,world,-2.88742828369,-0.818149089813,0.798065900803,-0.703997910023,0.170803740621,-0.326640039682,0.607057929039
1555298466479327603,27172,1555298466479327603,world,-2.88737487793,-0.818204402924,0.79806137085,-0.703964114189,0.171245798469,-0.327017635107,0.606769263744
1555298466479357030,27173,1555298466479357030,world,-2.88738441467,-0.818211078644,0.798051357269,-0.703913450241,0.171228647232,-0.326989889145,0.606847763062
1555298466479384498,27174,1555298466479384498,world,-2.88738441467,-0.818201541901,0.798034191132,-0.703903496265,0.171186164021,-0.326753050089,0.606998801231
1555298466498072166,27175,1555298466498072166,world,-2.88738822937,-0.818188667297,0.798020839691,-0.703899085522,0.171103283763,-0.326758831739,0.607024371624
1555298466498114949,27176,1555298466498114949,world,-2.88741970062,-0.818157196045,0.798075437546,-0.704011201859,0.170758783817,-0.326393246651,0.607187986374
1555298466508451288,27177,1555298466508451288,world,-2.88741588593,-0.818134069443,0.798092126846,-0.704097509384,0.170654714108,-0.326379299164,0.607124567032
1555298466508525156,27178,1555298466508525156,world,-2.88739681244,-0.818143844604,0.798043012619,-0.704085171223,0.170855894685,-0.326573520899,0.606977760792
1555298466518904978,27179,1555298466518904978,world,-2.88739681244,-0.818126916885,0.798032522202,-0.704027950764,0.170867934823,-0.32653644681,0.607060730457
1555298466528290686,27180,1555298466528290686,world,-2.88736629486,-0.81817317009,0.798006534576,-0.704077243805,0.171300470829,-0.32689344883,0.606689453125
1555298466538659035,27181,1555298466538659035,world,-2.88735198975,-0.818191051483,0.79803943634,-0.704002916813,0.171435788274,-0.327052980661,0.606651425362
1555298466538725032,27182,1555298466538725032,world,-2.88740634918,-0.818140983582,0.798070430756,-0.703928470612,0.170910537243,-0.326641917229,0.607107400894
1555298466549116565,27183,1555298466549116565,world,-2.88740730286,-0.818140029907,0.798026323318,-0.703985333443,0.170865938067,-0.326681822538,0.607032477856
1555298466558446019,27184,1555298466558446019,world,-2.88741111755,-0.818149089813,0.79803943634,-0.703919231892,0.170788303018,-0.326669961214,0.607137322426
1555298466568836240,27185,1555298466568836240,world,-2.88742160797,-0.818175792694,0.798025131226,-0.704039871693,0.170881941915,-0.326694637537,0.606957793236
1555298466578111820,27186,1555298466578111820,world,-2.88743495941,-0.818183422089,0.798060178757,-0.703902304173,0.170848086476,-0.326658159494,0.60714662075
1555298466588451355,27187,1555298466588451355,world,-2.88743400574,-0.818188667297,0.798077106476,-0.703908622265,0.170783445239,-0.326609581709,0.607183635235
1555298466598847599,27188,1555298466598847599,world,-2.88744068146,-0.818181991577,0.798052310944,-0.703946053982,0.170793876052,-0.326589554548,0.607148110867
1555298466598889237,27189,1555298466598889237,world,-2.88743019104,-0.818181276321,0.79803943634,-0.703940749168,0.170847222209,-0.326713770628,0.607072293758
1555298466608308817,27190,1555298466608308817,world,-2.88738632202,-0.818212509155,0.79801774025,-0.703915178776,0.17135168612,-0.327076941729,0.60676419735
1555298466618762988,27191,1555298466618762988,world,-2.88739299774,-0.818177223206,0.798039913177,-0.703980326653,0.171251580119,-0.326687902212,0.606926381588
1555298466628102589,27192,1555298466628102589,world,-2.88740062714,-0.818124294281,0.798063755035,-0.704003810883,0.170746862888,-0.326424717903,0.607182979584
1555298466638474597,27193,1555298466638474597,world,-2.88737487793,-0.818092346191,0.798053979874,-0.703979253769,0.170793652534,-0.326506495476,0.60715419054
1555298466638515977,27194,1555298466638515977,world,-2.88737201691,-0.81806063652,0.798039674759,-0.704033970833,0.170810267329,-0.326310008764,0.607191741467
1555298466648857018,27195,1555298466648857018,world,-2.88732147217,-0.818106889725,0.798008918762,-0.703993916512,0.171160146594,-0.326910942793,0.606816232204
1555298466658045263,27196,1555298466658045263,world,-2.88730621338,-0.818099498749,0.798015832901,-0.703996777534,0.171280488372,-0.326890796423,0.606789767742
1555298466668377190,27197,1555298466668377190,world,-2.88731384277,-0.818113803864,0.798035621643,-0.704033493996,0.17123542726,-0.326992243528,0.606705367565
1555298466678835475,27198,1555298466678835475,world,-2.88732814789,-0.818103551865,0.798056125641,-0.704073429108,0.170957565308,-0.326643705368,0.606925070286
1555298466688151783,27199,1555298466688151783,world,-2.88735580444,-0.818111658096,0.798074483871,-0.703997254372,0.170809298754,-0.326334923506,0.607221066952
1555298466698752093,27200,1555298466698752093,world,-2.88736629486,-0.818136930466,0.798043012619,-0.704011559486,0.170858249068,-0.326375693083,0.607168853283
1555298466698792748,27201,1555298466698792748,world,-2.88736152649,-0.818161010742,0.798043966293,-0.703960061073,0.170876011252,-0.326584905386,0.607111155987
1555298466708089246,27202,1555298466708089246,world,-2.88732624054,-0.818238735199,0.798034906387,-0.703979551792,0.171311989427,-0.327121406794,0.606676697731
1555298466718503266,27203,1555298466718503266,world,-2.88739109039,-0.818188428879,0.798100471497,-0.703961133957,0.170796394348,-0.326660871506,0.607091426849
1555298466728882417,27204,1555298466728882417,world,-2.88738918304,-0.818196058273,0.798079967499,-0.703968048096,0.170838654041,-0.326701045036,0.607049942017
1555298466738346151,27205,1555298466738346151,world,-2.88741779327,-0.818158388138,0.798045158386,-0.703986823559,0.170634254813,-0.326503127813,0.607192218304
1555298466738387500,27206,1555298466738387500,world,-2.88740253448,-0.818149805069,0.798027992249,-0.703916311264,0.170787811279,-0.326560258865,0.607199907303
1555298466748842649,27207,1555298466748842649,world,-2.88739585876,-0.818141937256,0.798056364059,-0.703971982002,0.171059951186,-0.326713174582,0.60697644949
1555298466758150988,27208,1555298466758150988,world,-2.88738822937,-0.818130731583,0.798054933548,-0.703985512257,0.171184435487,-0.326684743166,0.606941103935
1555298466768614005,27209,1555298466768614005,world,-2.88737869263,-0.818134784698,0.798024892807,-0.703987896442,0.17132563889,-0.326825886965,0.606822371483
1555298466778996477,27210,1555298466778996477,world,-2.88738632202,-0.818100690842,0.798034667969,-0.703979313374,0.170926883817,-0.326639443636,0.607045292854
1555298466788339511,27211,1555298466788339511,world,-2.88736724854,-0.818150997162,0.79798746109,-0.703926205635,0.17124299705,-0.326953023672,0.60684889555
1555298466788382598,27212,1555298466788382598,world,-2.88739871979,-0.81812286377,0.798043966293,-0.703926205635,0.170900270343,-0.326533049345,0.607171475887
1555298466798714793,27213,1555298466798714793,world,-2.88740634918,-0.818139314651,0.79806804657,-0.703968763351,0.170813322067,-0.326630353928,0.607094287872
1555298466809060940,27214,1555298466809060940,world,-2.88739013672,-0.818198919296,0.798046112061,-0.704013347626,0.170955479145,-0.326939463615,0.606836080551
1555298466818409751,27215,1555298466818409751,world,-2.88742733002,-0.818200349808,0.798057079315,-0.703964054585,0.170837953687,-0.326696187258,0.607057452202
1555298466828761915,27216,1555298466828761915,world,-2.88743114471,-0.818219661713,0.798067808151,-0.703961968422,0.170968458056,-0.326763123274,0.606986939907
1555298466839045075,27217,1555298466839045075,world,-2.88739585876,-0.818256139755,0.798047780991,-0.703934013844,0.171230569482,-0.326912790537,0.606865048409
1555298466839084369,27218,1555298466839084369,world,-2.8874206543,-0.818242788315,0.798043727875,-0.703991472721,0.170989468694,-0.326892644167,0.606877207756
1555298466848558221,27219,1555298466848558221,world,-2.8874464035,-0.818220376968,0.798059463501,-0.703916072845,0.170949459076,-0.326808214188,0.607021331787
1555298466858977426,27220,1555298466858977426,world,-2.88743782043,-0.81823182106,0.798051357269,-0.70393037796,0.170923054218,-0.326927542686,0.606947898865
1555298466868382065,27221,1555298466868382065,world,-2.88747215271,-0.818188428879,0.798049688339,-0.704025804996,0.17067463696,-0.326525717974,0.607123494148
1555298466878730936,27222,1555298466878730936,world,-2.88746070862,-0.818152189255,0.798027276993,-0.704018950462,0.170808717608,-0.326368421316,0.607178151608
1555298466889116881,27223,1555298466889116881,world,-2.88744354248,-0.818143129349,0.798033952713,-0.704041302204,0.170861080289,-0.326318651438,0.607164263725
1555298466898446706,27224,1555298466898446706,world,-2.88744258881,-0.818134069443,0.79806637764,-0.704023361206,0.170722603798,-0.326354503632,0.607204675674
1555298466898485396,27225,1555298466898485396,world,-2.88742733002,-0.818138599396,0.798057556152,-0.703917503357,0.170897006989,-0.326543092728,0.607177019119
1555298466908862402,27226,1555298466908862402,world,-2.88741779327,-0.818124294281,0.798047780991,-0.703890800476,0.170924663544,-0.326557040215,0.607192754745
1555298466918259532,27227,1555298466918259532,world,-2.88739776611,-0.818121194839,0.798023939133,-0.703973114491,0.170844450593,-0.326547652483,0.60712492466
1555298466928743394,27228,1555298466928743394,world,-2.88738918304,-0.818118810654,0.798040390015,-0.703932642937,0.170924589038,-0.326523631811,0.607162177563
1555298466939091005,27229,1555298466939091005,world,-2.88738250732,-0.818124055862,0.798069000244,-0.703937530518,0.171081364155,-0.326533317566,0.607107162476
1555298466948549769,27230,1555298466948549769,world,-2.88741111755,-0.818114519119,0.798105716705,-0.703960776329,0.170725136995,-0.326264232397,0.607325017452
1555298466948620115,27231,1555298466948620115,world,-2.88737869263,-0.818156242371,0.798054218292,-0.704040765762,0.170897126198,-0.326651573181,0.606975853443
1555298466958961918,27232,1555298466958961918,world,-2.88737487793,-0.818165063858,0.798001527786,-0.704088032246,0.171130552888,-0.32670417428,0.606826901436
1555298466968418685,27233,1555298466968418685,world,-2.88737773895,-0.818177461624,0.798029899597,-0.703975379467,0.17106346786,-0.326844662428,0.6069008708
1555298466978832630,27234,1555298466978832630,world,-2.88740062714,-0.81818985939,0.798062324524,-0.703942418098,0.170982822776,-0.326857537031,0.606954753399
1555298466988138153,27235,1555298466988138153,world,-2.88741493225,-0.818188905716,0.798072814941,-0.703972876072,0.171177878976,-0.326816350222,0.606886744499
1555298466988198803,27236,1555298466988198803,world,-2.88744163513,-0.818156003952,0.798064947128,-0.703971624374,0.170849859715,-0.326564311981,0.607116222382
1555298466998656070,27237,1555298466998656070,world,-2.88743400574,-0.818164825439,0.798025608063,-0.703996598721,0.17088739574,-0.326629012823,0.607042014599
1555298467009120527,27238,1555298467009120527,world,-2.8874168396,-0.818184137344,0.797996520996,-0.703990101814,0.171230718493,-0.326715558767,0.606906116009
1555298467018448232,27239,1555298467018448232,world,-2.88745307922,-0.818135738373,0.798020601273,-0.703966498375,0.170838996768,-0.32646343112,0.6071793437
1555298467028781680,27240,1555298467028781680,world,-2.88746356964,-0.818144083023,0.798048496246,-0.703925669193,0.170793667436,-0.326528459787,0.607204556465
1555298467039119346,27241,1555298467039119346,world,-2.88746929169,-0.81812620163,0.798076629639,-0.703945875168,0.170744359493,-0.32645368576,0.607235193253
1555298467039186751,27242,1555298467039186751,world,-2.88746547699,-0.818125247955,0.798060894012,-0.703978955746,0.170662328601,-0.326595276594,0.607143819332
1555298467048610711,27243,1555298467048610711,world,-2.8874578476,-0.818143129349,0.798024654388,-0.704025506973,0.170690059662,-0.326418280602,0.607177257538
1555298467059025649,27244,1555298467059025649,world,-2.88744926453,-0.818120479584,0.798033714294,-0.703986465931,0.170652702451,-0.326373130083,0.607257246971
1555298467068369679,27245,1555298467068369679,world,-2.88744068146,-0.818151712418,0.798063278198,-0.704012155533,0.17080116272,-0.32651746273,0.60710811615
1555298467078720678,27246,1555298467078720678,world,-2.88743400574,-0.818147420883,0.798095941544,-0.704002797604,0.170730814338,-0.326472491026,0.607162892818
1555298467089126930,27247,1555298467089126930,world,-2.88741970062,-0.818166017532,0.798065423965,-0.703944861889,0.170788809657,-0.326633661985,0.607127130032
1555298467089196858,27248,1555298467089196858,world,-2.88740253448,-0.818170785904,0.798007249832,-0.703981935978,0.170846894383,-0.326607495546,0.607081770897
1555298467098596843,27249,1555298467098596843,world,-2.88743782043,-0.818165063858,0.798013448715,-0.703965902328,0.171022772789,-0.326652169228,0.607026875019
1555298467109107778,27250,1555298467109107778,world,-2.88742160797,-0.818167448044,0.798065185547,-0.703955113888,0.170902237296,-0.326657861471,0.60707038641
1555298467118568630,27251,1555298467118568630,world,-2.88746547699,-0.81814622879,0.798100948334,-0.703956604004,0.170489609241,-0.326507687569,0.607265233994
1555298467128996006,27252,1555298467128996006,world,-2.88746452332,-0.818143129349,0.798053264618,-0.703940272331,0.170653030276,-0.326477140188,0.607254683971
1555298467138393230,27253,1555298467138393230,world,-2.88745212555,-0.818138837814,0.798010826111,-0.703898966312,0.170934036374,-0.326665192842,0.607122540474
1555298467138467233,27254,1555298467138467233,world,-2.8874797821,-0.818118572235,0.798032522202,-0.703939914703,0.170653700829,-0.326355099678,0.607320547104
1555298467148768783,27255,1555298467148768783,world,-2.8874797821,-0.818121194839,0.798065185547,-0.703934729099,0.170769229531,-0.326467782259,0.607233643532
1555298467158099559,27256,1555298467158099559,world,-2.88744068146,-0.818142414093,0.798058509827,-0.703999936581,0.170861050487,-0.326617211103,0.607051789761
1555298467168557428,27257,1555298467168557428,world,-2.8874206543,-0.818140029907,0.79802274704,-0.704032182693,0.170900523663,-0.326729774475,0.606942653656
1555298467179027743,27258,1555298467179027743,world,-2.88741779327,-0.818125247955,0.797998666763,-0.704055964947,0.171078011394,-0.326688498259,0.606887280941
1555298467188452159,27259,1555298467188452159,world,-2.88740253448,-0.81814455986,0.798015356064,-0.703987896442,0.171145573258,-0.326752692461,0.606912732124
1555298467198911282,27260,1555298467198911282,world,-2.88740921021,-0.818150043488,0.798042297363,-0.703898191452,0.170959889889,-0.326645851135,0.60712647438
1555298467208236370,27261,1555298467208236370,world,-2.88741874695,-0.818150997162,0.798090457916,-0.703881263733,0.17086327076,-0.326601147652,0.607197284698
1555298467208316996,27262,1555298467208316996,world,-2.88737678528,-0.818191051483,0.798050880432,-0.703967154026,0.171112552285,-0.326958328485,0.606835246086
1555298467218717127,27263,1555298467218717127,world,-2.887383461,-0.818197250366,0.798045158386,-0.704028964043,0.171043798327,-0.326714009047,0.606914460659
1555298467228052528,27264,1555298467228052528,world,-2.8874130249,-0.818182706833,0.7980427742,-0.704036712646,0.170816421509,-0.326470732689,0.607100486755
1555298467238453433,27265,1555298467238453433,world,-2.88737201691,-0.818229436874,0.798012971878,-0.704057097435,0.171217784286,-0.326815575361,0.606778085232
1555298467238526128,27266,1555298467238526128,world,-2.8873872757,-0.818192005157,0.798029899597,-0.704069912434,0.170921161771,-0.326673299074,0.60692346096
1555298467248929660,27267,1555298467248929660,world,-2.88740158081,-0.81817150116,0.798062324524,-0.703928291798,0.170835569501,-0.326605349779,0.607148468494
1555298467258404681,27268,1555298467258404681,world,-2.88739490509,-0.818182945251,0.798077106476,-0.70398837328,0.170817807317,-0.326852232218,0.606950879097
1555298467268854832,27269,1555298467268854832,world,-2.88744068146,-0.818133354187,0.798054218292,-0.70401185751,0.170595273376,-0.326530069113,0.607159554958
1555298467278180475,27270,1555298467278180475,world,-2.88743305206,-0.818144321442,0.798010110855,-0.703937351704,0.170853629708,-0.326635271311,0.607116758823
1555298467288588903,27271,1555298467288588903,world,-2.88742446899,-0.818118572235,0.798024892807,-0.703945815563,0.170735880733,-0.326506823301,0.607209146023
1555298467288664811,27272,1555298467288664811,world,-2.88745212555,-0.81812620163,0.798060655594,-0.703946590424,0.170805990696,-0.326513886452,0.607184648514
1555298467299060493,27273,1555298467299060493,world,-2.88746547699,-0.81810259819,0.798086166382,-0.703930020332,0.170628353953,-0.326361387968,0.607335746288
1555298467308467298,27274,1555298467308467298,world,-2.8874502182,-0.818115949631,0.798052549362,-0.703925251961,0.170732006431,-0.32652541995,0.607223927975
1555298467319112126,27275,1555298467319112126,world,-2.88741779327,-0.818126916885,0.798020124435,-0.703902482986,0.170906960964,-0.32668697834,0.607114374638
1555298467328535536,27276,1555298467328535536,world,-2.88739681244,-0.818147182465,0.798007011414,-0.703976154327,0.17082130909,-0.326573133469,0.607114374638
1555298467338891524,27277,1555298467338891524,world,-2.88738822937,-0.818175315857,0.798047542572,-0.70395809412,0.170924797654,-0.32677128911,0.606999516487
1555298467338961732,27278,1555298467338961732,world,-2.88738059998,-0.81818151474,0.79808473587,-0.704014539719,0.170914173126,-0.326805830002,0.606918334961
1555298467358548326,27279,1555298467358548326,world,-2.88738155365,-0.818181991577,0.798045635223,-0.704064190388,0.170993462205,-0.326626449823,0.606934905052
1555298467358645387,27280,1555298467358645387,world,-2.88737297058,-0.818174600601,0.798015594482,-0.704017758369,0.171019896865,-0.326643556356,0.606972157955
1555298467368962971,27281,1555298467368962971,world,-2.88743782043,-0.818134307861,0.798066616058,-0.703944921494,0.170692265034,-0.326392889023,0.607283592224
1555298467378407984,27282,1555298467378407984,world,-2.88743782043,-0.818112611771,0.798071146011,-0.703982234001,0.170504614711,-0.326441138983,0.607267081738
1555298467388836057,27283,1555298467388836057,world,-2.88742160797,-0.818150758743,0.798088312149,-0.703970491886,0.170639887452,-0.326542764902,0.607188105583
1555298467388906952,27284,1555298467388906952,world,-2.88744163513,-0.818137407303,0.798055171967,-0.703951537609,0.170739874244,-0.326461523771,0.607225835323
1555298467398337193,27285,1555298467398337193,world,-2.8874502182,-0.818157672882,0.798019886017,-0.703957140446,0.170857444406,-0.32676628232,0.607022166252
1555298467408760323,27286,1555298467408760323,world,-2.88743495941,-0.818161249161,0.798007488251,-0.704037189484,0.17081707716,-0.326796174049,0.606924533844
1555298467419120172,27287,1555298467419120172,world,-2.88747119904,-0.818141460419,0.798032283783,-0.703929245472,0.170613721013,-0.326603204012,0.607210755348
1555298467428384428,27288,1555298467428384428,world,-2.88750743866,-0.818125247955,0.798058509827,-0.70397567749,0.170513093472,-0.32626080513,0.607369184494
1555298467438695885,27289,1555298467438695885,world,-2.88748455048,-0.818171739578,0.798040151596,-0.703985929489,0.170760273933,-0.326658129692,0.607074260712
1555298467438734635,27290,1555298467438734635,world,-2.8874912262,-0.818161010742,0.798025369644,-0.704008936882,0.170840784907,-0.326646655798,0.607031047344
1555298467449042201,27291,1555298467449042201,world,-2.88749027252,-0.818165302277,0.798009395599,-0.703995168209,0.170915111899,-0.326667159796,0.607015311718
1555298467458357313,27292,1555298467458357313,world,-2.88745498657,-0.818202495575,0.798005819321,-0.703996479511,0.171107068658,-0.326927006245,0.606819748878
1555298467468674161,27293,1555298467468674161,world,-2.88743877411,-0.818193674088,0.798039674759,-0.703933954239,0.171039044857,-0.326815366745,0.606971502304
1555298467478942994,27294,1555298467478942994,world,-2.88746833801,-0.818167924881,0.798067331314,-0.70391356945,0.170872196555,-0.326502174139,0.607210576534
1555298467488219506,27295,1555298467488219506,world,-2.88745880127,-0.818157434464,0.798058748245,-0.703899502754,0.170658394694,-0.326377242804,0.607354104519
1555298467488261119,27296,1555298467488261119,world,-2.88740158081,-0.818204641342,0.79798412323,-0.703946769238,0.171142861247,-0.326979845762,0.606838881969
1555298467498600093,27297,1555298467498600093,world,-2.88741779327,-0.818161487579,0.798022985458,-0.7040168643,0.1708637923,-0.326620072126,0.607029855251
1555298467508937484,27298,1555298467508937484,world,-2.8874168396,-0.818150997162,0.798072338104,-0.704028010368,0.17076407373,-0.326552599669,0.607081115246
1555298467518262409,27299,1555298467518262409,world,-2.88740348816,-0.818131923676,0.798076868057,-0.704029142857,0.17069734633,-0.326490908861,0.607131838799
1555298467528582948,27300,1555298467528582948,world,-2.88742446899,-0.818107128143,0.798072814941,-0.703982889652,0.17057646811,-0.326350480318,0.607294917107
1555298467538916758,27301,1555298467538916758,world,-2.88740158081,-0.818140745163,0.798038005829,-0.703992545605,0.170991584659,-0.326704710722,0.60697644949
1555298467538956347,27302,1555298467538956347,world,-2.8874168396,-0.81810426712,0.79804444313,-0.704008996487,0.170722827315,-0.326257914305,0.607273280621
1555298467548402714,27303,1555298467548402714,world,-2.88741874695,-0.818120956421,0.798044204712,-0.703970968723,0.170851901174,-0.326310068369,0.607253134251
1555298467558782686,27304,1555298467558782686,world,-2.88741779327,-0.818114519119,0.798040866852,-0.703964948654,0.170758664608,-0.326394915581,0.60724067688
1555298467568120620,27305,1555298467568120620,world,-2.88743400574,-0.818119764328,0.798048734665,-0.703978419304,0.170678064227,-0.326416581869,0.607236087322
1555298467578544915,27306,1555298467578544915,world,-2.88744068146,-0.818128585815,0.798043012619,-0.704046308994,0.170730128884,-0.32641556859,0.60714328289
1555298467588953455,27307,1555298467588953455,world,-2.88741588593,-0.818168640137,0.798018693924,-0.70401018858,0.171102747321,-0.326897472143,0.606821000576
1555298467588994618,27308,1555298467588994618,world,-2.88746261597,-0.818143129349,0.79803943634,-0.703993797302,0.170615017414,-0.32656443119,0.607156515121
1555298467598460260,27309,1555298467598460260,world,-2.88745594025,-0.818175077438,0.798026323318,-0.703938901424,0.170728012919,-0.326788753271,0.607067763805
1555298467608917447,27310,1555298467608917447,world,-2.88744449615,-0.81818652153,0.798037052155,-0.703942596912,0.170749381185,-0.326915293932,0.606989264488
1555298467618388760,27311,1555298467618388760,world,-2.88745212555,-0.818169355392,0.798062324524,-0.703974783421,0.17081387341,-0.326610356569,0.60709798336
1555298467628741133,27312,1555298467628741133,world,-2.88743972778,-0.818173646927,0.798057794571,-0.70394808054,0.170942917466,-0.326646715403,0.607072949409
1555298467639112386,27313,1555298467639112386,world,-2.88743114471,-0.818166732788,0.798014163971,-0.704023718834,0.170819982886,-0.326659888029,0.607012689114
1555298467639153523,27314,1555298467639153523,world,-2.88743877411,-0.818150997162,0.798018932343,-0.703980743885,0.170844569802,-0.326589733362,0.607093453407
1555298467648509596,27315,1555298467648509596,world,-2.88743495941,-0.818153142929,0.798069238663,-0.703920185566,0.170861437917,-0.326572209597,0.607168316841
1555298467658802028,27316,1555298467658802028,world,-2.88740444183,-0.818161010742,0.798080682755,-0.70399582386,0.170890912414,-0.32663294673,0.607039630413
1555298467668071758,27317,1555298467668071758,world,-2.88742446899,-0.818126916885,0.798066616058,-0.704025804996,0.170490041375,-0.326280027628,0.607307314873
1555298467678419740,27318,1555298467678419740,world,-2.88743495941,-0.818114995956,0.798024892807,-0.703988790512,0.170660197735,-0.326372385025,0.607252895832
1555298467688738755,27319,1555298467688738755,world,-2.88738918304,-0.818168640137,0.7979991436,-0.704022943974,0.171098664403,-0.326789885759,0.606865286827
1555298467688781192,27320,1555298467688781192,world,-2.88741493225,-0.818166017532,0.798057317734,-0.703952848911,0.170870438218,-0.326790720224,0.607010245323
1555298467698062349,27321,1555298467698062349,world,-2.88740348816,-0.81818819046,0.798055887222,-0.703944325447,0.171139463782,-0.32690307498,0.606883943081
1555298467708512365,27322,1555298467708512365,world,-2.88740634918,-0.818187236786,0.798050642014,-0.70398658514,0.170924767852,-0.326855391264,0.606921136379
1555298467718963248,27323,1555298467718963248,world,-2.88741874695,-0.818185091019,0.798029184341,-0.704019069672,0.170878767967,-0.326826095581,0.606912136078
1555298467728386246,27324,1555298467728386246,world,-2.88742160797,-0.81819319725,0.798015356064,-0.704000532627,0.170905962586,-0.326946049929,0.60686147213
1555298467738835831,27325,1555298467738835831,world,-2.88740634918,-0.818197727203,0.798028945923,-0.704056084156,0.17099262774,-0.326965719461,0.606761813164
1555298467738917934,27326,1555298467738917934,world,-2.88745307922,-0.818153381348,0.798063278198,-0.704054892063,0.170651271939,-0.326479464769,0.607121109962
1555298467748343538,27327,1555298467748343538,world,-2.88744926453,-0.818167686462,0.798036813736,-0.704006969929,0.170852199197,-0.326730638742,0.606984972954
1555298467768212686,27328,1555298467768212686,world,-2.88744258881,-0.818173646927,0.798041582108,-0.703990519047,0.170821264386,-0.326793462038,0.606979012489
1555298467768254304,27329,1555298467768254304,world,-2.88744163513,-0.818155288696,0.798035860062,-0.703985095024,0.17077486217,-0.326744407415,0.607024848461
1555298467778561466,27330,1555298467778561466,world,-2.88745307922,-0.81812620163,0.798026561737,-0.704000473022,0.170641541481,-0.326452612877,0.607201337814
1555298467788888517,27331,1555298467788888517,world,-2.88742637634,-0.818104028702,0.798011779785,-0.703969240189,0.170783877373,-0.326552510262,0.607143878937
1555298467788931632,27332,1555298467788931632,world,-2.88741874695,-0.818122625351,0.79801940918,-0.704023420811,0.170853450894,-0.326629549265,0.607020020485
1555298467798296627,27333,1555298467798296627,world,-2.88742637634,-0.818101882935,0.798075437546,-0.70401597023,0.170521736145,-0.326448440552,0.607219219208
1555298467808634127,27334,1555298467808634127,world,-2.88741779327,-0.818156480789,0.79807639122,-0.704007685184,0.170833602548,-0.326739937067,0.606984496117
1555298467818988763,27335,1555298467818988763,world,-2.88739299774,-0.818154096603,0.798027515411,-0.703901529312,0.171021819115,-0.326776504517,0.607034921646
1555298467828439016,27336,1555298467828439016,world,-2.88737773895,-0.818187236786,0.797992706299,-0.703992486,0.171117648482,-0.326637595892,0.606977164745
1555298467838822029,27337,1555298467838822029,world,-2.88741397858,-0.81818151474,0.798079967499,-0.704010784626,0.170832589269,-0.326470166445,0.607126355171
1555298467848154188,27338,1555298467848154188,world,-2.88742828369,-0.81823348999,0.798100233078,-0.703967928886,0.170893460512,-0.326618641615,0.607079029083
1555298467848198296,27339,1555298467848198296,world,-2.88747596741,-0.818207979202,0.798115491867,-0.70396053791,0.170476719737,-0.326356977224,0.607345283031
1555298467858560088,27340,1555298467858560088,world,-2.88745498657,-0.818241834641,0.798035144806,-0.703925132751,0.170901060104,-0.326645493507,0.607111930847
1555298467868883596,27341,1555298467868883596,world,-2.88744258881,-0.81826210022,0.797991514206,-0.703996956348,0.171032741666,-0.326783925295,0.606917023659
1555298467878262751,27342,1555298467878262751,world,-2.8874540329,-0.818240880966,0.798031806946,-0.703994274139,0.170973479748,-0.326595067978,0.607038497925
1555298467888654258,27343,1555298467888654258,world,-2.88746356964,-0.818208694458,0.79804110527,-0.704019367695,0.170952394605,-0.326704889536,0.606956362724
1555298467888695687,27344,1555298467888695687,world,-2.88749217987,-0.818133354187,0.798049926758,-0.70405369997,0.170603469014,-0.326510578394,0.607119202614
1555298467899136838,27345,1555298467899136838,world,-2.88749980927,-0.818103075027,0.798052310944,-0.704022347927,0.170577213168,-0.326532334089,0.607151210308
1555298467908574514,27346,1555298467908574514,world,-2.88749790192,-0.818071126938,0.798026561737,-0.703952491283,0.170659169555,-0.326521962881,0.607214868069
1555298467918866875,27347,1555298467918866875,world,-2.88748264313,-0.818072795868,0.79799413681,-0.703919708729,0.171011522412,-0.326632648706,0.607094168663
1555298467928272999,27348,1555298467928272999,world,-2.88748550415,-0.818027019501,0.798047065735,-0.703917086124,0.170690074563,-0.326295524836,0.607368826866
1555298467938720820,27349,1555298467938720820,world,-2.88743877411,-0.818053245544,0.798043251038,-0.703928768635,0.170861497521,-0.326585441828,0.607151150703
1555298467948053658,27350,1555298467948053658,world,-2.88740634918,-0.818086385727,0.798027038574,-0.704045593739,0.170919492841,-0.326766043901,0.606902241707
1555298467948109976,27351,1555298467948109976,world,-2.88739109039,-0.818117856979,0.798012018204,-0.704077720642,0.170992434025,-0.326935768127,0.606752872467
1555298467958376014,27352,1555298467958376014,world,-2.88737678528,-0.818162441254,0.798011302948,-0.704004883766,0.171117112041,-0.327013343573,0.606760442257
1555298467968696000,27353,1555298467968696000,world,-2.88738632202,-0.818189382553,0.798038721085,-0.70391356945,0.170967504382,-0.326853603125,0.606994569302
1555298467979033988,27354,1555298467979033988,world,-2.88739871979,-0.818199634552,0.798066854477,-0.704027354717,0.170881673694,-0.326565593481,0.607042014599
1555298467988375519,27355,1555298467988375519,world,-2.88741016388,-0.81819319725,0.798086166382,-0.704001188278,0.170830726624,-0.32656443119,0.607087135315
1555298467988417775,27356,1555298467988417775,world,-2.88740444183,-0.81821680069,0.798077583313,-0.703971087933,0.170862242579,-0.326679080725,0.607051551342
1555298467998718455,27357,1555298467998718455,world,-2.88740062714,-0.818189620972,0.798040628433,-0.704014778137,0.17077845335,-0.326560854912,0.607088088989
1555298468009115207,27358,1555298468009115207,world,-2.88738918304,-0.818199396133,0.798017501831,-0.704016983509,0.171016469598,-0.326778680086,0.606901288033
1555298468018511674,27359,1555298468018511674,world,-2.8874168396,-0.818147182465,0.798067808151,-0.703986883163,0.170666635036,-0.326496481895,0.607186555862
1555298468028912650,27360,1555298468028912650,world,-2.88742351532,-0.818137407303,0.798057317734,-0.703950166702,0.170941114426,-0.32653260231,0.607132434845
1555298468038323016,27361,1555298468038323016,world,-2.88741970062,-0.818111181259,0.798039913177,-0.704005122185,0.171027585864,-0.326578110456,0.607019841671
1555298468048717424,27362,1555298468048717424,world,-2.88740253448,-0.818158864975,0.797997951508,-0.703968584538,0.171285286546,-0.327105075121,0.606705784798
1555298468048759868,27363,1555298468048759868,world,-2.88743686676,-0.818118810654,0.798002481461,-0.703990638256,0.170961901546,-0.326765865088,0.606954216957
1555298468059082348,27364,1555298468059082348,world,-2.88744831085,-0.818111181259,0.797994852066,-0.703993737698,0.170826777816,-0.326713413,0.607016980648
1555298468068466256,27365,1555298468068466256,world,-2.88743019104,-0.818153619766,0.798026561737,-0.703962862492,0.170879915357,-0.326952368021,0.606908917427
1555298468078858949,27366,1555298468078858949,world,-2.88745498657,-0.81813120842,0.798067331314,-0.704003632069,0.170498743653,-0.326634079218,0.607140183449
1555298468088127927,27367,1555298468088127927,world,-2.88743495941,-0.818193912506,0.798036336899,-0.703989803791,0.170941367745,-0.326910287142,0.606883108616
1555298468088169009,27368,1555298468088169009,world,-2.88743782043,-0.818188905716,0.798002481461,-0.7040143013,0.170886039734,-0.32673561573,0.606964349747
1555298468098515287,27369,1555298468098515287,world,-2.88745880127,-0.818213224411,0.798003435135,-0.70400094986,0.170930027962,-0.326721072197,0.606975317001
1555298468108855087,27370,1555298468108855087,world,-2.8874835968,-0.818197250366,0.798074245453,-0.703970611095,0.170522555709,-0.326426833868,0.607283294201
1555298468118122615,27371,1555298468118122615,world,-2.88746356964,-0.818185806274,0.798075675964,-0.703945875168,0.170631468296,-0.326265931129,0.607367753983
1555298468128466836,27372,1555298468128466836,world,-2.8874206543,-0.818233966827,0.798049449921,-0.703970730305,0.170989647508,-0.326838165522,0.606930613518
1555298468138768902,27373,1555298468138768902,world,-2.88743114471,-0.81818652153,0.798026561737,-0.703976988792,0.170854076743,-0.326811164618,0.606975972652
1555298468138807576,27374,1555298468138807576,world,-2.88741970062,-0.818196773529,0.798002958298,-0.703957378864,0.171023860574,-0.326873570681,0.606917262077
1555298468148088494,27375,1555298468148088494,world,-2.88743782043,-0.818161964417,0.798028707504,-0.70391201973,0.170802593231,-0.326735496521,0.60710644722
1555298468158428113,27376,1555298468158428113,world,-2.88745498657,-0.818124294281,0.798063516617,-0.703975200653,0.170608639717,-0.32649075985,0.607219457626
1555298468168839830,27377,1555298468168839830,world,-2.88746166229,-0.818098306656,0.798062086105,-0.703868329525,0.170599862933,-0.326514452696,0.607333123684
1555298468178142742,27378,1555298468178142742,world,-2.88743877411,-0.818094491959,0.798037528992,-0.703852951527,0.170965448022,-0.326727181673,0.607133686543
1555298468188591055,27379,1555298468188591055,world,-2.8874130249,-0.818119525909,0.798001527786,-0.703994512558,0.171133875847,-0.326914072037,0.606821298599
1555298468188629994,27380,1555298468188629994,world,-2.88742637634,-0.818115234375,0.798023223877,-0.703962206841,0.170950040221,-0.326752752066,0.606997430325
1555298468199063145,27381,1555298468199063145,world,-2.88743782043,-0.818101406097,0.798038959503,-0.703939199448,0.170832753181,-0.326663613319,0.607105255127
