%time,field.header.seq,field.header.stamp,field.header.frame_id,field.pose.position.x,field.pose.position.y,field.pose.position.z,field.pose.orientation.x,field.pose.orientation.y,field.pose.orientation.z,field.pose.orientation.w
1555298550338538304,28385,1555298550338538304,world,-2.89164066315,-0.819503307343,0.798045158386,-0.711839497089,0.137354522943,-0.299613296986,0.620201706886
1555298550348852306,28386,1555298550348852306,world,-2.89163208008,-0.819519281387,0.798043489456,-0.711875975132,0.137174934149,-0.299435317516,0.620285630226
1555298550348902638,28387,1555298550348902638,world,-2.89164352417,-0.8195271492,0.798100948334,-0.711966335773,0.137240737677,-0.299447119236,0.620161652565
1555298550358203449,28388,1555298550358203449,world,-2.89160919189,-0.819564342499,0.7981133461,-0.711978077888,0.137458503246,-0.299776405096,0.619940698147
1555298550368521261,28389,1555298550368521261,world,-2.89161014557,-0.81957244873,0.798079490662,-0.711922764778,0.137493252754,-0.299709320068,0.620028913021
1555298550378855194,28390,1555298550378855194,world,-2.89162826538,-0.819519042969,0.798034191132,-0.711925327778,0.137346953154,-0.299511015415,0.620154261589
1555298550388111786,28391,1555298550388111786,world,-2.89165306091,-0.81952047348,0.798025369644,-0.711920559406,0.137236088514,-0.299643337727,0.620120406151
1555298550398483107,28392,1555298550398483107,world,-2.89162349701,-0.819547653198,0.798057317734,-0.711936712265,0.137493744493,-0.299960970879,0.619891166687
1555298550408927969,28393,1555298550408927969,world,-2.89167404175,-0.819489717484,0.79807138443,-0.711832344532,0.137178629637,-0.299392998219,0.620355248451
1555298550408970837,28394,1555298550408970837,world,-2.89165019989,-0.819471120834,0.798048019409,-0.71187710762,0.137394741178,-0.299558401108,0.620176076889
1555298550418389014,28395,1555298550418389014,world,-2.8916311264,-0.819464921951,0.798014640808,-0.711815774441,0.137135133147,-0.299553602934,0.620306432247
1555298550428808488,28396,1555298550428808488,world,-2.89166641235,-0.819412469864,0.798006534576,-0.711799263954,0.137080788612,-0.299393504858,0.620414674282
1555298550438075159,28397,1555298550438075159,world,-2.89166355133,-0.819402694702,0.798015356064,-0.711907148361,0.137033775449,-0.299531579018,0.620234489441
1555298550448471380,28398,1555298550448471380,world,-2.89165115356,-0.819426298141,0.798067808151,-0.711966454983,0.137176439166,-0.299633711576,0.620085656643
1555298550448509370,28399,1555298550448509370,world,-2.89164924622,-0.819401741028,0.798079252243,-0.711965084076,0.137266293168,-0.299217224121,0.620268344879
1555298550458922867,28400,1555298550458922867,world,-2.89161205292,-0.819444656372,0.798045873642,-0.711859047413,0.137320190668,-0.299366176128,0.620306372643
1555298550468318751,28401,1555298550468318751,world,-2.89159202576,-0.819456577301,0.798004150391,-0.711925327778,0.137361735106,-0.299531638622,0.620141148567
1555298550498367694,28402,1555298550498367694,world,-2.89158248901,-0.819484949112,0.798006057739,-0.71191906929,0.13748909533,-0.299717068672,0.620030403137
1555298550518975833,28403,1555298550518975833,world,-2.89161109924,-0.819494247437,0.798094749451,-0.711868822575,0.137188717723,-0.299588739872,0.620216727257
1555298550519015069,28404,1555298550519015069,world,-2.89159297943,-0.819521188736,0.798097610474,-0.711963057518,0.137386798859,-0.299656003714,0.620032012463
1555298550519070159,28405,1555298550519070159,world,-2.89158439636,-0.819524526596,0.798083305359,-0.711948037148,0.137494504452,-0.299782365561,0.619964301586
1555298550519096142,28406,1555298550519096142,world,-2.89158821106,-0.819522619247,0.798035144806,-0.711899995804,0.137496963143,-0.29961669445,0.620099067688
1555298550519133205,28407,1555298550519133205,world,-2.89159965515,-0.819504499435,0.79803109169,-0.71192908287,0.137412145734,-0.299546122551,0.620118618011
1555298550528452965,28408,1555298550528452965,world,-2.8915977478,-0.819501638412,0.798056602478,-0.711940944195,0.137390092015,-0.299629837275,0.62006932497
1555298550538790112,28409,1555298550538790112,world,-2.89163208008,-0.819488763809,0.798097372055,-0.711876988411,0.137353420258,-0.299518436193,0.620204627514
1555298550548121804,28410,1555298550548121804,world,-2.89166545868,-0.819467306137,0.79810500145,-0.711849927902,0.13705958426,-0.299524784088,0.620297670364
1555298550548173856,28411,1555298550548173856,world,-2.89162158966,-0.819515705109,0.797987699509,-0.711855530739,0.137577712536,-0.299744099379,0.620070636272
1555298550568886006,28412,1555298550568886006,world,-2.89165782928,-0.81945681572,0.798006057739,-0.711865067482,0.137012422085,-0.299430578947,0.62033623457
1555298550578233165,28413,1555298550578233165,world,-2.89164352417,-0.81950545311,0.798023700714,-0.711917638779,0.137414768338,-0.299749016762,0.620033025742
1555298550578300757,28414,1555298550578300757,world,-2.89164924622,-0.819501399994,0.79807138443,-0.711869060993,0.136976644397,-0.299444615841,0.620332837105
1555298550588677599,28415,1555298550588677599,world,-2.89162349701,-0.819530725479,0.79805803299,-0.711836099625,0.137088432908,-0.299413204193,0.620361089706
1555298550599131323,28416,1555298550599131323,world,-2.89161300659,-0.819536209106,0.79804110527,-0.711840808392,0.137204393744,-0.299497812986,0.620289266109
1555298550608596481,28417,1555298550608596481,world,-2.89160919189,-0.819540500641,0.798010349274,-0.711855828762,0.137285038829,-0.299519270658,0.620243966579
1555298550618908651,28418,1555298550618908651,world,-2.89161586761,-0.819528341293,0.798037528992,-0.71180087328,0.137085586786,-0.299487292767,0.620366454124
1555298550618979760,28419,1555298550618979760,world,-2.89163589478,-0.819499731064,0.798080205917,-0.711922824383,0.13718496263,-0.299368947744,0.620261609554
1555298550628309293,28420,1555298550628309293,world,-2.89159297943,-0.819501399994,0.798099040985,-0.712005138397,0.137189149857,-0.299594163895,0.620057344437
1555298550638666181,28421,1555298550638666181,world,-2.8915681839,-0.819524526596,0.798047780991,-0.711960375309,0.137400105596,-0.2996070683,0.62005597353
1555298550648998605,28422,1555298550648998605,world,-2.89162635803,-0.81947016716,0.798062324524,-0.711881101131,0.137193843722,-0.299385875463,0.620299518108
1555298550649085817,28423,1555298550649085817,world,-2.89160251617,-0.819482326508,0.798017263412,-0.711925029755,0.137181654572,-0.299432754517,0.620229005814
1555298550658509127,28424,1555298550658509127,world,-2.89158535004,-0.819497585297,0.798010826111,-0.71194767952,0.137542203069,-0.299844145775,0.61992430687
1555298550668952977,28425,1555298550668952977,world,-2.89160823822,-0.819447755814,0.798045873642,-0.711874783039,0.137235537171,-0.299346834421,0.620316326618
1555298550678367628,28426,1555298550678367628,world,-2.89157772064,-0.819516181946,0.798040151596,-0.711947500706,0.137660235167,-0.300041258335,0.619803071022
1555298550688661313,28427,1555298550688661313,world,-2.89161872864,-0.81948018074,0.798052549362,-0.712035834789,0.13732637465,-0.29983022809,0.619877636433
1555298550698984051,28428,1555298550698984051,world,-2.89162445068,-0.819470405579,0.79803943634,-0.71193420887,0.137578308582,-0.299803942442,0.619951188564
1555298550699032384,28429,1555298550699032384,world,-2.89160251617,-0.819509983063,0.797995328903,-0.711909711361,0.137595191598,-0.300003439188,0.619879066944
1555298550708518843,28430,1555298550708518843,world,-2.89163398743,-0.819489955902,0.798043012619,-0.71185874939,0.13729351759,-0.29968547821,0.620158195496
1555298550718938631,28431,1555298550718938631,world,-2.89164066315,-0.819507598877,0.798062324524,-0.711727023125,0.137465953827,-0.299492686987,0.620364367962
1555298550728344923,28432,1555298550728344923,world,-2.89167499542,-0.819470643997,0.798092365265,-0.7118242383,0.136969670653,-0.299220740795,0.620493769646
1555298550738796541,28433,1555298550738796541,world,-2.89163303375,-0.819503545761,0.798027276993,-0.711754083633,0.137090161443,-0.299400448799,0.620460987091
1555298550738869233,28434,1555298550738869233,world,-2.89162254333,-0.819492816925,0.798017501831,-0.711841166019,0.137187808752,-0.299598991871,0.620243668556
1555298550758565153,28435,1555298550758565153,world,-2.89162540436,-0.819497346878,0.798047065735,-0.711908400059,0.137223035097,-0.299550950527,0.620181918144
1555298550758615152,28436,1555298550758615152,world,-2.89161777496,-0.819506168365,0.798099040985,-0.711993694305,0.137219846249,-0.2995429039,0.620088577271
1555298550769081536,28437,1555298550769081536,world,-2.89161682129,-0.819499015808,0.798098087311,-0.711937665939,0.13725399971,-0.299668908119,0.620084524155
1555298550778439214,28438,1555298550778439214,world,-2.8916015625,-0.819493532181,0.798045873642,-0.711975097656,0.137357607484,-0.299706697464,0.620000123978
1555298550788710810,28439,1555298550788710810,world,-2.89159584045,-0.819492340088,0.798011779785,-0.711804449558,0.137269467115,-0.299475967884,0.620327115059
1555298550798987354,28440,1555298550798987354,world,-2.89161205292,-0.819485664368,0.79803609848,-0.711919307709,0.137136653066,-0.299442887306,0.620240688324
1555298550808249057,28441,1555298550808249057,world,-2.89163303375,-0.819446325302,0.798095703125,-0.7119576931,0.137016490102,-0.29934835434,0.620268821716
1555298550808287984,28442,1555298550808287984,world,-2.89165687561,-0.819450855255,0.79811000824,-0.711936295033,0.136927098036,-0.299300014973,0.620336413383
1555298550818534070,28443,1555298550818534070,world,-2.89163017273,-0.819472074509,0.798043489456,-0.711907029152,0.137201428413,-0.299501031637,0.620212256908
1555298550828865515,28444,1555298550828865515,world,-2.89161396027,-0.819483041763,0.798005342484,-0.71197617054,0.137444674969,-0.299756258726,0.619955718517
1555298550838209871,28445,1555298550838209871,world,-2.89161777496,-0.819489240646,0.798027515411,-0.711969554424,0.137402996421,-0.299666136503,0.620016276836
1555298550848547437,28446,1555298550848547437,world,-2.89161300659,-0.819509029388,0.798035860062,-0.711765825748,0.137358814478,-0.299494087696,0.620342850685
1555298550858965963,28447,1555298550858965963,world,-2.89164352417,-0.819489240646,0.798074245453,-0.711917698383,0.137182027102,-0.299536764622,0.620187163353
1555298550859018968,28448,1555298550859018968,world,-2.89164066315,-0.819496154785,0.798049688339,-0.711867630482,0.137145966291,-0.299326360226,0.620354056358
1555298550868352340,28449,1555298550868352340,world,-2.89163780212,-0.819500684738,0.798045873642,-0.711868345737,0.137169733644,-0.299435049295,0.620295584202
1555298550878571394,28450,1555298550878571394,world,-2.89164066315,-0.8194835186,0.798015832901,-0.711915671825,0.13711796701,-0.299293249846,0.620321214199
1555298550889057764,28451,1555298550889057764,world,-2.89161586761,-0.819519281387,0.798007011414,-0.711915552616,0.137138694525,-0.299413502216,0.620258688927
1555298550898320987,28452,1555298550898320987,world,-2.89162731171,-0.819519281387,0.798088550568,-0.711895525455,0.13717417419,-0.299512684345,0.620226025581
1555298550908539104,28453,1555298550908539104,world,-2.8916425705,-0.81950879097,0.798134088516,-0.711869478226,0.136982277036,-0.299528241158,0.620290756226
1555298550918803333,28454,1555298550918803333,world,-2.89159011841,-0.819561004639,0.798081159592,-0.711932957172,0.137313455343,-0.299807012081,0.620010018349
1555298550918842372,28455,1555298550918842372,world,-2.89159965515,-0.819521665573,0.798015356064,-0.711906611919,0.137236341834,-0.299595564604,0.620159566402
1555298550928207196,28456,1555298550928207196,world,-2.89161300659,-0.819512367249,0.797997951508,-0.711956083775,0.137342721224,-0.299684345722,0.620036244392
1555298550938612586,28457,1555298550938612586,world,-2.89162158966,-0.819516658783,0.798073291779,-0.712015330791,0.137112721801,-0.299471348524,0.620121896267
1555298550948973048,28458,1555298550948973048,world,-2.89167404175,-0.819495201111,0.798130273819,-0.71186631918,0.136978432536,-0.299326509237,0.620392501354
1555298550958309773,28459,1555298550958309773,world,-2.89164447784,-0.819475889206,0.798107147217,-0.711903035641,0.137144252658,-0.299385756254,0.620285212994
1555298550958351120,28460,1555298550958351120,world,-2.8915977478,-0.819512367249,0.798030138016,-0.711934745312,0.137386187911,-0.299785584211,0.62000221014
1555298550968676198,28461,1555298550968676198,world,-2.89163684845,-0.819438457489,0.797993421555,-0.71191316843,0.136955946684,-0.299430429935,0.620293736458
1555298550979019091,28462,1555298550979019091,world,-2.89161014557,-0.819473981857,0.797999620438,-0.71193253994,0.137293756008,-0.299561470747,0.620133340359
1555298550988467149,28463,1555298550988467149,world,-2.89163780212,-0.819453477859,0.798068761826,-0.711875081062,0.136985957623,-0.299116939306,0.620481908321
1555298550998937975,28464,1555298550998937975,world,-2.89165878296,-0.819446086884,0.798097372055,-0.711927235126,0.136962682009,-0.299146234989,0.620413184166
1555298551028992883,28465,1555298551028992883,world,-2.89163017273,-0.81945848465,0.798059463501,-0.712000906467,0.137205854058,-0.299572974443,0.620068848133
1555298551029083444,28468,1555298551029083444,world,-2.89162921906,-0.81948184967,0.798041343689,-0.711907625198,0.137188449502,-0.299673557281,0.620131254196
1555298551038555084,28469,1555298551038555084,world,-2.89165496826,-0.819489955902,0.798074960709,-0.711798489094,0.137083873153,-0.299285709858,0.620466828346
1555298551049009584,28470,1555298551049009584,world,-2.89162921906,-0.819509744644,0.798094749451,-0.711873590946,0.137303993106,-0.29955893755,0.620200037956
1555298551058349263,28471,1555298551058349263,world,-2.89161777496,-0.819533586502,0.798035621643,-0.711994051933,0.137225091457,-0.299646228552,0.620037019253
1555298551058391401,28472,1555298551058391401,world,-2.89162254333,-0.81951212883,0.7979991436,-0.711936533451,0.136976867914,-0.299350678921,0.620300650597
1555298551068760425,28473,1555298551068760425,world,-2.89162731171,-0.819510936737,0.798014640808,-0.712004601955,0.137238547206,-0.299499124289,0.620093047619
1555298551079056811,28474,1555298551079056811,world,-2.89161491394,-0.819509744644,0.798075437546,-0.711906254292,0.137021586299,-0.299267113209,0.620365977287
1555298551108906747,28475,1555298551108906747,world,-2.89165210724,-0.819479942322,0.798112869263,-0.711904168129,0.13712310791,-0.299326628447,0.620317161083
1555298551118345758,28476,1555298551118345758,world,-2.89161205292,-0.819471359253,0.79806470871,-0.71199375391,0.13729904592,-0.299666583538,0.620011210442
1555298551118387451,28477,1555298551118387451,world,-2.89159393311,-0.819476366043,0.798002719879,-0.71198785305,0.137585520744,-0.299869030714,0.619856536388
1555298551118434326,28478,1555298551118434326,world,-2.89161396027,-0.819439649582,0.798028469086,-0.711829721928,0.137322515249,-0.299260675907,0.620390295982
1555298551118458798,28479,1555298551118458798,world,-2.89161205292,-0.819474220276,0.798038482666,-0.711882352829,0.13731046021,-0.299487471581,0.620223045349
1555298551148396305,28480,1555298551148396305,world,-2.89162635803,-0.819461345673,0.798106908798,-0.711824476719,0.136992678046,-0.299098432064,0.620547413826
1555298551148442662,28481,1555298551148442662,world,-2.89161682129,-0.819457769394,0.798103809357,-0.711951434612,0.137159749866,-0.299357622862,0.620239913464
1555298551148495385,28482,1555298551148495385,world,-2.89157581329,-0.819483995438,0.7980427742,-0.711852610111,0.137277334929,-0.299483835697,0.620266318321
1555298551148518157,28483,1555298551148518157,world,-2.89160919189,-0.819458723068,0.798039197922,-0.711927175522,0.137225866318,-0.299420595169,0.620222568512
1555298551158964001,28484,1555298551158964001,world,-2.89162349701,-0.819464206696,0.798062801361,-0.711941063404,0.137409120798,-0.299616873264,0.620071291924
1555298551168306209,28485,1555298551168306209,world,-2.89163208008,-0.819467782974,0.798083782196,-0.711968898773,0.137263000011,-0.299436211586,0.620158910751
1555298551188936815,28486,1555298551188936815,world,-2.89164829254,-0.819452524185,0.798100709915,-0.711925208569,0.137126669288,-0.299361795187,0.620275199413
1555298551188992593,28487,1555298551188992593,world,-2.89163303375,-0.819454193115,0.798065185547,-0.711901903152,0.137218341231,-0.299434781075,0.62024641037
1555298551198439456,28488,1555298551198439456,world,-2.89160823822,-0.819490194321,0.798011779785,-0.71182847023,0.137247979641,-0.299480319023,0.620302200317
1555298551198494596,28489,1555298551198494596,world,-2.89160442352,-0.819484233856,0.798006296158,-0.711860239506,0.137321382761,-0.299294173717,0.620339274406
1555298551228620985,28490,1555298551228620985,world,-2.89165401459,-0.819429159164,0.798094034195,-0.711863279343,0.136845543981,-0.299115419388,0.620527267456
1555298551228693375,28491,1555298551228693375,world,-2.89163970947,-0.819434165955,0.79807472229,-0.712024509907,0.136833280325,-0.299281895161,0.620264649391
1555298551228720370,28492,1555298551228720370,world,-2.89161491394,-0.819443464279,0.798065185547,-0.712015986443,0.137026190758,-0.299430459738,0.62016004324
1555298551239089755,28493,1555298551239089755,world,-2.89157295227,-0.819494724274,0.798030614853,-0.711885690689,0.137310341001,-0.299589276314,0.620170116425
1555298551248414422,28494,1555298551248414422,world,-2.89157962799,-0.819494247437,0.798032283783,-0.711945056915,0.137388423085,-0.299706339836,0.620028018951
1555298551248451064,28495,1555298551248451064,world,-2.8915977478,-0.819475889206,0.7980427742,-0.711836874485,0.137257546186,-0.299442946911,0.62030851841
1555298551258848578,28496,1555298551258848578,world,-2.89159107208,-0.819504737854,0.798024177551,-0.711883366108,0.137316733599,-0.299616396427,0.620158314705
1555298551268176394,28497,1555298551268176394,world,-2.89159393311,-0.819498538971,0.79805803299,-0.71194344759,0.137327179313,-0.299694597721,0.620049118996
1555298551278501007,28498,1555298551278501007,world,-2.89162540436,-0.819496870041,0.798087835312,-0.7119576931,0.137256458402,-0.299483776093,0.620150327682
1555298551288942847,28499,1555298551288942847,world,-2.89162635803,-0.819494009018,0.798089742661,-0.711988270283,0.137238964438,-0.299346625805,0.620185256004
1555298551298290419,28500,1555298551298290419,world,-2.89161968231,-0.819494485855,0.798066616058,-0.712000191212,0.137195080519,-0.299534738064,0.620090603828
1555298551298353833,28501,1555298551298353833,world,-2.89164447784,-0.819459915161,0.798053741455,-0.711926400661,0.136911079288,-0.299249738455,0.620375573635
1555298551308734016,28502,1555298551308734016,world,-2.89163398743,-0.819491624832,0.7980427742,-0.711927294731,0.137143969536,-0.299450725317,0.620226085186
1555298551318513731,28503,1555298551318513731,world,-2.89166545868,-0.819445371628,0.798073768616,-0.711984634399,0.136874988675,-0.299257040024,0.620313167572
1555298551328922045,28504,1555298551328922045,world,-2.89164066315,-0.819458961487,0.798053979874,-0.711926221848,0.13720549643,-0.299484491348,0.620197296143
1555298551338313409,28505,1555298551338313409,world,-2.89162540436,-0.81945681572,0.798027515411,-0.711854100227,0.137233972549,-0.299345701933,0.620340764523
1555298551348626420,28506,1555298551348626420,world,-2.89159679413,-0.819479942322,0.797995567322,-0.711910009384,0.13747061789,-0.2997610569,0.620023727417
1555298551348708484,28507,1555298551348708484,world,-2.89161872864,-0.819465637207,0.798021316528,-0.711886465549,0.137522131205,-0.29981392622,0.620013594627
1555298551359077496,28508,1555298551359077496,world,-2.89161396027,-0.819466590881,0.798051118851,-0.711924552917,0.137322440743,-0.299698829651,0.620069980621
1555298551368527826,28509,1555298551368527826,world,-2.89161300659,-0.81948018074,0.798051357269,-0.711895465851,0.137239828706,-0.299578428268,0.620179653168
1555298551378881345,28510,1555298551378881345,world,-2.89159107208,-0.819472551346,0.798058748245,-0.711815059185,0.137087389827,-0.299209922552,0.620483577251
1555298551388321399,28511,1555298551388321399,world,-2.89160060883,-0.819474935532,0.798082590103,-0.711762070656,0.137194573879,-0.299240082502,0.620505988598
1555298551398755899,28512,1555298551398755899,world,-2.89158916473,-0.819469213486,0.798092603683,-0.711886465549,0.137033432722,-0.299389302731,0.620327115059
1555298551398795680,28513,1555298551398795680,world,-2.89156150818,-0.819504976273,0.798044681549,-0.711868166924,0.137206435204,-0.299434751272,0.620287835598
1555298551408055942,28514,1555298551408055942,world,-2.89157295227,-0.819487333298,0.798044204712,-0.711932122707,0.137365147471,-0.299645394087,0.620077550411
1555298551418453819,28515,1555298551418453819,world,-2.89159107208,-0.819489002228,0.798069953918,-0.711935460567,0.137286886573,-0.299634426832,0.620096385479
1555298551428791615,28516,1555298551428791615,world,-2.89160346985,-0.819508314133,0.798100709915,-0.711983501911,0.13727709651,-0.299645245075,0.620038151741
1555298551438058565,28517,1555298551438058565,world,-2.89161586761,-0.819466590881,0.798075914383,-0.711890518665,0.1371512115,-0.29944986105,0.620267033577
1555298551448405204,28518,1555298551448405204,world,-2.89161396027,-0.819463014603,0.79802274704,-0.711965620518,0.137142270803,-0.299395024776,0.620209336281
1555298551448444596,28519,1555298551448444596,world,-2.89160251617,-0.819494485855,0.798023700714,-0.711981117725,0.137372300029,-0.299642145634,0.620021224022
1555298551458831822,28520,1555298551458831822,world,-2.89163017273,-0.819491624832,0.798077106476,-0.711994469166,0.137317225337,-0.299565255642,0.620055317879
1555298551468086407,28521,1555298551468086407,world,-2.89163303375,-0.819482326508,0.798099279404,-0.711943149567,0.137161687016,-0.299594163895,0.620134592056
1555298551478483133,28522,1555298551478483133,world,-2.89164543152,-0.81945681572,0.798070907593,-0.711850881577,0.137199833989,-0.299518108368,0.620268821716
1555298551488761577,28523,1555298551488761577,world,-2.8916311264,-0.819471597672,0.798000097275,-0.711854457855,0.137252047658,-0.299375653267,0.620321989059
1555298551498022510,28524,1555298551498022510,world,-2.89161777496,-0.819472789764,0.798007249832,-0.711833536625,0.137192696333,-0.299443423748,0.620326399803
1555298551498061704,28525,1555298551498061704,world,-2.8916053772,-0.819512844086,0.79803776741,-0.712007820606,0.137573748827,-0.299843013287,0.619848847389
1555298551508369767,28526,1555298551508369767,world,-2.89161586761,-0.819472312927,0.798079252243,-0.712026894093,0.137417167425,-0.299613058567,0.61997282505
1555298551518772625,28527,1555298551518772625,world,-2.89161872864,-0.819480419159,0.798070430756,-0.712034106255,0.137353181839,-0.299613088369,0.619978606701
1555298551528101314,28528,1555298551528101314,world,-2.89161968231,-0.819458723068,0.798053741455,-0.711963236332,0.137064859271,-0.299419820309,0.620217204094
1555298551538555543,28529,1555298551538555543,world,-2.89158535004,-0.819485664368,0.798039913177,-0.711928546429,0.137366697192,-0.299749821424,0.62003082037
1555298551549002477,28530,1555298551549002477,world,-2.89157676697,-0.819532871246,0.798039913177,-0.711875498295,0.137312740088,-0.299580395222,0.620185494423
1555298551549043179,28531,1555298551549043179,world,-2.89161777496,-0.81946349144,0.798094987869,-0.711954295635,0.1370138973,-0.299056380987,0.620413959026
1555298551558479273,28532,1555298551558479273,world,-2.89162254333,-0.819473981857,0.798064947128,-0.711888372898,0.136941283941,-0.299014151096,0.620525956154
1555298551568930183,28533,1555298551568930183,world,-2.89162921906,-0.819485187531,0.798064470291,-0.711990177631,0.136944681406,-0.299310624599,0.620265603065
1555298551578377827,28534,1555298551578377827,world,-2.89164447784,-0.81946349144,0.798051834106,-0.711960017681,0.13713683188,-0.299381166697,0.620223581791
1555298551588648793,28535,1555298551588648793,world,-2.89161586761,-0.81948184967,0.798040628433,-0.711923480034,0.137363493443,-0.299629658461,0.620095431805
1555298551599021780,28536,1555298551599021780,world,-2.89161968231,-0.819492101669,0.79806804657,-0.711902618408,0.13729698956,-0.299623966217,0.620136976242
1555298551599062045,28537,1555298551599062045,world,-2.89164352417,-0.819482088089,0.798064231873,-0.711884856224,0.137312173843,-0.299567550421,0.620181024075
1555298551608522498,28538,1555298551608522498,world,-2.89166736603,-0.819463253021,0.798066854477,-0.711887598038,0.137298122048,-0.299507260323,0.620210170746
1555298551618970765,28539,1555298551618970765,world,-2.89166069031,-0.819460391998,0.798027515411,-0.711907923222,0.137131601572,-0.299466669559,0.620243430138
1555298551628421141,28540,1555298551628421141,world,-2.89165973663,-0.819453001022,0.798034191132,-0.711854219437,0.137049749494,-0.299319982529,0.620393753052
1555298551638870329,28541,1555298551638870329,world,-2.8916683197,-0.81946516037,0.798036336899,-0.711800813675,0.136953294277,-0.299319028854,0.620476961136
1555298551648320736,28542,1555298551648320736,world,-2.8916721344,-0.819457769394,0.798055648804,-0.71182513237,0.136980772018,-0.299312710762,0.620445966721
1555298551658782274,28543,1555298551658782274,world,-2.89168357849,-0.819452047348,0.798076629639,-0.711880683899,0.136928215623,-0.299381732941,0.620360612869
1555298551668047294,28544,1555298551668047294,world,-2.89165687561,-0.819474458694,0.798051118851,-0.712009370327,0.136913761497,-0.299343556166,0.620234429836
1555298551678397963,28545,1555298551678397963,world,-2.89162158966,-0.819496870041,0.798040866852,-0.712059736252,0.137266173959,-0.299526810646,0.620010137558
1555298551678442480,28546,1555298551678442480,world,-2.89162635803,-0.819524526596,0.798072099686,-0.711919307709,0.13723666966,-0.299343466759,0.620266437531
1555298551688724950,28547,1555298551688724950,world,-2.89159679413,-0.819541215897,0.798079490662,-0.711837351322,0.137221544981,-0.29941791296,0.620328068733
1555298551698052283,28548,1555298551698052283,world,-2.89160823822,-0.819501399994,0.798085927963,-0.711867392063,0.137213915586,-0.299512326717,0.620249629021
1555298551698106842,28549,1555298551698106842,world,-2.89163303375,-0.819484949112,0.798076868057,-0.71188813448,0.13715878129,-0.299516260624,0.620236039162
1555298551708498132,28550,1555298551708498132,world,-2.8915977478,-0.819513320923,0.798062086105,-0.711948156357,0.137219250202,-0.299648523331,0.620090007782
1555298551718919224,28551,1555298551718919224,world,-2.89162349701,-0.81947851181,0.798086643219,-0.711975514889,0.137003749609,-0.299472033978,0.620191454887
1555298551728243418,28552,1555298551728243418,world,-2.89162540436,-0.819466590881,0.798079490662,-0.711936056614,0.137105196714,-0.299381911755,0.620257735252
1555298551738586983,28553,1555298551738586983,world,-2.8916311264,-0.819465875626,0.798053741455,-0.711804389954,0.136947229505,-0.299225568771,0.620519161224
1555298551748953141,28554,1555298551748953141,world,-2.89164829254,-0.819462537766,0.7980427742,-0.711823523045,0.136978238821,-0.299165546894,0.620519280434
1555298551748994267,28555,1555298551748994267,world,-2.89164447784,-0.819498062134,0.798038244247,-0.71189147234,0.137133568525,-0.299237072468,0.620372653008
1555298551758423656,28556,1555298551758423656,world,-2.89164638519,-0.819474935532,0.798057079315,-0.711967051029,0.137138098478,-0.29944974184,0.620182156563
1555298551768844952,28557,1555298551768844952,world,-2.89166545868,-0.819486856461,0.798042297363,-0.7119114995,0.137000054121,-0.299363315105,0.620318293571
1555298551778166668,28558,1555298551778166668,world,-2.89165115356,-0.819506645203,0.79802274704,-0.711910963058,0.137160494924,-0.299471735954,0.620230913162
1555298551788525565,28559,1555298551788525565,world,-2.89167404175,-0.819498062134,0.798050165176,-0.712008535862,0.137120038271,-0.299530208111,0.620099663734
1555298551798917521,28560,1555298551798917521,world,-2.89168739319,-0.81947517395,0.798092126846,-0.712022542953,0.136867895722,-0.299335360527,0.620233297348
1555298551798959145,28561,1555298551798959145,world,-2.89167308807,-0.819477319717,0.798062086105,-0.711860716343,0.136942133307,-0.29938274622,0.620379805565
1555298551818562608,28562,1555298551818562608,world,-2.89165019989,-0.819481372833,0.798014879227,-0.711927890778,0.137268736959,-0.299783706665,0.620036840439
1555298551818615392,28563,1555298551818615392,world,-2.89163398743,-0.819469928741,0.79802441597,-0.711943149567,0.1371601969,-0.299684643745,0.620091199875
1555298551828926365,28564,1555298551828926365,world,-2.89163970947,-0.819473743439,0.798068284988,-0.711918890476,0.137176841497,-0.299585163593,0.620163559914
1555298551838260366,28565,1555298551838260366,world,-2.89166259766,-0.819438457489,0.798101902008,-0.712016403675,0.136911541224,-0.299293935299,0.620250821114
1555298551848654858,28566,1555298551848654858,world,-2.89165306091,-0.819442272186,0.798059940338,-0.712002515793,0.136963844299,-0.29938519001,0.62021112442
1555298551859124169,28567,1555298551859124169,world,-2.89164543152,-0.819443702698,0.79803943634,-0.71198874712,0.137010201812,-0.299403965473,0.620207667351
1555298551868571574,28568,1555298551868571574,world,-2.89162921906,-0.819436073303,0.798020362854,-0.711984157562,0.137234762311,-0.2995043993,0.620114803314
1555298551868615957,28569,1555298551868615957,world,-2.8916311264,-0.81946015358,0.798069477081,-0.711938500404,0.137038826942,-0.29942342639,0.620249688625
1555298551879012084,28570,1555298551879012084,world,-2.89164638519,-0.819479703903,0.798083305359,-0.711941003799,0.137014523149,-0.299297451973,0.620312929153
1555298551888371674,28571,1555298551888371674,world,-2.89164924622,-0.819475650787,0.798090219498,-0.711908757687,0.137171879411,-0.299526005983,0.620204746723
1555298551898850658,28572,1555298551898850658,world,-2.89164161682,-0.819477558136,0.798047542572,-0.711859881878,0.137206658721,-0.299425691366,0.620301663876
1555298551898891295,28573,1555298551898891295,world,-2.89164924622,-0.819501399994,0.798028469086,-0.711942672729,0.137149468064,-0.299544692039,0.620161771774
1555298551908316181,28574,1555298551908316181,world,-2.89163780212,-0.819509983063,0.798035621643,-0.711843192577,0.137124344707,-0.299420207739,0.620341718197
1555298551918806115,28575,1555298551918806115,world,-2.89162731171,-0.819523572922,0.798047065735,-0.711858332157,0.137072354555,-0.299311816692,0.620388150215
1555298551948857363,28576,1555298551948857363,world,-2.89167022705,-0.819517374039,0.798079013824,-0.711842596531,0.136781901121,-0.299066960812,0.620588421822
1555298551948904053,28577,1555298551948904053,world,-2.89165401459,-0.819504499435,0.798096179962,-0.711941361427,0.137096881866,-0.299421876669,0.620234191418
1555298551948938719,28578,1555298551948938719,world,-2.89166069031,-0.81948018074,0.798064231873,-0.711995899677,0.136964648962,-0.29938608408,0.620218157768
1555298551958366345,28579,1555298551958366345,world,-2.8916721344,-0.819478988647,0.79802441597,-0.711863517761,0.136977210641,-0.299266457558,0.620424985886
1555298551968746757,28580,1555298551968746757,world,-2.89164829254,-0.819477081299,0.798017263412,-0.711899280548,0.137106135488,-0.299266219139,0.620355606079
1555298551968789260,28581,1555298551968789260,world,-2.89165019989,-0.819484949112,0.798074007034,-0.711786806583,0.136991173029,-0.29925173521,0.620517134666
1555298551978097534,28582,1555298551978097534,world,-2.89164638519,-0.819473028183,0.798086881638,-0.711929380894,0.137089401484,-0.299573600292,0.620176434517
1555298551988545898,28583,1555298551988545898,world,-2.89164543152,-0.819453239441,0.798064231873,-0.711993813515,0.137213885784,-0.299684256315,0.620021283627
1555298551998991240,28584,1555298551998991240,world,-2.89166355133,-0.81942987442,0.798025369644,-0.71196526289,0.137025788426,-0.299379974604,0.620242655277
1555298551999033138,28585,1555298551999033138,world,-2.89166355133,-0.819419622421,0.798043489456,-0.711888611317,0.137320563197,-0.299511611462,0.620201945305
1555298552008474045,28586,1555298552008474045,world,-2.89166259766,-0.819436311722,0.798077106476,-0.711883664131,0.137190341949,-0.299202650785,0.620385587215
1555298552028246212,28587,1555298552028246212,world,-2.89163970947,-0.819452524185,0.798092603683,-0.711941719055,0.137238100171,-0.299502015114,0.620163917542
1555298552028287258,28588,1555298552028287258,world,-2.89167785645,-0.819404602051,0.798053026199,-0.711971640587,0.137087643147,-0.299293965101,0.620263278484
1555298552038772436,28589,1555298552038772436,world,-2.89161396027,-0.819460868835,0.798003911972,-0.71203237772,0.137402042747,-0.299830853939,0.619864583015
1555298552048086573,28590,1555298552048086573,world,-2.89161586761,-0.819486856461,0.798012971878,-0.711860179901,0.137445703149,-0.299649477005,0.620140314102
1555298552048127939,28591,1555298552048127939,world,-2.89167404175,-0.819445610046,0.798092126846,-0.711917757988,0.137091636658,-0.299330443144,0.620306670666
1555298552058596500,28592,1555298552058596500,world,-2.89170455933,-0.81942152977,0.798134088516,-0.71180665493,0.136688292027,-0.29890486598,0.620728194714
1555298552069065107,28593,1555298552069065107,world,-2.89165496826,-0.81947183609,0.798056840897,-0.711899518967,0.13706625998,-0.299342870712,0.620327234268
1555298552078511477,28594,1555298552078511477,world,-2.89164161682,-0.819458246231,0.798031806946,-0.712025403976,0.137065187097,-0.299544453621,0.620085477829
1555298552088960543,28595,1555298552088960543,world,-2.8916425705,-0.819453001022,0.798032283783,-0.711948513985,0.137036144733,-0.299254268408,0.620320260525
1555298552098321689,28596,1555298552098321689,world,-2.8916387558,-0.819438457489,0.798069953918,-0.711999952793,0.137136608362,-0.299597918987,0.620073199272
1555298552098364434,28597,1555298552098364434,world,-2.89165210724,-0.819412469864,0.798113584518,-0.711928904057,0.137030333281,-0.299425184727,0.620261788368
1555298552108683159,28598,1555298552108683159,world,-2.89165878296,-0.819399356842,0.798093795776,-0.711969673634,0.136945948005,-0.299151718616,0.62036550045
1555298552119049857,28599,1555298552119049857,world,-2.89159202576,-0.819426774979,0.798054695129,-0.712018847466,0.137372493744,-0.299705356359,0.619947373867
1555298552128516469,28600,1555298552128516469,world,-2.89159297943,-0.819437265396,0.798057794571,-0.712015628815,0.137299314141,-0.299538850784,0.620047807693
1555298552138989557,28601,1555298552138989557,world,-2.8915643692,-0.819450855255,0.798043489456,-0.711934268475,0.137544110417,-0.299869686365,0.619926989079
1555298552148443997,28602,1555298552148443997,world,-2.89161777496,-0.819405794144,0.798068284988,-0.711991250515,0.137031242251,-0.299343436956,0.620229423046
1555298552158905450,28603,1555298552158905450,world,-2.89161300659,-0.819425106049,0.798072099686,-0.711956739426,0.136950209737,-0.299329996109,0.62029337883
1555298552158945335,28604,1555298552158945335,world,-2.89161586761,-0.819417953491,0.798067808151,-0.711953222752,0.137066155672,-0.299443423748,0.620216965675
1555298552168388226,28605,1555298552168388226,world,-2.89160251617,-0.819418907166,0.798051118851,-0.711939334869,0.137275338173,-0.299571990967,0.620124578476
1555298552178837465,28606,1555298552178837465,world,-2.89160919189,-0.819422483444,0.79806637764,-0.711932778358,0.137169957161,-0.299498051405,0.620191037655
1555298552188315084,28607,1555298552188315084,world,-2.89160060883,-0.819391012192,0.798082113266,-0.711797893047,0.136591047049,-0.2990886271,0.620671093464
1555298552198766706,28608,1555298552198766706,world,-2.89160633087,-0.819399595261,0.798076629639,-0.711862742901,0.136852636933,-0.299167186022,0.620501339436
1555298552198804700,28609,1555298552198804700,world,-2.89160919189,-0.819437265396,0.798058986664,-0.711986124516,0.13712452352,-0.29953879118,0.620120406151
1555298552208110355,28610,1555298552208110355,world,-2.89162635803,-0.819450855255,0.79805970192,-0.711915016174,0.137164726853,-0.299555778503,0.620184898376
1555298552218574433,28611,1555298552218574433,world,-2.89164638519,-0.819467067719,0.798084974289,-0.711956739426,0.136969938874,-0.299426436424,0.620242357254
1555298552228946666,28612,1555298552228946666,world,-2.8916721344,-0.819464206696,0.798110485077,-0.711945295334,0.13673491776,-0.299274086952,0.620380878448
1555298552238394289,28613,1555298552238394289,world,-2.89163017273,-0.81951880455,0.798070907593,-0.711954653263,0.13730892539,-0.299579918385,0.620095849037
1555298552248844141,28614,1555298552248844141,world,-2.89162826538,-0.819516897202,0.798056602478,-0.711979627609,0.137258961797,-0.299553513527,0.620090961456
1555298552248886353,28615,1555298552248886353,world,-2.8916387558,-0.819528102875,0.79804110527,-0.711978018284,0.137253627181,-0.299572646618,0.620084643364
1555298552258316893,28616,1555298552258316893,world,-2.89166736603,-0.819494247437,0.798053979874,-0.711947143078,0.137042686343,-0.299344152212,0.620277106762
1555298552268782412,28617,1555298552268782412,world,-2.89166641235,-0.819472551346,0.798068523407,-0.711785435677,0.13706099987,-0.299155801535,0.620549380779
1555298552278083687,28618,1555298552278083687,world,-2.89165401459,-0.819449901581,0.798062324524,-0.711916029453,0.137196093798,-0.299364030361,0.620269417763
1555298552288442513,28619,1555298552288442513,world,-2.89164543152,-0.81942820549,0.79807472229,-0.711924850941,0.13714453578,-0.299546301365,0.6201826334
1555298552298784986,28620,1555298552298784986,world,-2.89163303375,-0.819410085678,0.798057556152,-0.711918652058,0.137144297361,-0.299669206142,0.620130419731
1555298552298827151,28621,1555298552298827151,world,-2.89160442352,-0.81941986084,0.798022031784,-0.712065279484,0.137451991439,-0.29978710413,0.61983692646
1555298552308136124,28622,1555298552308136124,world,-2.89161396027,-0.819388866425,0.798015356064,-0.711975395679,0.137332424521,-0.299580276012,0.620066523552
1555298552318959205,28623,1555298552318959205,world,-2.89159297943,-0.819406270981,0.798047542572,-0.711918473244,0.137293875217,-0.299596875906,0.620132386684
1555298552328303110,28624,1555298552328303110,world,-2.89159870148,-0.81941318512,0.798087596893,-0.711893796921,0.13730622828,-0.299482345581,0.620213270187
1555298552338783519,28625,1555298552338783519,world,-2.89159870148,-0.819414615631,0.798072576523,-0.711977541447,0.137096628547,-0.299264609814,0.620268702507
1555298552348098695,28626,1555298552348098695,world,-2.89158248901,-0.819448709488,0.798052787781,-0.711970150471,0.137211173773,-0.299496352673,0.620139956474
1555298552348145520,28627,1555298552348145520,world,-2.89157962799,-0.819466114044,0.798061609268,-0.711963415146,0.137183442712,-0.299595236778,0.620105981827
1555298552358473581,28628,1555298552358473581,world,-2.89161205292,-0.819477319717,0.798072576523,-0.711969554424,0.137316912413,-0.299482047558,0.620124220848
1555298552368937931,28629,1555298552368937931,world,-2.89162158966,-0.819471597672,0.798130750656,-0.71199887991,0.136888593435,-0.299193918705,0.620324254036
1555298552378373121,28630,1555298552378373121,world,-2.8916311264,-0.819494009018,0.798109769821,-0.711941421032,0.137139186263,-0.299338668585,0.620264947414
1555298552388706449,28631,1555298552388706449,world,-2.89164447784,-0.819494009018,0.798072099686,-0.711908459663,0.137178480625,-0.299447745085,0.620241343975
1555298552399086936,28632,1555298552399086936,world,-2.89163208008,-0.819499969482,0.798027276993,-0.711897909641,0.137084275484,-0.299624741077,0.620189070702
1555298552408469043,28633,1555298552408469043,world,-2.89165687561,-0.819457769394,0.798010826111,-0.711896002293,0.137103840709,-0.299507081509,0.620243668556
1555298552408510678,28634,1555298552408510678,world,-2.89167308807,-0.819447040558,0.798059940338,-0.711875259876,0.136980980635,-0.299402654171,0.620344996452
1555298552418951071,28635,1555298552418951071,world,-2.89166259766,-0.819453477859,0.798085451126,-0.711937904358,0.137084186077,-0.299569964409,0.620169401169
1555298552428402281,28636,1555298552428402281,world,-2.89167499542,-0.819420337677,0.798094987869,-0.711954116821,0.1370536834,-0.299548983574,0.620167732239
1555298552438862796,28637,1555298552438862796,world,-2.89165782928,-0.819388866425,0.79803943634,-0.711924850941,0.137011274695,-0.299464404583,0.620251536369
1555298552448225574,28638,1555298552448225574,world,-2.891664505,-0.819396734238,0.798009157181,-0.711962878704,0.137201085687,-0.29952147603,0.620138466358
1555298552458641525,28639,1555298552458641525,world,-2.89167308807,-0.819370508194,0.798079490662,-0.71194678545,0.13678817451,-0.299184143543,0.62041079998
1555298552458712745,28640,1555298552458712745,world,-2.8916349411,-0.819440364838,0.798069238663,-0.711842238903,0.137155875564,-0.299251645803,0.620417058468
1555298552469098257,28641,1555298552469098257,world,-2.89164161682,-0.819442033768,0.798099040985,-0.711912214756,0.137056022882,-0.299283087254,0.620343804359
1555298552478525140,28642,1555298552478525140,world,-2.89161682129,-0.819454431534,0.798057794571,-0.711942493916,0.137177750468,-0.29937928915,0.620235562325
1555298552488844126,28643,1555298552488844126,world,-2.89159584045,-0.819452524185,0.798023939133,-0.711973488331,0.137199684978,-0.29931896925,0.620224356651
1555298552498146884,28644,1555298552498146884,world,-2.89160060883,-0.819451093674,0.798067331314,-0.711946487427,0.137067869306,-0.299311041832,0.62028837204
1555298552508549347,28645,1555298552508549347,world,-2.89159297943,-0.819469928741,0.798118591309,-0.711951553822,0.137038841844,-0.299454838037,0.620219528675
1555298552518949381,28646,1555298552518949381,world,-2.89159393311,-0.819478750229,0.798135042191,-0.711897671223,0.137056022882,-0.299587190151,0.620213627815
1555298552528331246,28647,1555298552528331246,world,-2.89160251617,-0.819466352463,0.798107385635,-0.711953878403,0.137206569314,-0.299521207809,0.620147705078
1555298552528369969,28648,1555298552528369969,world,-2.89160251617,-0.819489717484,0.798038721085,-0.711954176426,0.137268826365,-0.299575984478,0.62010705471
1555298552538783629,28649,1555298552538783629,world,-2.89163780212,-0.819460391998,0.798051834106,-0.711888611317,0.136929318309,-0.299361526966,0.620360970497
1555298552548051881,28650,1555298552548051881,world,-2.89164829254,-0.819486141205,0.798070907593,-0.711883187294,0.137050330639,-0.299499005079,0.62027400732
1555298552548091261,28651,1555298552548091261,world,-2.89166069031,-0.819486379623,0.798099756241,-0.711909353733,0.136988908052,-0.299447596073,0.620282530785
1555298552558553427,28652,1555298552558553427,world,-2.89166927338,-0.819498300552,0.798088788986,-0.711936175823,0.137140378356,-0.299621552229,0.620134294033
1555298552569000840,28653,1555298552569000840,world,-2.89168548584,-0.819521903992,0.798030614853,-0.711888790131,0.137324512005,-0.299646615982,0.620135784149
1555298552578477564,28654,1555298552578477564,world,-2.89170455933,-0.819507837296,0.798010826111,-0.711849033833,0.137083128095,-0.299415498972,0.620346367359
1555298552588861065,28655,1555298552588861065,world,-2.89170646667,-0.819578170776,0.798027038574,-0.711859464645,0.137182548642,-0.299383044243,0.620327949524
1555298552598169240,28656,1555298552598169240,world,-2.89174556732,-0.819555044174,0.798137664795,-0.711863458157,0.136678919196,-0.299253076315,0.620497405529
1555298552608552252,28657,1555298552608552252,world,-2.89177417755,-0.819550275803,0.798125267029,-0.711829900742,0.136699810624,-0.29918718338,0.620563030243
1555298552608593793,28658,1555298552608593793,world,-2.89172077179,-0.819579124451,0.798051595688,-0.711919009686,0.13689802587,-0.299516886473,0.620258033276
1555298552619033897,28659,1555298552619033897,world,-2.89168071747,-0.819573879242,0.798008203506,-0.712049663067,0.137285158038,-0.299700945616,0.619933545589
1555298552628472340,28660,1555298552628472340,world,-2.89167976379,-0.81955909729,0.798028707504,-0.712019205093,0.137071564794,-0.299498200417,0.620113611221
1555298552638925138,28661,1555298552638925138,world,-2.89166259766,-0.819562196732,0.798075675964,-0.711921989918,0.137121707201,-0.299577891827,0.620175719261
1555298552638967867,28662,1555298552638967867,world,-2.89166355133,-0.819518089294,0.798124313354,-0.711919903755,0.137031495571,-0.299448102713,0.62026065588
1555298552658802556,28663,1555298552658802556,world,-2.89166259766,-0.819471120834,0.798098325729,-0.711934089661,0.136732116342,-0.299140095711,0.620459079742
1555298552658843773,28664,1555298552658843773,world,-2.89160823822,-0.819475650787,0.798028230667,-0.711969316006,0.137096688151,-0.299395769835,0.620214879513
1555298552668158887,28665,1555298552668158887,world,-2.89158535004,-0.819493770599,0.798010349274,-0.71203571558,0.137305647135,-0.29964774847,0.619970679283
1555298552678501354,28666,1555298552678501354,world,-2.8916015625,-0.81947851181,0.798067092896,-0.711947917938,0.137050569057,-0.299315452576,0.62028837204
1555298552688771855,28667,1555298552688771855,world,-2.89162540436,-0.819476604462,0.798123836517,-0.711937904358,0.137034118176,-0.299435734749,0.620245456696
1555298552699094339,28668,1555298552699094339,world,-2.89160633087,-0.819502592087,0.798105955124,-0.711929500103,0.137144729495,-0.299523085356,0.620188415051
1555298552699135525,28669,1555298552699135525,world,-2.89162063599,-0.819466352463,0.798082113266,-0.711925983429,0.13688929379,-0.299242734909,0.620384216309
1555298552708546823,28670,1555298552708546823,world,-2.89162731171,-0.819482803345,0.798062086105,-0.711856842041,0.137021079659,-0.299423456192,0.620347261429
1555298552718997534,28671,1555298552718997534,world,-2.89164066315,-0.819510698318,0.798081874847,-0.711921751499,0.136999934912,-0.299295008183,0.620339512825
1555298552728461295,28672,1555298552728461295,world,-2.89168930054,-0.819516181946,0.798132419586,-0.711906850338,0.136889740825,-0.29916998744,0.620441138744
1555298552738915825,28673,1555298552738915825,world,-2.89165210724,-0.819566726685,0.798102378845,-0.711984574795,0.137083932757,-0.299677222967,0.620064198971
1555298552748427698,28674,1555298552748427698,world,-2.89165687561,-0.819555521011,0.798058271408,-0.711934685707,0.137003064156,-0.299552768469,0.620199382305
1555298552758871908,28675,1555298552758871908,world,-2.89168357849,-0.819546937943,0.798017024994,-0.71186953783,0.137148484588,-0.29942625761,0.620303273201
1555298552758913267,28676,1555298552758913267,world,-2.89170265198,-0.819527864456,0.798050880432,-0.711886703968,0.137036785483,-0.29955381155,0.620246529579
1555298552768287532,28677,1555298552768287532,world,-2.89175033569,-0.819492340088,0.798117876053,-0.711982190609,0.13651137054,-0.298935264349,0.620551288128
1555298552778737760,28678,1555298552778737760,world,-2.89171504974,-0.819494485855,0.798099994659,-0.711821615696,0.136786490679,-0.298983991146,0.620651364326
1555298552788047457,28679,1555298552788047457,world,-2.89165306091,-0.819516897202,0.798046112061,-0.712013244629,0.137115299702,-0.299522995949,0.620098829269
1555298552798494719,28680,1555298552798494719,world,-2.89165782928,-0.81946349144,0.79803776741,-0.71197873354,0.13698092103,-0.299357354641,0.620248198509
1555298552798539373,28681,1555298552798539373,world,-2.89163970947,-0.819473981857,0.798006296158,-0.712026834488,0.137207388878,-0.29967045784,0.619991540909
1555298552809007716,28682,1555298552809007716,world,-2.89162445068,-0.819458007812,0.79806804657,-0.711939692497,0.137020349503,-0.299428313971,0.620249927044
1555298552818346327,28683,1555298552818346327,world,-2.89160346985,-0.819475412369,0.798099279404,-0.711916685104,0.137094154954,-0.299702763557,0.620127439499
1555298552828676798,28684,1555298552828676798,world,-2.89160346985,-0.819470643997,0.798112630844,-0.711932659149,0.136989727616,-0.299510717392,0.620224952698
1555298552839070157,28685,1555298552839070157,world,-2.89157772064,-0.819509983063,0.79806303978,-0.711923599243,0.13711823523,-0.299323439598,0.620297431946
1555298552839116938,28686,1555298552839116938,world,-2.89157772064,-0.819519996643,0.798030138016,-0.71184617281,0.137260586023,-0.299483835697,0.620277285576
1555298552848573957,28687,1555298552848573957,world,-2.89160728455,-0.8195104599,0.798058986664,-0.71184784174,0.137090876698,-0.2992413342,0.62043005228
1555298552858969339,28688,1555298552858969339,world,-2.89161968231,-0.8195104599,0.798094272614,-0.711964726448,0.137019395828,-0.299149602652,0.620355784893
1555298552868363614,28689,1555298552868363614,world,-2.89163780212,-0.819524288177,0.798081636429,-0.711927890778,0.136991217732,-0.299121975899,0.620417833328
1555298552878723997,28690,1555298552878723997,world,-2.8916721344,-0.819509267807,0.798108100891,-0.711953938007,0.136800199747,-0.299226105213,0.620379805565
1555298552888048929,28691,1555298552888048929,world,-2.89168739319,-0.819529771805,0.79805803299,-0.712003469467,0.136707127094,-0.299333810806,0.620291471481
1555298552898522180,28692,1555298552898522180,world,-2.89169979095,-0.819522380829,0.798015832901,-0.711903750896,0.136993810534,-0.299264162779,0.620376288891
1555298552908973255,28693,1555298552908973255,world,-2.89169216156,-0.819541454315,0.798018932343,-0.711888730526,0.137115761638,-0.299476832151,0.62026399374
1555298552909015650,28694,1555298552909015650,world,-2.89173603058,-0.819540739059,0.798077821732,-0.711869955063,0.137036040425,-0.299338579178,0.620369911194
1555298552918484381,28695,1555298552918484381,world,-2.89172744751,-0.819539070129,0.798079252243,-0.711805462837,0.137110114098,-0.299452394247,0.620372474194
1555298552928881567,28696,1555298552928881567,world,-2.89173126221,-0.819511413574,0.798041343689,-0.711791753769,0.137158229947,-0.299508929253,0.62035036087
1555298552938322871,28697,1555298552938322871,world,-2.89172172546,-0.819475889206,0.79803109169,-0.711838543415,0.136981472373,-0.299330770969,0.620421767235
1555298552948741219,28698,1555298552948741219,world,-2.89169979095,-0.819508075714,0.798034667969,-0.711937904358,0.136876344681,-0.299414992332,0.620290279388
1555298552958061361,28699,1555298552958061361,world,-2.89172649384,-0.819489002228,0.7980864048,-0.711957931519,0.136694312096,-0.299153447151,0.620433568954
1555298552968514103,28700,1555298552968514103,world,-2.89171791077,-0.819490432739,0.79808473587,-0.711911141872,0.136818870902,-0.299128264189,0.620471894741
1555298552968554773,28701,1555298552968554773,world,-2.89165592194,-0.819532155991,0.798029661179,-0.711905479431,0.136919856071,-0.299395799637,0.620327234268
1555298552978933282,28702,1555298552978933282,world,-2.89162063599,-0.819527864456,0.798055171967,-0.711937725544,0.137188643217,-0.29958063364,0.620141386986
1555298552988313038,28703,1555298552988313038,world,-2.89158821106,-0.819521188736,0.798104524612,-0.712033987045,0.137335792184,-0.299555301666,0.620010614395
1555298552998786305,28704,1555298552998786305,world,-2.89156913757,-0.819531440735,0.798147678375,-0.711970925331,0.137157380581,-0.299486845732,0.620155513287
1555298552998827619,28705,1555298552998827619,world,-2.89156246185,-0.819536685944,0.798166275024,-0.711921095848,0.137012004852,-0.299216121435,0.620375573635
1555298553008088718,28706,1555298553008088718,world,-2.89151954651,-0.819571018219,0.798146724701,-0.711908519268,0.137162700295,-0.299404174089,0.620266020298
1555298553018536407,28707,1555298553018536407,world,-2.89148426056,-0.819604635239,0.798119544983,-0.711905360222,0.137311518192,-0.299598067999,0.620142877102
1555298553038287072,28708,1555298553038287072,world,-2.89149475098,-0.819615364075,0.798139095306,-0.711936891079,0.137400940061,-0.299533993006,0.62011796236
1555298553038328742,28709,1555298553038328742,world,-2.89153194427,-0.819581985474,0.798185110092,-0.711885929108,0.136879101396,-0.299085497856,0.62050819397
1555298553048802384,28710,1555298553048802384,world,-2.89153766632,-0.819612264633,0.798173904419,-0.711952209473,0.136814534664,-0.299132585526,0.620423793793
1555298553048844418,28711,1555298553048844418,world,-2.89156627655,-0.819560289383,0.798133611679,-0.711933374405,0.136892214417,-0.298980355263,0.62050151825
1555298553068551517,28712,1555298553068551517,world,-2.89158153534,-0.819535970688,0.798107147217,-0.711982429028,0.137153968215,-0.299245208502,0.620259702206
1555298553068624374,28713,1555298553068624374,world,-2.89159202576,-0.819524526596,0.798085451126,-0.711924910545,0.137133479118,-0.299287170172,0.620310008526
1555298553078998863,28714,1555298553078998863,world,-2.89162445068,-0.819479227066,0.798083543777,-0.711921036243,0.137016505003,-0.299340307713,0.620314717293
1555298553088357221,28715,1555298553088357221,world,-2.89162540436,-0.819456100464,0.798083782196,-0.71199709177,0.137108281255,-0.299611717463,0.62007600069
1555298553098825606,28716,1555298553098825606,world,-2.89162254333,-0.819461345673,0.798050165176,-0.712028563023,0.137111872435,-0.299645483494,0.620022892952
1555298553098878907,28717,1555298553098878907,world,-2.89166069031,-0.819438934326,0.798059225082,-0.711986839771,0.13716493547,-0.299421966076,0.620166897774
1555298553108135397,28718,1555298553108135397,world,-2.89165687561,-0.819437503815,0.798068761826,-0.711900770664,0.137323960662,-0.299437105656,0.620223402977
1555298553118578833,28719,1555298553118578833,world,-2.891664505,-0.81947517395,0.798080921173,-0.711967468262,0.137038305402,-0.299290657043,0.620280504227
1555298553128992856,28720,1555298553128992856,world,-2.89166259766,-0.819478988647,0.79811501503,-0.711940348148,0.136869817972,-0.299259364605,0.620364069939
1555298553138334840,28721,1555298553138334840,world,-2.89163970947,-0.819530010223,0.798096418381,-0.711913883686,0.13707318902,-0.299425423145,0.620269417763
1555298553148694192,28722,1555298553148694192,world,-2.89159393311,-0.819583415985,0.798070430756,-0.712000370026,0.137121930718,-0.299408912659,0.620167255402
1555298553148735839,28723,1555298553148735839,world,-2.8916015625,-0.81955575943,0.79811000824,-0.711917817593,0.136933639646,-0.299271970987,0.62036973238
1555298553168583115,28724,1555298553168583115,world,-2.89154052734,-0.819590091705,0.798106431961,-0.711940467358,0.137201473117,-0.299498766661,0.62017506361
1555298553168626440,28725,1555298553168626440,world,-2.89152336121,-0.819577932358,0.798129796982,-0.711984336376,0.13707922399,-0.299362868071,0.620217263699
1555298553179009392,28726,1555298553179009392,world,-2.89155197144,-0.819532871246,0.798127889633,-0.711991250515,0.137017771602,-0.299185723066,0.620308578014
1555298553188380476,28727,1555298553188380476,world,-2.89150619507,-0.819543600082,0.798106431961,-0.711934089661,0.137278571725,-0.299609065056,0.620111942291
1555298553198827445,28728,1555298553198827445,world,-2.8915309906,-0.819532871246,0.798092365265,-0.711996555328,0.137298896909,-0.299528002739,0.620074987411
1555298553208131262,28729,1555298553208131262,world,-2.89155673981,-0.819472789764,0.798110485077,-0.711922228336,0.137095436454,-0.299286544323,0.62032186985
1555298553208170382,28730,1555298553208170382,world,-2.89155673981,-0.819505214691,0.798092842102,-0.71202903986,0.137035831809,-0.29935079813,0.620181441307
1555298553218601349,28731,1555298553218601349,world,-2.89161491394,-0.819447278976,0.798126459122,-0.712003469467,0.136856853962,-0.299099683762,0.620371341705
1555298553229123539,28732,1555298553229123539,world,-2.89162540436,-0.819467067719,0.798084020615,-0.712006032467,0.137198731303,-0.299168199301,0.620259940624
1555298553238518085,28733,1555298553238518085,world,-2.8916053772,-0.819515228271,0.798059940338,-0.711980998516,0.137151822448,-0.29944857955,0.620163857937
1555298553248970857,28734,1555298553248970857,world,-2.89164638519,-0.819499969482,0.798056125641,-0.712005615234,0.137104451656,-0.299377322197,0.620180368423
1555298553249013007,28735,1555298553249013007,world,-2.89164543152,-0.819525241852,0.798061609268,-0.711912572384,0.137117728591,-0.29946872592,0.620240151882
1555298553258503358,28736,1555298553258503358,world,-2.89164638519,-0.819548845291,0.798088788986,-0.711979031563,0.137029409409,-0.299363702536,0.620233952999
1555298553268861781,28737,1555298553268861781,world,-2.89164352417,-0.819564580917,0.798054933548,-0.712035536766,0.137180447578,-0.299612849951,0.620015323162
1555298553278206428,28738,1555298553278206428,world,-2.89166545868,-0.819544792175,0.798084020615,-0.711906015873,0.136988371611,-0.299241840839,0.620385766029
1555298553288544454,28739,1555298553288544454,world,-2.8916311264,-0.819574832916,0.798077106476,-0.711945354939,0.13696244359,-0.29929882288,0.620318770409
1555298553298890097,28740,1555298553298890097,world,-2.89160823822,-0.819591522217,0.798091173172,-0.711933672428,0.137235671282,-0.299604952335,0.62012398243
1555298553298932281,28741,1555298553298932281,world,-2.89161872864,-0.819546461105,0.798125267029,-0.711903631687,0.136967271566,-0.299275696278,0.620376706123
1555298553308311202,28742,1555298553308311202,world,-2.89161109924,-0.819559812546,0.798094987869,-0.711978435516,0.136984169483,-0.299295425415,0.620277643204
1555298553319037885,28743,1555298553319037885,world,-2.89160060883,-0.819534301758,0.798113822937,-0.711917102337,0.137052819133,-0.29931935668,0.620321452618
1555298553328404295,28744,1555298553328404295,world,-2.89158153534,-0.819549560547,0.798097372055,-0.711954057217,0.137121349573,-0.299382030964,0.620233416557
1555298553338859828,28745,1555298553338859828,world,-2.89156150818,-0.819526910782,0.798094749451,-0.712072789669,0.137114807963,-0.29928407073,0.620145976543
1555298553348128544,28746,1555298553348128544,world,-2.89154243469,-0.819523572922,0.798097610474,-0.71191483736,0.137349933386,-0.299498260021,0.620171904564
1555298553348170639,28747,1555298553348170639,world,-2.89156723022,-0.819509029388,0.798114776611,-0.712051391602,0.136968925595,-0.299269199371,0.620209932327
1555298553358561141,28748,1555298553358561141,world,-2.89159202576,-0.819508075714,0.798107624054,-0.711960077286,0.137002959847,-0.29942381382,0.620232582092
1555298553368987843,28749,1555298553368987843,world,-2.89157962799,-0.819513559341,0.7980697155,-0.711986243725,0.137125119567,-0.299497097731,0.620140254498
1555298553378421520,28750,1555298553378421520,world,-2.89159965515,-0.819512367249,0.798093795776,-0.711954772472,0.136829003692,-0.299222797155,0.620374143124
1555298553388874701,28751,1555298553388874701,world,-2.89157772064,-0.819546937943,0.798085451126,-0.711943805218,0.137371987104,-0.299657523632,0.62005674839
1555298553398328312,28752,1555298553398328312,world,-2.8916053772,-0.819544792175,0.798086166382,-0.711923182011,0.137184277177,-0.299432903528,0.62023049593
1555298553398368685,28753,1555298553398368685,world,-2.89165401459,-0.819509029388,0.798099040985,-0.711919009686,0.136699005961,-0.298924654722,0.620587527752
1555298553408710988,28754,1555298553408710988,world,-2.89166545868,-0.819516897202,0.7980864048,-0.711983025074,0.136655598879,-0.299048841,0.620463728905
1555298553419161874,28755,1555298553419161874,world,-2.89165782928,-0.819545507431,0.798102617264,-0.711950778961,0.136938944459,-0.299154162407,0.620387554169
1555298553428625923,28756,1555298553428625923,world,-2.89167785645,-0.819537639618,0.798124313354,-0.711949467659,0.136681854725,-0.299105137587,0.620469272137
1555298553439078585,28757,1555298553439078585,world,-2.89165687561,-0.819530487061,0.798074245453,-0.711944937706,0.137003362179,-0.299315541983,0.620302140713
1555298553448513482,28758,1555298553448513482,world,-2.89165401459,-0.819511890411,0.798085689545,-0.711867153645,0.136806935072,-0.29933911562,0.620423436165
1555298553448555950,28759,1555298553448555950,world,-2.89161396027,-0.819545269012,0.798053979874,-0.711929798126,0.137322619557,-0.299524188042,0.620148181915
1555298553458885794,28760,1555298553458885794,world,-2.89161586761,-0.819512844086,0.798077106476,-0.711948812008,0.137281194329,-0.299429684877,0.620181143284
1555298553478744010,28761,1555298553478744010,world,-2.89160728455,-0.819487571716,0.798106908798,-0.71201890707,0.136842593551,-0.299187511206,0.620314538479
